{
  "results": [
    {
      "address_components": [
        {
          "long_name": "3690",
          "short_name": "3690",
          "types": [
            "street_number"
          ]
        },
        {
          "long_name": "Carlisle Road",
          "short_name": "Carlisle Rd",
          "types": [
            "route"
          ]
        },
        {
          "long_name": "Gardners",
          "short_name": "Gardners",
          "types": [
            "locality",
            "political"
          ]
        },
        {
          "long_name": "Huntington Township",
          "short_name": "Huntington Township",
          "types": [
            "administrative_area_level_3",
            "political"
          ]
        },
        {
          "long_name": "Adams County",
          "short_name": "Adams County",
          "types": [
            "administrative_area_level_2",
            "political"
          ]
        },
        {
          "long_name": "Pennsylvania",
          "short_name": "PA",
          "types": [
            "administrative_area_level_1",
            "political"
          ]
        },
        {
          "long_name": "United States",
          "short_name": "US",
          "types": [
            "country",
            "political"
          ]
        },
        {
          "long_name": "17324",
          "short_name": "17324",
          "types": [
            "postal_code"
          ]
        },
        {
          "long_name": "9513",
          "short_name": "9513",
          "types": [
            "postal_code_suffix"
          ]
        }
      ],
      "formatted_address": "3690 Carlisle Rd, Gardners, PA 17324, USA",
      "geometry": {
        "location": {
          "lat": 40.0199179,
          "lng": -77.20343799999999
        },
        "location_type": "ROOFTOP",
        "viewport": {
          "northeast": {
            "lat": 40.02126688029149,
            "lng": -77.20208901970848
          },
          "southwest": {
            "lat": 40.01856891970849,
            "lng": -77.20478698029149
          }
        }
      },
      "place_id": "ChIJlydffw4CyYkRQJsoZLZ812Q",
      "types": [
        "street_address"
      ]
    },
    {
      "address_components": [
        {
          "long_name": "Idaville",
          "short_name": "Idaville",
          "types": [
            "locality",
            "political"
          ]
        },
        {
          "long_name": "Huntington Township",
          "short_name": "Huntington Township",
          "types": [
            "administrative_area_level_3",
            "political"
          ]
        },
        {
          "long_name": "Adams County",
          "short_name": "Adams County",
          "types": [
            "administrative_area_level_2",
            "political"
          ]
        },
        {
          "long_name": "Pennsylvania",
          "short_name": "PA",
          "types": [
            "administrative_area_level_1",
            "political"
          ]
        },
        {
          "long_name": "United States",
          "short_name": "US",
          "types": [
            "country",
            "political"
          ]
        }
      ],
      "formatted_address": "Idaville, PA, USA",
      "geometry": {
        "bounds": {
          "northeast": {
            "lat": 40.02793,
            "lng": -77.1933909
          },
          "southwest": {
            "lat": 40.012097,
            "lng": -77.2108889
          }
        },
        "location": {
          "lat": 40.0149337,
          "lng": -77.2028972
        },
        "location_type": "APPROXIMATE",
        "viewport": {
          "northeast": {
            "lat": 40.02793,
            "lng": -77.1933909
          },
          "southwest": {
            "lat": 40.012097,
            "lng": -77.2108889
          }
        }
      },
      "place_id": "ChIJ3Q4phwUCyYkRjvZ10QHoVhg",
      "types": [
        "locality",
        "political"
      ]
    },
    {
      "address_components": [
        {
          "long_name": "Huntington Township",
          "short_name": "Huntington Township",
          "types": [
            "administrative_area_level_3",
            "political"
          ]
        },
        {
          "long_name": "Adams County",
          "short_name": "Adams County",
          "types": [
            "administrative_area_level_2",
            "political"
          ]
        },
        {
          "long_name": "Pennsylvania",
          "short_name": "PA",
          "types": [
            "administrative_area_level_1",
            "political"
          ]
        },
        {
          "long_name": "United States",
          "short_name": "US",
          "types": [
            "country",
            "political"
          ]
        }
      ],
      "formatted_address": "Huntington Township, PA, USA",
      "geometry": {
        "bounds": {
          "northeast": {
            "lat": 40.056796,
            "lng": -77.0727369
          },
          "southwest": {
            "lat": 39.9478481,
            "lng": -77.2293199
          }
        },
        "location": {
          "lat": 40.0074297,
          "lng": -77.1370115
        },
        "location_type": "APPROXIMATE",
        "viewport": {
          "northeast": {
            "lat": 40.056796,
            "lng": -77.0727369
          },
          "southwest": {
            "lat": 39.9478481,
            "lng": -77.2293199
          }
        }
      },
      "place_id": "ChIJi6pM8dT9yIkRblkRclIJM2I",
      "types": [
        "administrative_area_level_3",
        "political"
      ]
    },
    {
      "address_components": [
        {
          "long_name": "17324",
          "short_name": "17324",
          "types": [
            "postal_code"
          ]
        },
        {
          "long_name": "Gardners",
          "short_name": "Gardners",
          "types": [
            "locality",
            "political"
          ]
        },
        {
          "long_name": "Pennsylvania",
          "short_name": "PA",
          "types": [
            "administrative_area_level_1",
            "political"
          ]
        },
        {
          "long_name": "United States",
          "short_name": "US",
          "types": [
            "country",
            "political"
          ]
        }
      ],
      "formatted_address": "Gardners, PA 17324, USA",
      "geometry": {
        "bounds": {
          "northeast": {
            "lat": 40.09916,
            "lng": -77.12175289999999
          },
          "southwest": {
            "lat": 39.9770989,
            "lng": -77.374794
          }
        },
        "location": {
          "lat": 40.037928,
          "lng": -77.22901929999999
        },
        "location_type": "APPROXIMATE",
        "viewport": {
          "northeast": {
            "lat": 40.09916,
            "lng": -77.12175289999999
          },
          "southwest": {
            "lat": 39.9770989,
            "lng": -77.374794
          }
        }
      },
      "place_id": "ChIJseqLDcriyIkRVKtSvA4L3uc",
      "types": [
        "postal_code"
      ]
    },
    {
      "address_components": [
        {
          "long_name": "Adams County",
          "short_name": "Adams County",
          "types": [
            "administrative_area_level_2",
            "political"
          ]
        },
        {
          "long_name": "Pennsylvania",
          "short_name": "PA",
          "types": [
            "administrative_area_level_1",
            "political"
          ]
        },
        {
          "long_name": "United States",
          "short_name": "US",
          "types": [
            "country",
            "political"
          ]
        }
      ],
      "formatted_address": "Adams County, PA, USA",
      "geometry": {
        "bounds": {
          "northeast": {
            "lat": 40.0699449,
            "lng": -76.95493189999999
          },
          "southwest": {
            "lat": 39.71981290000001,
            "lng": -77.471085
          }
        },
        "location": {
          "lat": 39.8522417,
          "lng": -77.2864879
        },
        "location_type": "APPROXIMATE",
        "viewport": {
          "northeast": {
            "lat": 40.0699449,
            "lng": -76.95493189999999
          },
          "southwest": {
            "lat": 39.71981290000001,
            "lng": -77.471085
          }
        }
      },
      "place_id": "ChIJCWVbo3AByYkRHNZRi5Q0HDM",
      "types": [
        "administrative_area_level_2",
        "political"
      ]
    },
    {
      "address_components": [
        {
          "long_name": "Gettysburg",
          "short_name": "Gettysburg",
          "types": [
            "political"
          ]
        },
        {
          "long_name": "United States",
          "short_name": "US",
          "types": [
            "country",
            "political"
          ]
        }
      ],
      "formatted_address": "Gettysburg, USA",
      "geometry": {
        "bounds": {
          "northeast": {
            "lat": 40.0697039,
            "lng": -76.9553701
          },
          "southwest": {
            "lat": 39.7198309,
            "lng": -77.4716159
          }
        },
        "location": {
          "lat": 39.8522417,
          "lng": -77.2864879
        },
        "location_type": "APPROXIMATE",
        "viewport": {
          "northeast": {
            "lat": 40.0697039,
            "lng": -76.9553701
          },
          "southwest": {
            "lat": 39.7198309,
            "lng": -77.4716159
          }
        }
      },
      "place_id": "ChIJrRvsIxaryYkR10VrsPfoOjc",
      "types": [
        "political"
      ]
    },
    {
      "address_components": [
        {
          "long_name": "Pennsylvania",
          "short_name": "PA",
          "types": [
            "administrative_area_level_1",
            "political"
          ]
        },
        {
          "long_name": "United States",
          "short_name": "US",
          "types": [
            "country",
            "political"
          ]
        }
      ],
      "formatted_address": "Pennsylvania, USA",
      "geometry": {
        "bounds": {
          "northeast": {
            "lat": 42.2693866,
            "lng": -74.6895018
          },
          "southwest": {
            "lat": 39.7197989,
            "lng": -80.51989499999999
          }
        },
        "location": {
          "lat": 41.2033216,
          "lng": -77.1945247
        },
        "location_type": "APPROXIMATE",
        "viewport": {
          "northeast": {
            "lat": 42.2693866,
            "lng": -74.6895018
          },
          "southwest": {
            "lat": 39.7197989,
            "lng": -80.51989499999999
          }
        }
      },
      "place_id": "ChIJieUyHiaALYgRPbQiUEchRsI",
      "types": [
        "administrative_area_level_1",
        "political"
      ]
    },
    {
      "address_components": [
        {
          "long_name": "United States",
          "short_name": "US",
          "types": [
            "country",
            "political"
          ]
        }
      ],
      "formatted_address": "United States",
      "geometry": {
        "bounds": {
          "northeast": {
            "lat": 71.3867745,
            "lng": -66.9502861
          },
          "southwest": {
            "lat": 18.9106768,
            "lng": 172.4458955
          }
        },
        "location": {
          "lat": 37.09024,
          "lng": -95.712891
        },
        "location_type": "APPROXIMATE",
        "viewport": {
          "northeast": {
            "lat": 49.38,
            "lng": -66.94
          },
          "southwest": {
            "lat": 25.82,
            "lng": -124.39
          }
        }
      },
      "place_id": "ChIJCzYy5IS16lQRQrfeQ5K5Oxw",
      "types": [
        "country",
        "political"
      ]
    }
  ],
  "status": "OK"
}
