{
  "results": [
    {
      "address_components": [
        {
          "long_name": "300-308",
          "short_name": "300-308",
          "types": [
            "street_number"
          ]
        },
        {
          "long_name": "East Cherry Street",
          "short_name": "E Cherry St",
          "types": [
            "route"
          ]
        },
        {
          "long_name": "Kirkwood",
          "short_name": "Kirkwood",
          "types": [
            "locality",
            "political"
          ]
        },
        {
          "long_name": "Tompkins Township",
          "short_name": "Tompkins Township",
          "types": [
            "administrative_area_level_3",
            "political"
          ]
        },
        {
          "long_name": "Warren County",
          "short_name": "Warren County",
          "types": [
            "administrative_area_level_2",
            "political"
          ]
        },
        {
          "long_name": "Illinois",
          "short_name": "IL",
          "types": [
            "administrative_area_level_1",
            "political"
          ]
        },
        {
          "long_name": "United States",
          "short_name": "US",
          "types": [
            "country",
            "political"
          ]
        },
        {
          "long_name": "61447",
          "short_name": "61447",
          "types": [
            "postal_code"
          ]
        }
      ],
      "formatted_address": "300-308 E Cherry St, Kirkwood, IL 61447, USA",
      "geometry": {
        "bounds": {
          "northeast": {
            "lat": 40.86770920000001,
            "lng": -90.7471566
          },
          "southwest": {
            "lat": 40.8677037,
            "lng": -90.7492389
          }
        },
        "location": {
          "lat": 40.867695,
          "lng": -90.748553
        },
        "location_type": "RANGE_INTERPOLATED",
        "viewport": {
          "northeast": {
            "lat": 40.8690554302915,
            "lng": -90.74684876970849
          },
          "southwest": {
            "lat": 40.8663574697085,
            "lng": -90.7495467302915
          }
        }
      },
      "place_id": "EiwzMDAtMzA4IEUgQ2hlcnJ5IFN0LCBLaXJrd29vZCwgSUwgNjE0NDcsIFVTQQ",
      "types": [
        "street_address"
      ]
    },
    {
      "address_components": [
        {
          "long_name": "Kirkwood",
          "short_name": "Kirkwood",
          "types": [
            "locality",
            "political"
          ]
        },
        {
          "long_name": "Tompkins Township",
          "short_name": "Tompkins Township",
          "types": [
            "administrative_area_level_3",
            "political"
          ]
        },
        {
          "long_name": "Warren County",
          "short_name": "Warren County",
          "types": [
            "administrative_area_level_2",
            "political"
          ]
        },
        {
          "long_name": "Illinois",
          "short_name": "IL",
          "types": [
            "administrative_area_level_1",
            "political"
          ]
        },
        {
          "long_name": "United States",
          "short_name": "US",
          "types": [
            "country",
            "political"
          ]
        },
        {
          "long_name": "61447",
          "short_name": "61447",
          "types": [
            "postal_code"
          ]
        }
      ],
      "formatted_address": "Kirkwood, IL 61447, USA",
      "geometry": {
        "bounds": {
          "northeast": {
            "lat": 40.8754069,
            "lng": -90.736944
          },
          "southwest": {
            "lat": 40.860928,
            "lng": -90.758848
          }
        },
        "location": {
          "lat": 40.8658717,
          "lng": -90.7484702
        },
        "location_type": "APPROXIMATE",
        "viewport": {
          "northeast": {
            "lat": 40.8754069,
            "lng": -90.736944
          },
          "southwest": {
            "lat": 40.860928,
            "lng": -90.758848
          }
        }
      },
      "place_id": "ChIJK-OnnAMO4YcRjGoRZEPFakA",
      "types": [
        "locality",
        "political"
      ]
    },
    {
      "address_components": [
        {
          "long_name": "Tompkins Township",
          "short_name": "Tompkins Township",
          "types": [
            "administrative_area_level_3",
            "political"
          ]
        },
        {
          "long_name": "Warren County",
          "short_name": "Warren County",
          "types": [
            "administrative_area_level_2",
            "political"
          ]
        },
        {
          "long_name": "Illinois",
          "short_name": "IL",
          "types": [
            "administrative_area_level_1",
            "political"
          ]
        },
        {
          "long_name": "United States",
          "short_name": "US",
          "types": [
            "country",
            "political"
          ]
        }
      ],
      "formatted_address": "Tompkins Township, IL, USA",
      "geometry": {
        "bounds": {
          "northeast": {
            "lat": 40.8941681,
            "lng": -90.67139
          },
          "southwest": {
            "lat": 40.8050859,
            "lng": -90.7883689
          }
        },
        "location": {
          "lat": 40.8553054,
          "lng": -90.73427339999999
        },
        "location_type": "APPROXIMATE",
        "viewport": {
          "northeast": {
            "lat": 40.8941681,
            "lng": -90.67139
          },
          "southwest": {
            "lat": 40.8050859,
            "lng": -90.7883689
          }
        }
      },
      "place_id": "ChIJXerzpUYO4YcRdXzNpNbTDJY",
      "types": [
        "administrative_area_level_3",
        "political"
      ]
    },
    {
      "address_components": [
        {
          "long_name": "61447",
          "short_name": "61447",
          "types": [
            "postal_code"
          ]
        },
        {
          "long_name": "Kirkwood",
          "short_name": "Kirkwood",
          "types": [
            "locality",
            "political"
          ]
        },
        {
          "long_name": "Illinois",
          "short_name": "IL",
          "types": [
            "administrative_area_level_1",
            "political"
          ]
        },
        {
          "long_name": "United States",
          "short_name": "US",
          "types": [
            "country",
            "political"
          ]
        }
      ],
      "formatted_address": "Kirkwood, IL 61447, USA",
      "geometry": {
        "bounds": {
          "northeast": {
            "lat": 40.9420549,
            "lng": -90.671953
          },
          "southwest": {
            "lat": 40.80625,
            "lng": -90.8641981
          }
        },
        "location": {
          "lat": 40.85505800000001,
          "lng": -90.7722974
        },
        "location_type": "APPROXIMATE",
        "viewport": {
          "northeast": {
            "lat": 40.9420549,
            "lng": -90.671953
          },
          "southwest": {
            "lat": 40.80625,
            "lng": -90.8641981
          }
        }
      },
      "place_id": "ChIJyWV9sWAO4YcRHpPJOmvD8uQ",
      "types": [
        "postal_code"
      ]
    },
    {
      "address_components": [
        {
          "long_name": "Warren County",
          "short_name": "Warren County",
          "types": [
            "administrative_area_level_2",
            "political"
          ]
        },
        {
          "long_name": "Illinois",
          "short_name": "IL",
          "types": [
            "administrative_area_level_1",
            "political"
          ]
        },
        {
          "long_name": "United States",
          "short_name": "US",
          "types": [
            "country",
            "political"
          ]
        }
      ],
      "formatted_address": "Warren County, IL, USA",
      "geometry": {
        "bounds": {
          "northeast": {
            "lat": 41.0687489,
            "lng": -90.4393939
          },
          "southwest": {
            "lat": 40.627843,
            "lng": -90.789653
          }
        },
        "location": {
          "lat": 40.8758777,
          "lng": -90.6773046
        },
        "location_type": "APPROXIMATE",
        "viewport": {
          "northeast": {
            "lat": 41.0687489,
            "lng": -90.4393939
          },
          "southwest": {
            "lat": 40.627843,
            "lng": -90.789653
          }
        }
      },
      "place_id": "ChIJ8zdPVUah4YcRzFGPigaK-nc",
      "types": [
        "administrative_area_level_2",
        "political"
      ]
    },
    {
      "address_components": [
        {
          "long_name": "Galesburg",
          "short_name": "Galesburg",
          "types": [
            "political"
          ]
        },
        {
          "long_name": "Illinois",
          "short_name": "IL",
          "types": [
            "administrative_area_level_1",
            "political"
          ]
        },
        {
          "long_name": "United States",
          "short_name": "US",
          "types": [
            "country",
            "political"
          ]
        }
      ],
      "formatted_address": "Galesburg, IL, USA",
      "geometry": {
        "bounds": {
          "northeast": {
            "lat": 41.152156,
            "lng": -89.984551
          },
          "southwest": {
            "lat": 40.627843,
            "lng": -90.78957899999999
          }
        },
        "location": {
          "lat": 40.8772519,
          "lng": -90.37483540000001
        },
        "location_type": "APPROXIMATE",
        "viewport": {
          "northeast": {
            "lat": 41.152156,
            "lng": -89.984551
          },
          "southwest": {
            "lat": 40.627843,
            "lng": -90.78957899999999
          }
        }
      },
      "place_id": "ChIJ-8A2the84YcRGYAPdwT_Sy8",
      "types": [
        "political"
      ]
    },
    {
      "address_components": [
        {
          "long_name": "Illinois",
          "short_name": "IL",
          "types": [
            "administrative_area_level_1",
            "political"
          ]
        },
        {
          "long_name": "United States",
          "short_name": "US",
          "types": [
            "country",
            "political"
          ]
        }
      ],
      "formatted_address": "Illinois, USA",
      "geometry": {
        "bounds": {
          "northeast": {
            "lat": 42.5083379,
            "lng": -87.4951991
          },
          "southwest": {
            "lat": 36.970298,
            "lng": -91.5130789
          }
        },
        "location": {
          "lat": 40.6331249,
          "lng": -89.3985283
        },
        "location_type": "APPROXIMATE",
        "viewport": {
          "northeast": {
            "lat": 42.5083379,
            "lng": -87.4951991
          },
          "southwest": {
            "lat": 36.970298,
            "lng": -91.5130789
          }
        }
      },
      "place_id": "ChIJGSZubzgtC4gRVlkRZFCCFX8",
      "types": [
        "administrative_area_level_1",
        "political"
      ]
    },
    {
      "address_components": [
        {
          "long_name": "United States",
          "short_name": "US",
          "types": [
            "country",
            "political"
          ]
        }
      ],
      "formatted_address": "United States",
      "geometry": {
        "bounds": {
          "northeast": {
            "lat": 71.3867745,
            "lng": -66.9502861
          },
          "southwest": {
            "lat": 18.9106768,
            "lng": 172.4458955
          }
        },
        "location": {
          "lat": 37.09024,
          "lng": -95.712891
        },
        "location_type": "APPROXIMATE",
        "viewport": {
          "northeast": {
            "lat": 49.38,
            "lng": -66.94
          },
          "southwest": {
            "lat": 25.82,
            "lng": -124.39
          }
        }
      },
      "place_id": "ChIJCzYy5IS16lQRQrfeQ5K5Oxw",
      "types": [
        "country",
        "political"
      ]
    }
  ],
  "status": "OK"
}
