{
  "results": [
    {
      "address_components": [
        {
          "long_name": "2313",
          "short_name": "2313",
          "types": [
            "street_number"
          ]
        },
        {
          "long_name": "Grandview Avenue",
          "short_name": "Grandview Ave",
          "types": [
            "route"
          ]
        },
        {
          "long_name": "Grandview",
          "short_name": "Grandview",
          "types": [
            "locality",
            "political"
          ]
        },
        {
          "long_name": "Springfield Township",
          "short_name": "Springfield Township",
          "types": [
            "administrative_area_level_3",
            "political"
          ]
        },
        {
          "long_name": "Sangamon County",
          "short_name": "Sangamon County",
          "types": [
            "administrative_area_level_2",
            "political"
          ]
        },
        {
          "long_name": "Illinois",
          "short_name": "IL",
          "types": [
            "administrative_area_level_1",
            "political"
          ]
        },
        {
          "long_name": "United States",
          "short_name": "US",
          "types": [
            "country",
            "political"
          ]
        },
        {
          "long_name": "62702",
          "short_name": "62702",
          "types": [
            "postal_code"
          ]
        }
      ],
      "formatted_address": "2313 Grandview Ave, Grandview, IL 62702, USA",
      "geometry": {
        "location": {
          "lat": 39.8176595,
          "lng": -89.61814
        },
        "location_type": "ROOFTOP",
        "viewport": {
          "northeast": {
            "lat": 39.8190084802915,
            "lng": -89.61679101970849
          },
          "southwest": {
            "lat": 39.8163105197085,
            "lng": -89.61948898029151
          }
        }
      },
      "place_id": "ChIJGSy4tKkwdYgR8e6CzaIr4x8",
      "types": [
        "street_address"
      ]
    },
    {
      "address_components": [
        {
          "long_name": "Grandview",
          "short_name": "Grandview",
          "types": [
            "locality",
            "political"
          ]
        },
        {
          "long_name": "Springfield Township",
          "short_name": "Springfield Township",
          "types": [
            "administrative_area_level_3",
            "political"
          ]
        },
        {
          "long_name": "Sangamon County",
          "short_name": "Sangamon County",
          "types": [
            "administrative_area_level_2",
            "political"
          ]
        },
        {
          "long_name": "Illinois",
          "short_name": "IL",
          "types": [
            "administrative_area_level_1",
            "political"
          ]
        },
        {
          "long_name": "United States",
          "short_name": "US",
          "types": [
            "country",
            "political"
          ]
        },
        {
          "long_name": "62702",
          "short_name": "62702",
          "types": [
            "postal_code"
          ]
        }
      ],
      "formatted_address": "Grandview, IL 62702, USA",
      "geometry": {
        "bounds": {
          "northeast": {
            "lat": 39.82255,
            "lng": -89.6086979
          },
          "southwest": {
            "lat": 39.8129408,
            "lng": -89.625199
          }
        },
        "location": {
          "lat": 39.816439,
          "lng": -89.6187102
        },
        "location_type": "APPROXIMATE",
        "viewport": {
          "northeast": {
            "lat": 39.82255,
            "lng": -89.6086979
          },
          "southwest": {
            "lat": 39.8129408,
            "lng": -89.625199
          }
        }
      },
      "place_id": "ChIJIxwi06cwdYgRUKuXO9HwPc8",
      "types": [
        "locality",
        "political"
      ]
    },
    {
      "address_components": [
        {
          "long_name": "62702",
          "short_name": "62702",
          "types": [
            "postal_code"
          ]
        },
        {
          "long_name": "Springfield",
          "short_name": "Springfield",
          "types": [
            "locality",
            "political"
          ]
        },
        {
          "long_name": "Sangamon County",
          "short_name": "Sangamon County",
          "types": [
            "administrative_area_level_2",
            "political"
          ]
        },
        {
          "long_name": "Illinois",
          "short_name": "IL",
          "types": [
            "administrative_area_level_1",
            "political"
          ]
        },
        {
          "long_name": "United States",
          "short_name": "US",
          "types": [
            "country",
            "political"
          ]
        }
      ],
      "formatted_address": "Springfield, IL 62702, USA",
      "geometry": {
        "bounds": {
          "northeast": {
            "lat": 39.8738721,
            "lng": -89.58245099999999
          },
          "southwest": {
            "lat": 39.7973829,
            "lng": -89.715536
          }
        },
        "location": {
          "lat": 39.82640809999999,
          "lng": -89.6157473
        },
        "location_type": "APPROXIMATE",
        "viewport": {
          "northeast": {
            "lat": 39.8738721,
            "lng": -89.58245099999999
          },
          "southwest": {
            "lat": 39.7973829,
            "lng": -89.715536
          }
        }
      },
      "place_id": "ChIJVxiPUmY3dYgRU3qjro-UKM8",
      "postcode_localities": [
        "Grandview",
        "Springfield"
      ],
      "types": [
        "postal_code"
      ]
    },
    {
      "address_components": [
        {
          "long_name": "Springfield Township",
          "short_name": "Springfield Township",
          "types": [
            "administrative_area_level_3",
            "political"
          ]
        },
        {
          "long_name": "Sangamon County",
          "short_name": "Sangamon County",
          "types": [
            "administrative_area_level_2",
            "political"
          ]
        },
        {
          "long_name": "Illinois",
          "short_name": "IL",
          "types": [
            "administrative_area_level_1",
            "political"
          ]
        },
        {
          "long_name": "United States",
          "short_name": "US",
          "types": [
            "country",
            "political"
          ]
        }
      ],
      "formatted_address": "Springfield Township, IL, USA",
      "geometry": {
        "bounds": {
          "northeast": {
            "lat": 39.874097,
            "lng": -89.5962249
          },
          "southwest": {
            "lat": 39.7873321,
            "lng": -89.711687
          }
        },
        "location": {
          "lat": 39.8625807,
          "lng": -89.6675144
        },
        "location_type": "APPROXIMATE",
        "viewport": {
          "northeast": {
            "lat": 39.874097,
            "lng": -89.5962249
          },
          "southwest": {
            "lat": 39.7873321,
            "lng": -89.711687
          }
        }
      },
      "place_id": "ChIJa8UY5m03dYgRLEyomt7w4PQ",
      "types": [
        "administrative_area_level_3",
        "political"
      ]
    },
    {
      "address_components": [
        {
          "long_name": "Sangamon County",
          "short_name": "Sangamon County",
          "types": [
            "administrative_area_level_2",
            "political"
          ]
        },
        {
          "long_name": "Illinois",
          "short_name": "IL",
          "types": [
            "administrative_area_level_1",
            "political"
          ]
        },
        {
          "long_name": "United States",
          "short_name": "US",
          "types": [
            "country",
            "political"
          ]
        }
      ],
      "formatted_address": "Sangamon County, IL, USA",
      "geometry": {
        "bounds": {
          "northeast": {
            "lat": 39.9767359,
            "lng": -89.2173739
          },
          "southwest": {
            "lat": 39.522052,
            "lng": -89.994524
          }
        },
        "location": {
          "lat": 39.7337353,
          "lng": -89.62516459999999
        },
        "location_type": "APPROXIMATE",
        "viewport": {
          "northeast": {
            "lat": 39.9767359,
            "lng": -89.2173739
          },
          "southwest": {
            "lat": 39.522052,
            "lng": -89.994524
          }
        }
      },
      "place_id": "ChIJjQBm7XBqdYgRe4_c2pUEMSQ",
      "types": [
        "administrative_area_level_2",
        "political"
      ]
    },
    {
      "address_components": [
        {
          "long_name": "Springfield",
          "short_name": "Springfield",
          "types": [
            "political"
          ]
        },
        {
          "long_name": "Illinois",
          "short_name": "IL",
          "types": [
            "administrative_area_level_1",
            "political"
          ]
        },
        {
          "long_name": "United States",
          "short_name": "US",
          "types": [
            "country",
            "political"
          ]
        }
      ],
      "formatted_address": "Springfield, IL, USA",
      "geometry": {
        "bounds": {
          "northeast": {
            "lat": 40.1606629,
            "lng": -89.2173739
          },
          "southwest": {
            "lat": 39.520502,
            "lng": -89.9950279
          }
        },
        "location": {
          "lat": 39.898831,
          "lng": -89.77553379999999
        },
        "location_type": "APPROXIMATE",
        "viewport": {
          "northeast": {
            "lat": 40.1606629,
            "lng": -89.2173739
          },
          "southwest": {
            "lat": 39.520502,
            "lng": -89.9950279
          }
        }
      },
      "place_id": "ChIJqR95n-M3dYgRcyivJOibk30",
      "types": [
        "political"
      ]
    },
    {
      "address_components": [
        {
          "long_name": "Illinois",
          "short_name": "IL",
          "types": [
            "administrative_area_level_1",
            "political"
          ]
        },
        {
          "long_name": "United States",
          "short_name": "US",
          "types": [
            "country",
            "political"
          ]
        }
      ],
      "formatted_address": "Illinois, USA",
      "geometry": {
        "bounds": {
          "northeast": {
            "lat": 42.5083379,
            "lng": -87.4951991
          },
          "southwest": {
            "lat": 36.970298,
            "lng": -91.5130789
          }
        },
        "location": {
          "lat": 40.6331249,
          "lng": -89.3985283
        },
        "location_type": "APPROXIMATE",
        "viewport": {
          "northeast": {
            "lat": 42.5083379,
            "lng": -87.4951991
          },
          "southwest": {
            "lat": 36.970298,
            "lng": -91.5130789
          }
        }
      },
      "place_id": "ChIJGSZubzgtC4gRVlkRZFCCFX8",
      "types": [
        "administrative_area_level_1",
        "political"
      ]
    },
    {
      "address_components": [
        {
          "long_name": "United States",
          "short_name": "US",
          "types": [
            "country",
            "political"
          ]
        }
      ],
      "formatted_address": "United States",
      "geometry": {
        "bounds": {
          "northeast": {
            "lat": 71.3867745,
            "lng": -66.9502861
          },
          "southwest": {
            "lat": 18.9106768,
            "lng": 172.4458955
          }
        },
        "location": {
          "lat": 37.09024,
          "lng": -95.712891
        },
        "location_type": "APPROXIMATE",
        "viewport": {
          "northeast": {
            "lat": 49.38,
            "lng": -66.94
          },
          "southwest": {
            "lat": 25.82,
            "lng": -124.39
          }
        }
      },
      "place_id": "ChIJCzYy5IS16lQRQrfeQ5K5Oxw",
      "types": [
        "country",
        "political"
      ]
    }
  ],
  "status": "OK"
}
