{
  "results": [
    {
      "address_components": [
        {
          "long_name": "1286",
          "short_name": "1286",
          "types": [
            "street_number"
          ]
        },
        {
          "long_name": "Coal Hollow Road",
          "short_name": "Coal Hollow Rd",
          "types": [
            "route"
          ]
        },
        {
          "long_name": "West Newton",
          "short_name": "West Newton",
          "types": [
            "locality",
            "political"
          ]
        },
        {
          "long_name": "Rostraver",
          "short_name": "Rostraver",
          "types": [
            "administrative_area_level_3",
            "political"
          ]
        },
        {
          "long_name": "Westmoreland County",
          "short_name": "Westmoreland County",
          "types": [
            "administrative_area_level_2",
            "political"
          ]
        },
        {
          "long_name": "Pennsylvania",
          "short_name": "PA",
          "types": [
            "administrative_area_level_1",
            "political"
          ]
        },
        {
          "long_name": "United States",
          "short_name": "US",
          "types": [
            "country",
            "political"
          ]
        },
        {
          "long_name": "15089",
          "short_name": "15089",
          "types": [
            "postal_code"
          ]
        },
        {
          "long_name": "2506",
          "short_name": "2506",
          "types": [
            "postal_code_suffix"
          ]
        }
      ],
      "formatted_address": "1286 Coal Hollow Rd, West Newton, PA 15089, USA",
      "geometry": {
        "location": {
          "lat": 40.219584,
          "lng": -79.785296
        },
        "location_type": "ROOFTOP",
        "viewport": {
          "northeast": {
            "lat": 40.2209329802915,
            "lng": -79.78394701970849
          },
          "southwest": {
            "lat": 40.2182350197085,
            "lng": -79.7866449802915
          }
        }
      },
      "place_id": "ChIJraEjNqvhNIgRn_qj7Wz_Wq8",
      "types": [
        "street_address"
      ]
    },
    {
      "address_components": [
        {
          "long_name": "15089",
          "short_name": "15089",
          "types": [
            "postal_code"
          ]
        },
        {
          "long_name": "West Newton",
          "short_name": "West Newton",
          "types": [
            "locality",
            "political"
          ]
        },
        {
          "long_name": "Pennsylvania",
          "short_name": "PA",
          "types": [
            "administrative_area_level_1",
            "political"
          ]
        },
        {
          "long_name": "United States",
          "short_name": "US",
          "types": [
            "country",
            "political"
          ]
        }
      ],
      "formatted_address": "West Newton, PA 15089, USA",
      "geometry": {
        "bounds": {
          "northeast": {
            "lat": 40.255065,
            "lng": -79.67399
          },
          "southwest": {
            "lat": 40.178751,
            "lng": -79.81698899999999
          }
        },
        "location": {
          "lat": 40.2101947,
          "lng": -79.7512033
        },
        "location_type": "APPROXIMATE",
        "viewport": {
          "northeast": {
            "lat": 40.255065,
            "lng": -79.67399
          },
          "southwest": {
            "lat": 40.178751,
            "lng": -79.81698899999999
          }
        }
      },
      "place_id": "ChIJa0rtfLbeNIgRxqCT2A8F1Y4",
      "types": [
        "postal_code"
      ]
    },
    {
      "address_components": [
        {
          "long_name": "Rostraver",
          "short_name": "Rostraver",
          "types": [
            "administrative_area_level_3",
            "political"
          ]
        },
        {
          "long_name": "Westmoreland County",
          "short_name": "Westmoreland County",
          "types": [
            "administrative_area_level_2",
            "political"
          ]
        },
        {
          "long_name": "Pennsylvania",
          "short_name": "PA",
          "types": [
            "administrative_area_level_1",
            "political"
          ]
        },
        {
          "long_name": "United States",
          "short_name": "US",
          "types": [
            "country",
            "political"
          ]
        }
      ],
      "formatted_address": "Rostraver, PA, USA",
      "geometry": {
        "bounds": {
          "northeast": {
            "lat": 40.2282979,
            "lng": -79.743186
          },
          "southwest": {
            "lat": 40.1267919,
            "lng": -79.90440989999999
          }
        },
        "location": {
          "lat": 40.16454299999999,
          "lng": -79.80726109999999
        },
        "location_type": "APPROXIMATE",
        "viewport": {
          "northeast": {
            "lat": 40.2282979,
            "lng": -79.743186
          },
          "southwest": {
            "lat": 40.1267919,
            "lng": -79.90440989999999
          }
        }
      },
      "place_id": "ChIJd4QprwgeNYgRNYPb8VeC5F4",
      "types": [
        "administrative_area_level_3",
        "political"
      ]
    },
    {
      "address_components": [
        {
          "long_name": "Westmoreland County",
          "short_name": "Westmoreland County",
          "types": [
            "administrative_area_level_2",
            "political"
          ]
        },
        {
          "long_name": "Pennsylvania",
          "short_name": "PA",
          "types": [
            "administrative_area_level_1",
            "political"
          ]
        },
        {
          "long_name": "United States",
          "short_name": "US",
          "types": [
            "country",
            "political"
          ]
        }
      ],
      "formatted_address": "Westmoreland County, PA, USA",
      "geometry": {
        "bounds": {
          "northeast": {
            "lat": 40.6797414,
            "lng": -78.974649
          },
          "southwest": {
            "lat": 40.040397,
            "lng": -79.90495390000001
          }
        },
        "location": {
          "lat": 40.2353963,
          "lng": -79.4703885
        },
        "location_type": "APPROXIMATE",
        "viewport": {
          "northeast": {
            "lat": 40.6797414,
            "lng": -78.974649
          },
          "southwest": {
            "lat": 40.040397,
            "lng": -79.90495390000001
          }
        }
      },
      "place_id": "ChIJkyU4jg3JNIgRMgKKqj4XSz0",
      "types": [
        "administrative_area_level_2",
        "political"
      ]
    },
    {
      "address_components": [
        {
          "long_name": "Pittsburgh",
          "short_name": "Pittsburgh",
          "types": [
            "political"
          ]
        },
        {
          "long_name": "United States",
          "short_name": "US",
          "types": [
            "country",
            "political"
          ]
        }
      ],
      "formatted_address": "Pittsburgh, USA",
      "geometry": {
        "bounds": {
          "northeast": {
            "lat": 41.1731849,
            "lng": -78.974649
          },
          "southwest": {
            "lat": 39.7207129,
            "lng": -80.5192179
          }
        },
        "location": {
          "lat": 40.3565093,
          "lng": -79.9192702
        },
        "location_type": "APPROXIMATE",
        "viewport": {
          "northeast": {
            "lat": 41.1731849,
            "lng": -78.974649
          },
          "southwest": {
            "lat": 39.7207129,
            "lng": -80.5192179
          }
        }
      },
      "place_id": "ChIJiWjZkAfsNIgRSXopSLGQlS4",
      "types": [
        "political"
      ]
    },
    {
      "address_components": [
        {
          "long_name": "Pennsylvania",
          "short_name": "PA",
          "types": [
            "administrative_area_level_1",
            "political"
          ]
        },
        {
          "long_name": "United States",
          "short_name": "US",
          "types": [
            "country",
            "political"
          ]
        }
      ],
      "formatted_address": "Pennsylvania, USA",
      "geometry": {
        "bounds": {
          "northeast": {
            "lat": 42.2693866,
            "lng": -74.6895018
          },
          "southwest": {
            "lat": 39.7197989,
            "lng": -80.51989499999999
          }
        },
        "location": {
          "lat": 41.2033216,
          "lng": -77.1945247
        },
        "location_type": "APPROXIMATE",
        "viewport": {
          "northeast": {
            "lat": 42.2693866,
            "lng": -74.6895018
          },
          "southwest": {
            "lat": 39.7197989,
            "lng": -80.51989499999999
          }
        }
      },
      "place_id": "ChIJieUyHiaALYgRPbQiUEchRsI",
      "types": [
        "administrative_area_level_1",
        "political"
      ]
    },
    {
      "address_components": [
        {
          "long_name": "United States",
          "short_name": "US",
          "types": [
            "country",
            "political"
          ]
        }
      ],
      "formatted_address": "United States",
      "geometry": {
        "bounds": {
          "northeast": {
            "lat": 71.3867745,
            "lng": -66.9502861
          },
          "southwest": {
            "lat": 18.9106768,
            "lng": 172.4458955
          }
        },
        "location": {
          "lat": 37.09024,
          "lng": -95.712891
        },
        "location_type": "APPROXIMATE",
        "viewport": {
          "northeast": {
            "lat": 49.38,
            "lng": -66.94
          },
          "southwest": {
            "lat": 25.82,
            "lng": -124.39
          }
        }
      },
      "place_id": "ChIJCzYy5IS16lQRQrfeQ5K5Oxw",
      "types": [
        "country",
        "political"
      ]
    }
  ],
  "status": "OK"
}
