{
  "results": [
    {
      "address_components": [
        {
          "long_name": "1041",
          "short_name": "1041",
          "types": [
            "street_number"
          ]
        },
        {
          "long_name": "Old Route 30",
          "short_name": "Old Rte 30",
          "types": [
            "route"
          ]
        },
        {
          "long_name": "Orrtanna",
          "short_name": "Orrtanna",
          "types": [
            "locality",
            "political"
          ]
        },
        {
          "long_name": "Franklin Township",
          "short_name": "Franklin Township",
          "types": [
            "administrative_area_level_3",
            "political"
          ]
        },
        {
          "long_name": "Adams County",
          "short_name": "Adams County",
          "types": [
            "administrative_area_level_2",
            "political"
          ]
        },
        {
          "long_name": "Pennsylvania",
          "short_name": "PA",
          "types": [
            "administrative_area_level_1",
            "political"
          ]
        },
        {
          "long_name": "United States",
          "short_name": "US",
          "types": [
            "country",
            "political"
          ]
        },
        {
          "long_name": "17353",
          "short_name": "17353",
          "types": [
            "postal_code"
          ]
        }
      ],
      "formatted_address": "1041 Old Rte 30, Orrtanna, PA 17353, USA",
      "geometry": {
        "location": {
          "lat": 39.8836187,
          "lng": -77.3526871
        },
        "location_type": "ROOFTOP",
        "viewport": {
          "northeast": {
            "lat": 39.8849676802915,
            "lng": -77.35133811970849
          },
          "southwest": {
            "lat": 39.8822697197085,
            "lng": -77.35403608029151
          }
        }
      },
      "place_id": "ChIJi088iuuoyYkRFBUYeenBA9M",
      "types": [
        "street_address"
      ]
    },
    {
      "address_components": [
        {
          "long_name": "Cashtown",
          "short_name": "Cashtown",
          "types": [
            "locality",
            "political"
          ]
        },
        {
          "long_name": "Franklin Township",
          "short_name": "Franklin Township",
          "types": [
            "administrative_area_level_3",
            "political"
          ]
        },
        {
          "long_name": "Adams County",
          "short_name": "Adams County",
          "types": [
            "administrative_area_level_2",
            "political"
          ]
        },
        {
          "long_name": "Pennsylvania",
          "short_name": "PA",
          "types": [
            "administrative_area_level_1",
            "political"
          ]
        },
        {
          "long_name": "United States",
          "short_name": "US",
          "types": [
            "country",
            "political"
          ]
        }
      ],
      "formatted_address": "Cashtown, PA, USA",
      "geometry": {
        "bounds": {
          "northeast": {
            "lat": 39.8960661,
            "lng": -77.3382639
          },
          "southwest": {
            "lat": 39.8702316,
            "lng": -77.3702619
          }
        },
        "location": {
          "lat": 39.8880281,
          "lng": -77.358284
        },
        "location_type": "APPROXIMATE",
        "viewport": {
          "northeast": {
            "lat": 39.8960661,
            "lng": -77.3382639
          },
          "southwest": {
            "lat": 39.8702316,
            "lng": -77.3702619
          }
        }
      },
      "place_id": "ChIJNVfJa5SoyYkR6BqBnJQQO3g",
      "types": [
        "locality",
        "political"
      ]
    },
    {
      "address_components": [
        {
          "long_name": "Cashtown-McKnightstown",
          "short_name": "Cashtown-Mcknightstown",
          "types": [
            "locality",
            "political"
          ]
        },
        {
          "long_name": "Franklin Township",
          "short_name": "Franklin Township",
          "types": [
            "administrative_area_level_3",
            "political"
          ]
        },
        {
          "long_name": "Adams County",
          "short_name": "Adams County",
          "types": [
            "administrative_area_level_2",
            "political"
          ]
        },
        {
          "long_name": "Pennsylvania",
          "short_name": "PA",
          "types": [
            "administrative_area_level_1",
            "political"
          ]
        },
        {
          "long_name": "United States",
          "short_name": "US",
          "types": [
            "country",
            "political"
          ]
        }
      ],
      "formatted_address": "Cashtown-Mcknightstown, PA, USA",
      "geometry": {
        "bounds": {
          "northeast": {
            "lat": 39.8950881,
            "lng": -77.31213509999999
          },
          "southwest": {
            "lat": 39.860968,
            "lng": -77.37006800000002
          }
        },
        "location": {
          "lat": 39.8766376,
          "lng": -77.3467996
        },
        "location_type": "APPROXIMATE",
        "viewport": {
          "northeast": {
            "lat": 39.8950881,
            "lng": -77.31213509999999
          },
          "southwest": {
            "lat": 39.860968,
            "lng": -77.37006800000002
          }
        }
      },
      "place_id": "ChIJlZ08DZSoyYkRv0oqm9F9rew",
      "types": [
        "locality",
        "political"
      ]
    },
    {
      "address_components": [
        {
          "long_name": "17353",
          "short_name": "17353",
          "types": [
            "postal_code"
          ]
        },
        {
          "long_name": "Orrtanna",
          "short_name": "Orrtanna",
          "types": [
            "locality",
            "political"
          ]
        },
        {
          "long_name": "Adams County",
          "short_name": "Adams County",
          "types": [
            "administrative_area_level_2",
            "political"
          ]
        },
        {
          "long_name": "Pennsylvania",
          "short_name": "PA",
          "types": [
            "administrative_area_level_1",
            "political"
          ]
        },
        {
          "long_name": "United States",
          "short_name": "US",
          "types": [
            "country",
            "political"
          ]
        }
      ],
      "formatted_address": "Orrtanna, PA 17353, USA",
      "geometry": {
        "bounds": {
          "northeast": {
            "lat": 39.967051,
            "lng": -77.31433299999999
          },
          "southwest": {
            "lat": 39.8038809,
            "lng": -77.451776
          }
        },
        "location": {
          "lat": 39.8737926,
          "lng": -77.3898602
        },
        "location_type": "APPROXIMATE",
        "viewport": {
          "northeast": {
            "lat": 39.967051,
            "lng": -77.31433299999999
          },
          "southwest": {
            "lat": 39.8038809,
            "lng": -77.451776
          }
        }
      },
      "place_id": "ChIJiZDmgCamyYkRSC7dTDs93Uc",
      "types": [
        "postal_code"
      ]
    },
    {
      "address_components": [
        {
          "long_name": "Franklin Township",
          "short_name": "Franklin Township",
          "types": [
            "administrative_area_level_3",
            "political"
          ]
        },
        {
          "long_name": "Adams County",
          "short_name": "Adams County",
          "types": [
            "administrative_area_level_2",
            "political"
          ]
        },
        {
          "long_name": "Pennsylvania",
          "short_name": "PA",
          "types": [
            "administrative_area_level_1",
            "political"
          ]
        },
        {
          "long_name": "United States",
          "short_name": "US",
          "types": [
            "country",
            "political"
          ]
        }
      ],
      "formatted_address": "Franklin Township, PA, USA",
      "geometry": {
        "bounds": {
          "northeast": {
            "lat": 39.981294,
            "lng": -77.2634461
          },
          "southwest": {
            "lat": 39.836371,
            "lng": -77.471085
          }
        },
        "location": {
          "lat": 39.8851798,
          "lng": -77.4013403
        },
        "location_type": "APPROXIMATE",
        "viewport": {
          "northeast": {
            "lat": 39.981294,
            "lng": -77.2634461
          },
          "southwest": {
            "lat": 39.836371,
            "lng": -77.471085
          }
        }
      },
      "place_id": "ChIJaaYp_IWoyYkRC2NyiR0WJ7g",
      "types": [
        "administrative_area_level_3",
        "political"
      ]
    },
    {
      "address_components": [
        {
          "long_name": "Adams County",
          "short_name": "Adams County",
          "types": [
            "administrative_area_level_2",
            "political"
          ]
        },
        {
          "long_name": "Pennsylvania",
          "short_name": "PA",
          "types": [
            "administrative_area_level_1",
            "political"
          ]
        },
        {
          "long_name": "United States",
          "short_name": "US",
          "types": [
            "country",
            "political"
          ]
        }
      ],
      "formatted_address": "Adams County, PA, USA",
      "geometry": {
        "bounds": {
          "northeast": {
            "lat": 40.0699449,
            "lng": -76.95493189999999
          },
          "southwest": {
            "lat": 39.71981290000001,
            "lng": -77.471085
          }
        },
        "location": {
          "lat": 39.8522417,
          "lng": -77.2864879
        },
        "location_type": "APPROXIMATE",
        "viewport": {
          "northeast": {
            "lat": 40.0699449,
            "lng": -76.95493189999999
          },
          "southwest": {
            "lat": 39.71981290000001,
            "lng": -77.471085
          }
        }
      },
      "place_id": "ChIJCWVbo3AByYkRHNZRi5Q0HDM",
      "types": [
        "administrative_area_level_2",
        "political"
      ]
    },
    {
      "address_components": [
        {
          "long_name": "Gettysburg",
          "short_name": "Gettysburg",
          "types": [
            "political"
          ]
        },
        {
          "long_name": "United States",
          "short_name": "US",
          "types": [
            "country",
            "political"
          ]
        }
      ],
      "formatted_address": "Gettysburg, USA",
      "geometry": {
        "bounds": {
          "northeast": {
            "lat": 40.0697039,
            "lng": -76.9553701
          },
          "southwest": {
            "lat": 39.7198309,
            "lng": -77.4716159
          }
        },
        "location": {
          "lat": 39.8522417,
          "lng": -77.2864879
        },
        "location_type": "APPROXIMATE",
        "viewport": {
          "northeast": {
            "lat": 40.0697039,
            "lng": -76.9553701
          },
          "southwest": {
            "lat": 39.7198309,
            "lng": -77.4716159
          }
        }
      },
      "place_id": "ChIJrRvsIxaryYkR10VrsPfoOjc",
      "types": [
        "political"
      ]
    },
    {
      "address_components": [
        {
          "long_name": "Pennsylvania",
          "short_name": "PA",
          "types": [
            "administrative_area_level_1",
            "political"
          ]
        },
        {
          "long_name": "United States",
          "short_name": "US",
          "types": [
            "country",
            "political"
          ]
        }
      ],
      "formatted_address": "Pennsylvania, USA",
      "geometry": {
        "bounds": {
          "northeast": {
            "lat": 42.2693866,
            "lng": -74.6895018
          },
          "southwest": {
            "lat": 39.7197989,
            "lng": -80.51989499999999
          }
        },
        "location": {
          "lat": 41.2033216,
          "lng": -77.1945247
        },
        "location_type": "APPROXIMATE",
        "viewport": {
          "northeast": {
            "lat": 42.2693866,
            "lng": -74.6895018
          },
          "southwest": {
            "lat": 39.7197989,
            "lng": -80.51989499999999
          }
        }
      },
      "place_id": "ChIJieUyHiaALYgRPbQiUEchRsI",
      "types": [
        "administrative_area_level_1",
        "political"
      ]
    },
    {
      "address_components": [
        {
          "long_name": "United States",
          "short_name": "US",
          "types": [
            "country",
            "political"
          ]
        }
      ],
      "formatted_address": "United States",
      "geometry": {
        "bounds": {
          "northeast": {
            "lat": 71.3867745,
            "lng": -66.9502861
          },
          "southwest": {
            "lat": 18.9106768,
            "lng": 172.4458955
          }
        },
        "location": {
          "lat": 37.09024,
          "lng": -95.712891
        },
        "location_type": "APPROXIMATE",
        "viewport": {
          "northeast": {
            "lat": 49.38,
            "lng": -66.94
          },
          "southwest": {
            "lat": 25.82,
            "lng": -124.39
          }
        }
      },
      "place_id": "ChIJCzYy5IS16lQRQrfeQ5K5Oxw",
      "types": [
        "country",
        "political"
      ]
    }
  ],
  "status": "OK"
}
