{
  "results": [
    {
      "address_components": [
        {
          "long_name": "101-161",
          "short_name": "101-161",
          "types": [
            "street_number"
          ]
        },
        {
          "long_name": "North 5th Street",
          "short_name": "N 5th St",
          "types": [
            "route"
          ]
        },
        {
          "long_name": "Nokomis",
          "short_name": "Nokomis",
          "types": [
            "locality",
            "political"
          ]
        },
        {
          "long_name": "Nokomis Township",
          "short_name": "Nokomis Township",
          "types": [
            "administrative_area_level_3",
            "political"
          ]
        },
        {
          "long_name": "Montgomery County",
          "short_name": "Montgomery County",
          "types": [
            "administrative_area_level_2",
            "political"
          ]
        },
        {
          "long_name": "Illinois",
          "short_name": "IL",
          "types": [
            "administrative_area_level_1",
            "political"
          ]
        },
        {
          "long_name": "United States",
          "short_name": "US",
          "types": [
            "country",
            "political"
          ]
        },
        {
          "long_name": "62075",
          "short_name": "62075",
          "types": [
            "postal_code"
          ]
        },
        {
          "long_name": "1753",
          "short_name": "1753",
          "types": [
            "postal_code_suffix"
          ]
        }
      ],
      "formatted_address": "101-161 N 5th St, Nokomis, IL 62075, USA",
      "geometry": {
        "bounds": {
          "northeast": {
            "lat": 39.2853347,
            "lng": -89.30178699999999
          },
          "southwest": {
            "lat": 39.2844548,
            "lng": -89.3019018
          }
        },
        "location": {
          "lat": 39.2848232,
          "lng": -89.3019183
        },
        "location_type": "RANGE_INTERPOLATED",
        "viewport": {
          "northeast": {
            "lat": 39.2862437302915,
            "lng": -89.3004954197085
          },
          "southwest": {
            "lat": 39.2835457697085,
            "lng": -89.3031933802915
          }
        }
      },
      "place_id": "EigxMDEtMTYxIE4gNXRoIFN0LCBOb2tvbWlzLCBJTCA2MjA3NSwgVVNB",
      "types": [
        "street_address"
      ]
    },
    {
      "address_components": [
        {
          "long_name": "Coalton",
          "short_name": "Coalton",
          "types": [
            "locality",
            "political"
          ]
        },
        {
          "long_name": "Nokomis Township",
          "short_name": "Nokomis Township",
          "types": [
            "administrative_area_level_3",
            "political"
          ]
        },
        {
          "long_name": "Montgomery County",
          "short_name": "Montgomery County",
          "types": [
            "administrative_area_level_2",
            "political"
          ]
        },
        {
          "long_name": "Illinois",
          "short_name": "IL",
          "types": [
            "administrative_area_level_1",
            "political"
          ]
        },
        {
          "long_name": "United States",
          "short_name": "US",
          "types": [
            "country",
            "political"
          ]
        },
        {
          "long_name": "62075",
          "short_name": "62075",
          "types": [
            "postal_code"
          ]
        }
      ],
      "formatted_address": "Coalton, IL 62075, USA",
      "geometry": {
        "bounds": {
          "northeast": {
            "lat": 39.290669,
            "lng": -89.293081
          },
          "southwest": {
            "lat": 39.279516,
            "lng": -89.313817
          }
        },
        "location": {
          "lat": 39.2828235,
          "lng": -89.3011961
        },
        "location_type": "APPROXIMATE",
        "viewport": {
          "northeast": {
            "lat": 39.290669,
            "lng": -89.293081
          },
          "southwest": {
            "lat": 39.279516,
            "lng": -89.313817
          }
        }
      },
      "place_id": "ChIJa4sCd2dWdIgRPRDuKHYxAKU",
      "types": [
        "locality",
        "political"
      ]
    },
    {
      "address_components": [
        {
          "long_name": "Nokomis Township",
          "short_name": "Nokomis Township",
          "types": [
            "administrative_area_level_3",
            "political"
          ]
        },
        {
          "long_name": "Montgomery County",
          "short_name": "Montgomery County",
          "types": [
            "administrative_area_level_2",
            "political"
          ]
        },
        {
          "long_name": "Illinois",
          "short_name": "IL",
          "types": [
            "administrative_area_level_1",
            "political"
          ]
        },
        {
          "long_name": "United States",
          "short_name": "US",
          "types": [
            "country",
            "political"
          ]
        }
      ],
      "formatted_address": "Nokomis Township, IL, USA",
      "geometry": {
        "bounds": {
          "northeast": {
            "lat": 39.349038,
            "lng": -89.250759
          },
          "southwest": {
            "lat": 39.261145,
            "lng": -89.363773
          }
        },
        "location": {
          "lat": 39.2977923,
          "lng": -89.3037147
        },
        "location_type": "APPROXIMATE",
        "viewport": {
          "northeast": {
            "lat": 39.349038,
            "lng": -89.250759
          },
          "southwest": {
            "lat": 39.261145,
            "lng": -89.363773
          }
        }
      },
      "place_id": "ChIJM9_55xZWdIgR1Wk6Z-MYcBM",
      "types": [
        "administrative_area_level_3",
        "political"
      ]
    },
    {
      "address_components": [
        {
          "long_name": "62075",
          "short_name": "62075",
          "types": [
            "postal_code"
          ]
        },
        {
          "long_name": "Nokomis",
          "short_name": "Nokomis",
          "types": [
            "locality",
            "political"
          ]
        },
        {
          "long_name": "Illinois",
          "short_name": "IL",
          "types": [
            "administrative_area_level_1",
            "political"
          ]
        },
        {
          "long_name": "United States",
          "short_name": "US",
          "types": [
            "country",
            "political"
          ]
        }
      ],
      "formatted_address": "Nokomis, IL 62075, USA",
      "geometry": {
        "bounds": {
          "northeast": {
            "lat": 39.407021,
            "lng": -89.160809
          },
          "southwest": {
            "lat": 39.1701708,
            "lng": -89.4740401
          }
        },
        "location": {
          "lat": 39.2975599,
          "lng": -89.2657266
        },
        "location_type": "APPROXIMATE",
        "viewport": {
          "northeast": {
            "lat": 39.407021,
            "lng": -89.160809
          },
          "southwest": {
            "lat": 39.1701708,
            "lng": -89.4740401
          }
        }
      },
      "place_id": "ChIJu1NsgjdWdIgRcc6imaKnrho",
      "types": [
        "postal_code"
      ]
    },
    {
      "address_components": [
        {
          "long_name": "Montgomery County",
          "short_name": "Montgomery County",
          "types": [
            "administrative_area_level_2",
            "political"
          ]
        },
        {
          "long_name": "Illinois",
          "short_name": "IL",
          "types": [
            "administrative_area_level_1",
            "political"
          ]
        },
        {
          "long_name": "United States",
          "short_name": "US",
          "types": [
            "country",
            "political"
          ]
        }
      ],
      "formatted_address": "Montgomery County, IL, USA",
      "geometry": {
        "bounds": {
          "northeast": {
            "lat": 39.5246099,
            "lng": -89.139568
          },
          "southwest": {
            "lat": 38.998979,
            "lng": -89.7036919
          }
        },
        "location": {
          "lat": 39.2363688,
          "lng": -89.4742177
        },
        "location_type": "APPROXIMATE",
        "viewport": {
          "northeast": {
            "lat": 39.5246099,
            "lng": -89.139568
          },
          "southwest": {
            "lat": 38.998979,
            "lng": -89.7036919
          }
        }
      },
      "place_id": "ChIJMacrbdGrdYgRJ1ia7Mbu1iY",
      "types": [
        "administrative_area_level_2",
        "political"
      ]
    },
    {
      "address_components": [
        {
          "long_name": "Illinois",
          "short_name": "IL",
          "types": [
            "administrative_area_level_1",
            "political"
          ]
        },
        {
          "long_name": "United States",
          "short_name": "US",
          "types": [
            "country",
            "political"
          ]
        }
      ],
      "formatted_address": "Illinois, USA",
      "geometry": {
        "bounds": {
          "northeast": {
            "lat": 42.5083379,
            "lng": -87.4951991
          },
          "southwest": {
            "lat": 36.970298,
            "lng": -91.5130789
          }
        },
        "location": {
          "lat": 40.6331249,
          "lng": -89.3985283
        },
        "location_type": "APPROXIMATE",
        "viewport": {
          "northeast": {
            "lat": 42.5083379,
            "lng": -87.4951991
          },
          "southwest": {
            "lat": 36.970298,
            "lng": -91.5130789
          }
        }
      },
      "place_id": "ChIJGSZubzgtC4gRVlkRZFCCFX8",
      "types": [
        "administrative_area_level_1",
        "political"
      ]
    },
    {
      "address_components": [
        {
          "long_name": "United States",
          "short_name": "US",
          "types": [
            "country",
            "political"
          ]
        }
      ],
      "formatted_address": "United States",
      "geometry": {
        "bounds": {
          "northeast": {
            "lat": 71.3867745,
            "lng": -66.9502861
          },
          "southwest": {
            "lat": 18.9106768,
            "lng": 172.4458955
          }
        },
        "location": {
          "lat": 37.09024,
          "lng": -95.712891
        },
        "location_type": "APPROXIMATE",
        "viewport": {
          "northeast": {
            "lat": 49.38,
            "lng": -66.94
          },
          "southwest": {
            "lat": 25.82,
            "lng": -124.39
          }
        }
      },
      "place_id": "ChIJCzYy5IS16lQRQrfeQ5K5Oxw",
      "types": [
        "country",
        "political"
      ]
    }
  ],
  "status": "OK"
}
