{
  "results": [
    {
      "address_components": [
        {
          "long_name": "420",
          "short_name": "420",
          "types": [
            "street_number"
          ]
        },
        {
          "long_name": "Illinois Street",
          "short_name": "Illinois St",
          "types": [
            "route"
          ]
        },
        {
          "long_name": "East Dundee",
          "short_name": "East Dundee",
          "types": [
            "locality",
            "political"
          ]
        },
        {
          "long_name": "Dundee Township",
          "short_name": "Dundee Township",
          "types": [
            "administrative_area_level_3",
            "political"
          ]
        },
        {
          "long_name": "Kane County",
          "short_name": "Kane County",
          "types": [
            "administrative_area_level_2",
            "political"
          ]
        },
        {
          "long_name": "Illinois",
          "short_name": "IL",
          "types": [
            "administrative_area_level_1",
            "political"
          ]
        },
        {
          "long_name": "United States",
          "short_name": "US",
          "types": [
            "country",
            "political"
          ]
        },
        {
          "long_name": "60118",
          "short_name": "60118",
          "types": [
            "postal_code"
          ]
        }
      ],
      "formatted_address": "420 Illinois St, East Dundee, IL 60118, USA",
      "geometry": {
        "location": {
          "lat": 42.09708,
          "lng": -88.255802
        },
        "location_type": "ROOFTOP",
        "viewport": {
          "northeast": {
            "lat": 42.0984289802915,
            "lng": -88.2544530197085
          },
          "southwest": {
            "lat": 42.0957310197085,
            "lng": -88.25715098029151
          }
        }
      },
      "place_id": "ChIJS24agC8PD4gRL4y7k_Vllms",
      "types": [
        "street_address"
      ]
    },
    {
      "address_components": [
        {
          "long_name": "East Dundee",
          "short_name": "East Dundee",
          "types": [
            "locality",
            "political"
          ]
        },
        {
          "long_name": "Dundee Township",
          "short_name": "Dundee Township",
          "types": [
            "administrative_area_level_3",
            "political"
          ]
        },
        {
          "long_name": "Kane County",
          "short_name": "Kane County",
          "types": [
            "administrative_area_level_2",
            "political"
          ]
        },
        {
          "long_name": "Illinois",
          "short_name": "IL",
          "types": [
            "administrative_area_level_1",
            "political"
          ]
        },
        {
          "long_name": "United States",
          "short_name": "US",
          "types": [
            "country",
            "political"
          ]
        }
      ],
      "formatted_address": "East Dundee, IL, USA",
      "geometry": {
        "bounds": {
          "northeast": {
            "lat": 42.11391589999999,
            "lng": -88.230614
          },
          "southwest": {
            "lat": 42.0714709,
            "lng": -88.2844849
          }
        },
        "location": {
          "lat": 42.0989145,
          "lng": -88.2714689
        },
        "location_type": "APPROXIMATE",
        "viewport": {
          "northeast": {
            "lat": 42.11391589999999,
            "lng": -88.230614
          },
          "southwest": {
            "lat": 42.0714709,
            "lng": -88.2844849
          }
        }
      },
      "place_id": "ChIJd9hAWDAOD4gRlDnolx1eUUQ",
      "types": [
        "locality",
        "political"
      ]
    },
    {
      "address_components": [
        {
          "long_name": "60118",
          "short_name": "60118",
          "types": [
            "postal_code"
          ]
        },
        {
          "long_name": "Township of Dundee",
          "short_name": "Dundee Township",
          "types": [
            "sublocality_level_1",
            "sublocality",
            "political"
          ]
        },
        {
          "long_name": "Illinois",
          "short_name": "IL",
          "types": [
            "administrative_area_level_1",
            "political"
          ]
        },
        {
          "long_name": "United States",
          "short_name": "US",
          "types": [
            "country",
            "political"
          ]
        }
      ],
      "formatted_address": "Dundee Township, IL 60118, USA",
      "geometry": {
        "bounds": {
          "northeast": {
            "lat": 42.1542239,
            "lng": -88.23054909999999
          },
          "southwest": {
            "lat": 42.065776,
            "lng": -88.3934999
          }
        },
        "location": {
          "lat": 42.0955139,
          "lng": -88.314212
        },
        "location_type": "APPROXIMATE",
        "viewport": {
          "northeast": {
            "lat": 42.1542239,
            "lng": -88.23054909999999
          },
          "southwest": {
            "lat": 42.065776,
            "lng": -88.3934999
          }
        }
      },
      "place_id": "ChIJ_zdnDQwOD4gR39y6mwm1zdY",
      "postcode_localities": [
        "East Dundee",
        "Sleepy Hollow",
        "West Dundee"
      ],
      "types": [
        "postal_code"
      ]
    },
    {
      "address_components": [
        {
          "long_name": "Dundee Township",
          "short_name": "Dundee Township",
          "types": [
            "administrative_area_level_3",
            "political"
          ]
        },
        {
          "long_name": "Kane County",
          "short_name": "Kane County",
          "types": [
            "administrative_area_level_2",
            "political"
          ]
        },
        {
          "long_name": "Illinois",
          "short_name": "IL",
          "types": [
            "administrative_area_level_1",
            "political"
          ]
        },
        {
          "long_name": "United States",
          "short_name": "US",
          "types": [
            "country",
            "political"
          ]
        }
      ],
      "formatted_address": "Dundee Township, IL, USA",
      "geometry": {
        "bounds": {
          "northeast": {
            "lat": 42.1543481,
            "lng": -88.23787809999999
          },
          "southwest": {
            "lat": 42.0664419,
            "lng": -88.35516799999999
          }
        },
        "location": {
          "lat": 42.1250261,
          "lng": -88.3044908
        },
        "location_type": "APPROXIMATE",
        "viewport": {
          "northeast": {
            "lat": 42.1543481,
            "lng": -88.23787809999999
          },
          "southwest": {
            "lat": 42.0664419,
            "lng": -88.35516799999999
          }
        }
      },
      "place_id": "ChIJd9hAWDAOD4gRG7Aork_NThc",
      "types": [
        "administrative_area_level_3",
        "political"
      ]
    },
    {
      "address_components": [
        {
          "long_name": "Kane County",
          "short_name": "Kane County",
          "types": [
            "administrative_area_level_2",
            "political"
          ]
        },
        {
          "long_name": "Illinois",
          "short_name": "IL",
          "types": [
            "administrative_area_level_1",
            "political"
          ]
        },
        {
          "long_name": "United States",
          "short_name": "US",
          "types": [
            "country",
            "political"
          ]
        }
      ],
      "formatted_address": "Kane County, IL, USA",
      "geometry": {
        "bounds": {
          "northeast": {
            "lat": 42.1543481,
            "lng": -88.23787809999999
          },
          "southwest": {
            "lat": 41.719563,
            "lng": -88.60257200000001
          }
        },
        "location": {
          "lat": 41.987884,
          "lng": -88.4016041
        },
        "location_type": "APPROXIMATE",
        "viewport": {
          "northeast": {
            "lat": 42.1543481,
            "lng": -88.23787809999999
          },
          "southwest": {
            "lat": 41.719563,
            "lng": -88.60257200000001
          }
        }
      },
      "place_id": "ChIJnfjNX8UcD4gR2rRf04RfHSw",
      "types": [
        "administrative_area_level_2",
        "political"
      ]
    },
    {
      "address_components": [
        {
          "long_name": "Chicago Metropolitan Area",
          "short_name": "Chicago Metropolitan Area",
          "types": [
            "political"
          ]
        },
        {
          "long_name": "United States",
          "short_name": "US",
          "types": [
            "country",
            "political"
          ]
        }
      ],
      "formatted_address": "Chicago Metropolitan Area, USA",
      "geometry": {
        "bounds": {
          "northeast": {
            "lat": 42.670123,
            "lng": -86.92925699999999
          },
          "southwest": {
            "lat": 40.7364641,
            "lng": -88.942292
          }
        },
        "location": {
          "lat": 41.7435073,
          "lng": -88.0118473
        },
        "location_type": "APPROXIMATE",
        "viewport": {
          "northeast": {
            "lat": 42.670123,
            "lng": -86.92925699999999
          },
          "southwest": {
            "lat": 40.7364641,
            "lng": -88.942292
          }
        }
      },
      "place_id": "ChIJg-CZjExEDogRNJNXmgqEe9o",
      "types": [
        "political"
      ]
    },
    {
      "address_components": [
        {
          "long_name": "Illinois",
          "short_name": "IL",
          "types": [
            "administrative_area_level_1",
            "political"
          ]
        },
        {
          "long_name": "United States",
          "short_name": "US",
          "types": [
            "country",
            "political"
          ]
        }
      ],
      "formatted_address": "Illinois, USA",
      "geometry": {
        "bounds": {
          "northeast": {
            "lat": 42.5083379,
            "lng": -87.4951991
          },
          "southwest": {
            "lat": 36.970298,
            "lng": -91.5130789
          }
        },
        "location": {
          "lat": 40.6331249,
          "lng": -89.3985283
        },
        "location_type": "APPROXIMATE",
        "viewport": {
          "northeast": {
            "lat": 42.5083379,
            "lng": -87.4951991
          },
          "southwest": {
            "lat": 36.970298,
            "lng": -91.5130789
          }
        }
      },
      "place_id": "ChIJGSZubzgtC4gRVlkRZFCCFX8",
      "types": [
        "administrative_area_level_1",
        "political"
      ]
    },
    {
      "address_components": [
        {
          "long_name": "United States",
          "short_name": "US",
          "types": [
            "country",
            "political"
          ]
        }
      ],
      "formatted_address": "United States",
      "geometry": {
        "bounds": {
          "northeast": {
            "lat": 71.3867745,
            "lng": -66.9502861
          },
          "southwest": {
            "lat": 18.9106768,
            "lng": 172.4458955
          }
        },
        "location": {
          "lat": 37.09024,
          "lng": -95.712891
        },
        "location_type": "APPROXIMATE",
        "viewport": {
          "northeast": {
            "lat": 49.38,
            "lng": -66.94
          },
          "southwest": {
            "lat": 25.82,
            "lng": -124.39
          }
        }
      },
      "place_id": "ChIJCzYy5IS16lQRQrfeQ5K5Oxw",
      "types": [
        "country",
        "political"
      ]
    }
  ],
  "status": "OK"
}
