{
  "results": [
    {
      "address_components": [
        {
          "long_name": "116",
          "short_name": "116",
          "types": [
            "street_number"
          ]
        },
        {
          "long_name": "Champion Street",
          "short_name": "Champion St",
          "types": [
            "route"
          ]
        },
        {
          "long_name": "McDonald",
          "short_name": "McDonald",
          "types": [
            "locality",
            "political"
          ]
        },
        {
          "long_name": "North Fayette Township",
          "short_name": "North Fayette Township",
          "types": [
            "administrative_area_level_3",
            "political"
          ]
        },
        {
          "long_name": "Allegheny County",
          "short_name": "Allegheny County",
          "types": [
            "administrative_area_level_2",
            "political"
          ]
        },
        {
          "long_name": "Pennsylvania",
          "short_name": "PA",
          "types": [
            "administrative_area_level_1",
            "political"
          ]
        },
        {
          "long_name": "United States",
          "short_name": "US",
          "types": [
            "country",
            "political"
          ]
        },
        {
          "long_name": "15057",
          "short_name": "15057",
          "types": [
            "postal_code"
          ]
        },
        {
          "long_name": "2324",
          "short_name": "2324",
          "types": [
            "postal_code_suffix"
          ]
        }
      ],
      "formatted_address": "116 Champion St, McDonald, PA 15057, USA",
      "geometry": {
        "location": {
          "lat": 40.382824,
          "lng": -80.214614
        },
        "location_type": "ROOFTOP",
        "viewport": {
          "northeast": {
            "lat": 40.3841729802915,
            "lng": -80.21326501970849
          },
          "southwest": {
            "lat": 40.3814750197085,
            "lng": -80.21596298029151
          }
        }
      },
      "place_id": "ChIJga4K73VaNIgRSC6T6_kYDgo",
      "types": [
        "street_address"
      ]
    },
    {
      "address_components": [
        {
          "long_name": "Sturgeon",
          "short_name": "Sturgeon",
          "types": [
            "locality",
            "political"
          ]
        },
        {
          "long_name": "North Fayette Township",
          "short_name": "North Fayette Township",
          "types": [
            "administrative_area_level_3",
            "political"
          ]
        },
        {
          "long_name": "Allegheny County",
          "short_name": "Allegheny County",
          "types": [
            "administrative_area_level_2",
            "political"
          ]
        },
        {
          "long_name": "Pennsylvania",
          "short_name": "PA",
          "types": [
            "administrative_area_level_1",
            "political"
          ]
        },
        {
          "long_name": "United States",
          "short_name": "US",
          "types": [
            "country",
            "political"
          ]
        }
      ],
      "formatted_address": "Sturgeon, PA, USA",
      "geometry": {
        "bounds": {
          "northeast": {
            "lat": 40.396527,
            "lng": -80.202506
          },
          "southwest": {
            "lat": 40.3714289,
            "lng": -80.22871789999999
          }
        },
        "location": {
          "lat": 40.3847788,
          "lng": -80.2110176
        },
        "location_type": "APPROXIMATE",
        "viewport": {
          "northeast": {
            "lat": 40.396527,
            "lng": -80.202506
          },
          "southwest": {
            "lat": 40.3714289,
            "lng": -80.22871789999999
          }
        }
      },
      "place_id": "ChIJc4iYgHVaNIgRuvXDLk1RZGU",
      "types": [
        "locality",
        "political"
      ]
    },
    {
      "address_components": [
        {
          "long_name": "North Fayette Township",
          "short_name": "North Fayette Township",
          "types": [
            "administrative_area_level_3",
            "political"
          ]
        },
        {
          "long_name": "Allegheny County",
          "short_name": "Allegheny County",
          "types": [
            "administrative_area_level_2",
            "political"
          ]
        },
        {
          "long_name": "Pennsylvania",
          "short_name": "PA",
          "types": [
            "administrative_area_level_1",
            "political"
          ]
        },
        {
          "long_name": "United States",
          "short_name": "US",
          "types": [
            "country",
            "political"
          ]
        }
      ],
      "formatted_address": "North Fayette Township, PA, USA",
      "geometry": {
        "bounds": {
          "northeast": {
            "lat": 40.4584041,
            "lng": -80.1679229
          },
          "southwest": {
            "lat": 40.371221,
            "lng": -80.2973349
          }
        },
        "location": {
          "lat": 40.4128738,
          "lng": -80.2209773
        },
        "location_type": "APPROXIMATE",
        "viewport": {
          "northeast": {
            "lat": 40.4584041,
            "lng": -80.1679229
          },
          "southwest": {
            "lat": 40.371221,
            "lng": -80.2973349
          }
        }
      },
      "place_id": "ChIJ-yZIDvhaNIgRwgZp9KSkWJA",
      "types": [
        "administrative_area_level_3",
        "political"
      ]
    },
    {
      "address_components": [
        {
          "long_name": "15057",
          "short_name": "15057",
          "types": [
            "postal_code"
          ]
        },
        {
          "long_name": "McDonald",
          "short_name": "McDonald",
          "types": [
            "locality",
            "political"
          ]
        },
        {
          "long_name": "Pennsylvania",
          "short_name": "PA",
          "types": [
            "administrative_area_level_1",
            "political"
          ]
        },
        {
          "long_name": "United States",
          "short_name": "US",
          "types": [
            "country",
            "political"
          ]
        }
      ],
      "formatted_address": "McDonald, PA 15057, USA",
      "geometry": {
        "bounds": {
          "northeast": {
            "lat": 40.42693209999999,
            "lng": -80.1330785
          },
          "southwest": {
            "lat": 40.2891149,
            "lng": -80.34509109999999
          }
        },
        "location": {
          "lat": 40.3652067,
          "lng": -80.254435
        },
        "location_type": "APPROXIMATE",
        "viewport": {
          "northeast": {
            "lat": 40.42693209999999,
            "lng": -80.1330785
          },
          "southwest": {
            "lat": 40.2891149,
            "lng": -80.34509109999999
          }
        }
      },
      "place_id": "ChIJDWScP0hQNIgR8_8_boNOSmg",
      "types": [
        "postal_code"
      ]
    },
    {
      "address_components": [
        {
          "long_name": "Allegheny County",
          "short_name": "Allegheny County",
          "types": [
            "administrative_area_level_2",
            "political"
          ]
        },
        {
          "long_name": "Pennsylvania",
          "short_name": "PA",
          "types": [
            "administrative_area_level_1",
            "political"
          ]
        },
        {
          "long_name": "United States",
          "short_name": "US",
          "types": [
            "country",
            "political"
          ]
        }
      ],
      "formatted_address": "Allegheny County, PA, USA",
      "geometry": {
        "bounds": {
          "northeast": {
            "lat": 40.67453,
            "lng": -79.6899755
          },
          "southwest": {
            "lat": 40.1943428,
            "lng": -80.36087289999999
          }
        },
        "location": {
          "lat": 40.4450813,
          "lng": -80.0087746
        },
        "location_type": "APPROXIMATE",
        "viewport": {
          "northeast": {
            "lat": 40.67453,
            "lng": -79.6899755
          },
          "southwest": {
            "lat": 40.1943428,
            "lng": -80.36087289999999
          }
        }
      },
      "place_id": "ChIJu-PIH-y5NIgRVFV1McCaCyw",
      "types": [
        "administrative_area_level_2",
        "political"
      ]
    },
    {
      "address_components": [
        {
          "long_name": "Pittsburgh",
          "short_name": "Pittsburgh",
          "types": [
            "political"
          ]
        },
        {
          "long_name": "United States",
          "short_name": "US",
          "types": [
            "country",
            "political"
          ]
        }
      ],
      "formatted_address": "Pittsburgh, USA",
      "geometry": {
        "bounds": {
          "northeast": {
            "lat": 41.1731849,
            "lng": -78.974649
          },
          "southwest": {
            "lat": 39.7207129,
            "lng": -80.5192179
          }
        },
        "location": {
          "lat": 40.3565093,
          "lng": -79.9192702
        },
        "location_type": "APPROXIMATE",
        "viewport": {
          "northeast": {
            "lat": 41.1731849,
            "lng": -78.974649
          },
          "southwest": {
            "lat": 39.7207129,
            "lng": -80.5192179
          }
        }
      },
      "place_id": "ChIJiWjZkAfsNIgRSXopSLGQlS4",
      "types": [
        "political"
      ]
    },
    {
      "address_components": [
        {
          "long_name": "Pennsylvania",
          "short_name": "PA",
          "types": [
            "administrative_area_level_1",
            "political"
          ]
        },
        {
          "long_name": "United States",
          "short_name": "US",
          "types": [
            "country",
            "political"
          ]
        }
      ],
      "formatted_address": "Pennsylvania, USA",
      "geometry": {
        "bounds": {
          "northeast": {
            "lat": 42.2693866,
            "lng": -74.6895018
          },
          "southwest": {
            "lat": 39.7197989,
            "lng": -80.51989499999999
          }
        },
        "location": {
          "lat": 41.2033216,
          "lng": -77.1945247
        },
        "location_type": "APPROXIMATE",
        "viewport": {
          "northeast": {
            "lat": 42.2693866,
            "lng": -74.6895018
          },
          "southwest": {
            "lat": 39.7197989,
            "lng": -80.51989499999999
          }
        }
      },
      "place_id": "ChIJieUyHiaALYgRPbQiUEchRsI",
      "types": [
        "administrative_area_level_1",
        "political"
      ]
    },
    {
      "address_components": [
        {
          "long_name": "United States",
          "short_name": "US",
          "types": [
            "country",
            "political"
          ]
        }
      ],
      "formatted_address": "United States",
      "geometry": {
        "bounds": {
          "northeast": {
            "lat": 71.3867745,
            "lng": -66.9502861
          },
          "southwest": {
            "lat": 18.9106768,
            "lng": 172.4458955
          }
        },
        "location": {
          "lat": 37.09024,
          "lng": -95.712891
        },
        "location_type": "APPROXIMATE",
        "viewport": {
          "northeast": {
            "lat": 49.38,
            "lng": -66.94
          },
          "southwest": {
            "lat": 25.82,
            "lng": -124.39
          }
        }
      },
      "place_id": "ChIJCzYy5IS16lQRQrfeQ5K5Oxw",
      "types": [
        "country",
        "political"
      ]
    }
  ],
  "status": "OK"
}
