{
  "results": [
    {
      "address_components": [
        {
          "long_name": "20",
          "short_name": "20",
          "types": [
            "street_number"
          ]
        },
        {
          "long_name": "2nd Street",
          "short_name": "2nd St",
          "types": [
            "route"
          ]
        },
        {
          "long_name": "Orrtanna",
          "short_name": "Orrtanna",
          "types": [
            "locality",
            "political"
          ]
        },
        {
          "long_name": "Hamiltonban Township",
          "short_name": "Hamiltonban Township",
          "types": [
            "administrative_area_level_3",
            "political"
          ]
        },
        {
          "long_name": "Adams County",
          "short_name": "Adams County",
          "types": [
            "administrative_area_level_2",
            "political"
          ]
        },
        {
          "long_name": "Pennsylvania",
          "short_name": "PA",
          "types": [
            "administrative_area_level_1",
            "political"
          ]
        },
        {
          "long_name": "United States",
          "short_name": "US",
          "types": [
            "country",
            "political"
          ]
        },
        {
          "long_name": "17353",
          "short_name": "17353",
          "types": [
            "postal_code"
          ]
        }
      ],
      "formatted_address": "20 2nd St, Orrtanna, PA 17353, USA",
      "geometry": {
        "location": {
          "lat": 39.84629899999999,
          "lng": -77.359163
        },
        "location_type": "ROOFTOP",
        "viewport": {
          "northeast": {
            "lat": 39.84764798029149,
            "lng": -77.35781401970848
          },
          "southwest": {
            "lat": 39.84495001970849,
            "lng": -77.3605119802915
          }
        }
      },
      "place_id": "ChIJieGLwkavyYkReNWPcbvwXT0",
      "types": [
        "street_address"
      ]
    },
    {
      "address_components": [
        {
          "long_name": "Orrtanna",
          "short_name": "Orrtanna",
          "types": [
            "locality",
            "political"
          ]
        },
        {
          "long_name": "Hamiltonban Township",
          "short_name": "Hamiltonban Township",
          "types": [
            "administrative_area_level_3",
            "political"
          ]
        },
        {
          "long_name": "Adams County",
          "short_name": "Adams County",
          "types": [
            "administrative_area_level_2",
            "political"
          ]
        },
        {
          "long_name": "Pennsylvania",
          "short_name": "PA",
          "types": [
            "administrative_area_level_1",
            "political"
          ]
        },
        {
          "long_name": "United States",
          "short_name": "US",
          "types": [
            "country",
            "political"
          ]
        }
      ],
      "formatted_address": "Orrtanna, PA, USA",
      "geometry": {
        "bounds": {
          "northeast": {
            "lat": 39.851962,
            "lng": -77.3531671
          },
          "southwest": {
            "lat": 39.840474,
            "lng": -77.3651539
          }
        },
        "location": {
          "lat": 39.8450942,
          "lng": -77.3608196
        },
        "location_type": "APPROXIMATE",
        "viewport": {
          "northeast": {
            "lat": 39.851962,
            "lng": -77.3531671
          },
          "southwest": {
            "lat": 39.840474,
            "lng": -77.3651539
          }
        }
      },
      "place_id": "ChIJIbvLTiemyYkR0p-nfII_BaM",
      "types": [
        "locality",
        "political"
      ]
    },
    {
      "address_components": [
        {
          "long_name": "Hamiltonban Township",
          "short_name": "Hamiltonban Township",
          "types": [
            "administrative_area_level_3",
            "political"
          ]
        },
        {
          "long_name": "Adams County",
          "short_name": "Adams County",
          "types": [
            "administrative_area_level_2",
            "political"
          ]
        },
        {
          "long_name": "Pennsylvania",
          "short_name": "PA",
          "types": [
            "administrative_area_level_1",
            "political"
          ]
        },
        {
          "long_name": "United States",
          "short_name": "US",
          "types": [
            "country",
            "political"
          ]
        }
      ],
      "formatted_address": "Hamiltonban Township, PA, USA",
      "geometry": {
        "bounds": {
          "northeast": {
            "lat": 39.86975930000001,
            "lng": -77.34042509999999
          },
          "southwest": {
            "lat": 39.7367889,
            "lng": -77.465959
          }
        },
        "location": {
          "lat": 39.7952634,
          "lng": -77.4128193
        },
        "location_type": "APPROXIMATE",
        "viewport": {
          "northeast": {
            "lat": 39.86975930000001,
            "lng": -77.34042509999999
          },
          "southwest": {
            "lat": 39.7367889,
            "lng": -77.465959
          }
        }
      },
      "place_id": "ChIJSUJAzj-lyYkRpkj7VTtxNWE",
      "types": [
        "administrative_area_level_3",
        "political"
      ]
    },
    {
      "address_components": [
        {
          "long_name": "17353",
          "short_name": "17353",
          "types": [
            "postal_code"
          ]
        },
        {
          "long_name": "Orrtanna",
          "short_name": "Orrtanna",
          "types": [
            "locality",
            "political"
          ]
        },
        {
          "long_name": "Adams County",
          "short_name": "Adams County",
          "types": [
            "administrative_area_level_2",
            "political"
          ]
        },
        {
          "long_name": "Pennsylvania",
          "short_name": "PA",
          "types": [
            "administrative_area_level_1",
            "political"
          ]
        },
        {
          "long_name": "United States",
          "short_name": "US",
          "types": [
            "country",
            "political"
          ]
        }
      ],
      "formatted_address": "Orrtanna, PA 17353, USA",
      "geometry": {
        "bounds": {
          "northeast": {
            "lat": 39.967051,
            "lng": -77.31433299999999
          },
          "southwest": {
            "lat": 39.8038809,
            "lng": -77.451776
          }
        },
        "location": {
          "lat": 39.8737926,
          "lng": -77.3898602
        },
        "location_type": "APPROXIMATE",
        "viewport": {
          "northeast": {
            "lat": 39.967051,
            "lng": -77.31433299999999
          },
          "southwest": {
            "lat": 39.8038809,
            "lng": -77.451776
          }
        }
      },
      "place_id": "ChIJiZDmgCamyYkRSC7dTDs93Uc",
      "types": [
        "postal_code"
      ]
    },
    {
      "address_components": [
        {
          "long_name": "Adams County",
          "short_name": "Adams County",
          "types": [
            "administrative_area_level_2",
            "political"
          ]
        },
        {
          "long_name": "Pennsylvania",
          "short_name": "PA",
          "types": [
            "administrative_area_level_1",
            "political"
          ]
        },
        {
          "long_name": "United States",
          "short_name": "US",
          "types": [
            "country",
            "political"
          ]
        }
      ],
      "formatted_address": "Adams County, PA, USA",
      "geometry": {
        "bounds": {
          "northeast": {
            "lat": 40.0699449,
            "lng": -76.95493189999999
          },
          "southwest": {
            "lat": 39.71981290000001,
            "lng": -77.471085
          }
        },
        "location": {
          "lat": 39.8522417,
          "lng": -77.2864879
        },
        "location_type": "APPROXIMATE",
        "viewport": {
          "northeast": {
            "lat": 40.0699449,
            "lng": -76.95493189999999
          },
          "southwest": {
            "lat": 39.71981290000001,
            "lng": -77.471085
          }
        }
      },
      "place_id": "ChIJCWVbo3AByYkRHNZRi5Q0HDM",
      "types": [
        "administrative_area_level_2",
        "political"
      ]
    },
    {
      "address_components": [
        {
          "long_name": "Gettysburg",
          "short_name": "Gettysburg",
          "types": [
            "political"
          ]
        },
        {
          "long_name": "United States",
          "short_name": "US",
          "types": [
            "country",
            "political"
          ]
        }
      ],
      "formatted_address": "Gettysburg, USA",
      "geometry": {
        "bounds": {
          "northeast": {
            "lat": 40.0697039,
            "lng": -76.9553701
          },
          "southwest": {
            "lat": 39.7198309,
            "lng": -77.4716159
          }
        },
        "location": {
          "lat": 39.8522417,
          "lng": -77.2864879
        },
        "location_type": "APPROXIMATE",
        "viewport": {
          "northeast": {
            "lat": 40.0697039,
            "lng": -76.9553701
          },
          "southwest": {
            "lat": 39.7198309,
            "lng": -77.4716159
          }
        }
      },
      "place_id": "ChIJrRvsIxaryYkR10VrsPfoOjc",
      "types": [
        "political"
      ]
    },
    {
      "address_components": [
        {
          "long_name": "Pennsylvania",
          "short_name": "PA",
          "types": [
            "administrative_area_level_1",
            "political"
          ]
        },
        {
          "long_name": "United States",
          "short_name": "US",
          "types": [
            "country",
            "political"
          ]
        }
      ],
      "formatted_address": "Pennsylvania, USA",
      "geometry": {
        "bounds": {
          "northeast": {
            "lat": 42.2693866,
            "lng": -74.6895018
          },
          "southwest": {
            "lat": 39.7197989,
            "lng": -80.51989499999999
          }
        },
        "location": {
          "lat": 41.2033216,
          "lng": -77.1945247
        },
        "location_type": "APPROXIMATE",
        "viewport": {
          "northeast": {
            "lat": 42.2693866,
            "lng": -74.6895018
          },
          "southwest": {
            "lat": 39.7197989,
            "lng": -80.51989499999999
          }
        }
      },
      "place_id": "ChIJieUyHiaALYgRPbQiUEchRsI",
      "types": [
        "administrative_area_level_1",
        "political"
      ]
    },
    {
      "address_components": [
        {
          "long_name": "United States",
          "short_name": "US",
          "types": [
            "country",
            "political"
          ]
        }
      ],
      "formatted_address": "United States",
      "geometry": {
        "bounds": {
          "northeast": {
            "lat": 71.3867745,
            "lng": -66.9502861
          },
          "southwest": {
            "lat": 18.9106768,
            "lng": 172.4458955
          }
        },
        "location": {
          "lat": 37.09024,
          "lng": -95.712891
        },
        "location_type": "APPROXIMATE",
        "viewport": {
          "northeast": {
            "lat": 49.38,
            "lng": -66.94
          },
          "southwest": {
            "lat": 25.82,
            "lng": -124.39
          }
        }
      },
      "place_id": "ChIJCzYy5IS16lQRQrfeQ5K5Oxw",
      "types": [
        "country",
        "political"
      ]
    }
  ],
  "status": "OK"
}
