{
  "results": [
    {
      "address_components": [
        {
          "long_name": "622nd Street",
          "short_name": "622nd St",
          "types": [
            "route"
          ]
        },
        {
          "long_name": "Colfax",
          "short_name": "Colfax",
          "types": [
            "locality",
            "political"
          ]
        },
        {
          "long_name": "Tainter",
          "short_name": "Tainter",
          "types": [
            "administrative_area_level_3",
            "political"
          ]
        },
        {
          "long_name": "Dunn County",
          "short_name": "Dunn County",
          "types": [
            "administrative_area_level_2",
            "political"
          ]
        },
        {
          "long_name": "Wisconsin",
          "short_name": "WI",
          "types": [
            "administrative_area_level_1",
            "political"
          ]
        },
        {
          "long_name": "United States",
          "short_name": "US",
          "types": [
            "country",
            "political"
          ]
        },
        {
          "long_name": "54730",
          "short_name": "54730",
          "types": [
            "postal_code"
          ]
        }
      ],
      "formatted_address": "622nd St, Colfax, WI 54730, USA",
      "geometry": {
        "bounds": {
          "northeast": {
            "lat": 44.9927808,
            "lng": -91.84659909999999
          },
          "southwest": {
            "lat": 44.9896489,
            "lng": -91.8483747
          }
        },
        "location": {
          "lat": 44.9911952,
          "lng": -91.8473692
        },
        "location_type": "GEOMETRIC_CENTER",
        "viewport": {
          "northeast": {
            "lat": 44.9927808,
            "lng": -91.8461379197085
          },
          "southwest": {
            "lat": 44.9896489,
            "lng": -91.8488358802915
          }
        }
      },
      "place_id": "ChIJ0SL-xbYqrVIRtbgnYlACG3w",
      "types": [
        "route"
      ]
    },
    {
      "address_components": [
        {
          "long_name": "Tainter Lake",
          "short_name": "Tainter Lake",
          "types": [
            "locality",
            "political"
          ]
        },
        {
          "long_name": "Tainter",
          "short_name": "Tainter",
          "types": [
            "administrative_area_level_3",
            "political"
          ]
        },
        {
          "long_name": "Dunn County",
          "short_name": "Dunn County",
          "types": [
            "administrative_area_level_2",
            "political"
          ]
        },
        {
          "long_name": "Wisconsin",
          "short_name": "WI",
          "types": [
            "administrative_area_level_1",
            "political"
          ]
        },
        {
          "long_name": "United States",
          "short_name": "US",
          "types": [
            "country",
            "political"
          ]
        }
      ],
      "formatted_address": "Tainter Lake, WI, USA",
      "geometry": {
        "bounds": {
          "northeast": {
            "lat": 45.030974,
            "lng": -91.772875
          },
          "southwest": {
            "lat": 44.933546,
            "lng": -91.9058909
          }
        },
        "location": {
          "lat": 44.9891288,
          "lng": -91.847675
        },
        "location_type": "APPROXIMATE",
        "viewport": {
          "northeast": {
            "lat": 45.030974,
            "lng": -91.772875
          },
          "southwest": {
            "lat": 44.933546,
            "lng": -91.9058909
          }
        }
      },
      "place_id": "ChIJx4c6GrQqrVIRQ7k4mM32LYU",
      "types": [
        "locality",
        "political"
      ]
    },
    {
      "address_components": [
        {
          "long_name": "Tainter",
          "short_name": "Tainter",
          "types": [
            "administrative_area_level_3",
            "political"
          ]
        },
        {
          "long_name": "Dunn County",
          "short_name": "Dunn County",
          "types": [
            "administrative_area_level_2",
            "political"
          ]
        },
        {
          "long_name": "Wisconsin",
          "short_name": "WI",
          "types": [
            "administrative_area_level_1",
            "political"
          ]
        },
        {
          "long_name": "United States",
          "short_name": "US",
          "types": [
            "country",
            "political"
          ]
        }
      ],
      "formatted_address": "Tainter, WI, USA",
      "geometry": {
        "bounds": {
          "northeast": {
            "lat": 45.0309919,
            "lng": -91.77272909999999
          },
          "southwest": {
            "lat": 44.9437051,
            "lng": -91.8948369
          }
        },
        "location": {
          "lat": 45.00367749999999,
          "lng": -91.85254809999999
        },
        "location_type": "APPROXIMATE",
        "viewport": {
          "northeast": {
            "lat": 45.0309919,
            "lng": -91.77272909999999
          },
          "southwest": {
            "lat": 44.9437051,
            "lng": -91.8948369
          }
        }
      },
      "place_id": "ChIJpUkoMk3VrFIRkcSnB5axxMk",
      "types": [
        "administrative_area_level_3",
        "political"
      ]
    },
    {
      "address_components": [
        {
          "long_name": "54730",
          "short_name": "54730",
          "types": [
            "postal_code"
          ]
        },
        {
          "long_name": "Colfax",
          "short_name": "Colfax",
          "types": [
            "locality",
            "political"
          ]
        },
        {
          "long_name": "Wisconsin",
          "short_name": "WI",
          "types": [
            "administrative_area_level_1",
            "political"
          ]
        },
        {
          "long_name": "United States",
          "short_name": "US",
          "types": [
            "country",
            "political"
          ]
        }
      ],
      "formatted_address": "Colfax, WI 54730, USA",
      "geometry": {
        "bounds": {
          "northeast": {
            "lat": 45.143218,
            "lng": -91.528961
          },
          "southwest": {
            "lat": 44.9146741,
            "lng": -91.8949509
          }
        },
        "location": {
          "lat": 45.0244489,
          "lng": -91.717192
        },
        "location_type": "APPROXIMATE",
        "viewport": {
          "northeast": {
            "lat": 45.143218,
            "lng": -91.528961
          },
          "southwest": {
            "lat": 44.9146741,
            "lng": -91.8949509
          }
        }
      },
      "place_id": "ChIJByhMXk7SrFIRQgpKYOeaDfE",
      "types": [
        "postal_code"
      ]
    },
    {
      "address_components": [
        {
          "long_name": "Menomonie",
          "short_name": "Menomonie",
          "types": [
            "political"
          ]
        },
        {
          "long_name": "Wisconsin",
          "short_name": "WI",
          "types": [
            "administrative_area_level_1",
            "political"
          ]
        },
        {
          "long_name": "United States",
          "short_name": "US",
          "types": [
            "country",
            "political"
          ]
        }
      ],
      "formatted_address": "Menomonie, WI, USA",
      "geometry": {
        "bounds": {
          "northeast": {
            "lat": 45.209492,
            "lng": -91.649746
          },
          "southwest": {
            "lat": 44.683609,
            "lng": -92.157134
          }
        },
        "location": {
          "lat": 44.909416,
          "lng": -91.9099238
        },
        "location_type": "APPROXIMATE",
        "viewport": {
          "northeast": {
            "lat": 45.209492,
            "lng": -91.649746
          },
          "southwest": {
            "lat": 44.683609,
            "lng": -92.157134
          }
        }
      },
      "place_id": "ChIJaY2evdh--IcRkqR-Vkfq7Qo",
      "types": [
        "political"
      ]
    },
    {
      "address_components": [
        {
          "long_name": "Dunn County",
          "short_name": "Dunn County",
          "types": [
            "administrative_area_level_2",
            "political"
          ]
        },
        {
          "long_name": "Wisconsin",
          "short_name": "WI",
          "types": [
            "administrative_area_level_1",
            "political"
          ]
        },
        {
          "long_name": "United States",
          "short_name": "US",
          "types": [
            "country",
            "political"
          ]
        }
      ],
      "formatted_address": "Dunn County, WI, USA",
      "geometry": {
        "bounds": {
          "northeast": {
            "lat": 45.209572,
            "lng": -91.6496691
          },
          "southwest": {
            "lat": 44.683612,
            "lng": -92.1570919
          }
        },
        "location": {
          "lat": 44.909416,
          "lng": -91.9099238
        },
        "location_type": "APPROXIMATE",
        "viewport": {
          "northeast": {
            "lat": 45.209572,
            "lng": -91.6496691
          },
          "southwest": {
            "lat": 44.683612,
            "lng": -92.1570919
          }
        }
      },
      "place_id": "ChIJhwecyMt_-IcRxVCyn4w3jIE",
      "types": [
        "administrative_area_level_2",
        "political"
      ]
    },
    {
      "address_components": [
        {
          "long_name": "Wisconsin",
          "short_name": "WI",
          "types": [
            "administrative_area_level_1",
            "political"
          ]
        },
        {
          "long_name": "United States",
          "short_name": "US",
          "types": [
            "country",
            "political"
          ]
        }
      ],
      "formatted_address": "Wisconsin, USA",
      "geometry": {
        "bounds": {
          "northeast": {
            "lat": 47.0807296,
            "lng": -86.7639767
          },
          "southwest": {
            "lat": 42.491864,
            "lng": -92.88943309999999
          }
        },
        "location": {
          "lat": 43.7844397,
          "lng": -88.7878678
        },
        "location_type": "APPROXIMATE",
        "viewport": {
          "northeast": {
            "lat": 47.0807296,
            "lng": -86.7639767
          },
          "southwest": {
            "lat": 42.491864,
            "lng": -92.88943309999999
          }
        }
      },
      "place_id": "ChIJr-OEkw_0qFIR1kmG-LjV1fI",
      "types": [
        "administrative_area_level_1",
        "political"
      ]
    },
    {
      "address_components": [
        {
          "long_name": "United States",
          "short_name": "US",
          "types": [
            "country",
            "political"
          ]
        }
      ],
      "formatted_address": "United States",
      "geometry": {
        "bounds": {
          "northeast": {
            "lat": 71.3867745,
            "lng": -66.9502861
          },
          "southwest": {
            "lat": 18.9106768,
            "lng": 172.4458955
          }
        },
        "location": {
          "lat": 37.09024,
          "lng": -95.712891
        },
        "location_type": "APPROXIMATE",
        "viewport": {
          "northeast": {
            "lat": 49.38,
            "lng": -66.94
          },
          "southwest": {
            "lat": 25.82,
            "lng": -124.39
          }
        }
      },
      "place_id": "ChIJCzYy5IS16lQRQrfeQ5K5Oxw",
      "types": [
        "country",
        "political"
      ]
    }
  ],
  "status": "OK"
}
