{
  "results": [
    {
      "address_components": [
        {
          "long_name": "37817",
          "short_name": "37817",
          "types": [
            "street_number"
          ]
        },
        {
          "long_name": "North Academy Drive",
          "short_name": "N Academy Dr",
          "types": [
            "route"
          ]
        },
        {
          "long_name": "Lake Villa",
          "short_name": "Lake Villa",
          "types": [
            "locality",
            "political"
          ]
        },
        {
          "long_name": "Lake Villa Township",
          "short_name": "Lake Villa Township",
          "types": [
            "administrative_area_level_3",
            "political"
          ]
        },
        {
          "long_name": "Lake County",
          "short_name": "Lake County",
          "types": [
            "administrative_area_level_2",
            "political"
          ]
        },
        {
          "long_name": "Illinois",
          "short_name": "IL",
          "types": [
            "administrative_area_level_1",
            "political"
          ]
        },
        {
          "long_name": "United States",
          "short_name": "US",
          "types": [
            "country",
            "political"
          ]
        },
        {
          "long_name": "60046",
          "short_name": "60046",
          "types": [
            "postal_code"
          ]
        },
        {
          "long_name": "9713",
          "short_name": "9713",
          "types": [
            "postal_code_suffix"
          ]
        }
      ],
      "formatted_address": "37817 N Academy Dr, Lake Villa, IL 60046, USA",
      "geometry": {
        "location": {
          "lat": 42.412719,
          "lng": -88.12697899999999
        },
        "location_type": "ROOFTOP",
        "viewport": {
          "northeast": {
            "lat": 42.41406798029149,
            "lng": -88.12563001970848
          },
          "southwest": {
            "lat": 42.4113700197085,
            "lng": -88.1283279802915
          }
        }
      },
      "place_id": "ChIJA737KwKDD4gRnwiTmKprPFw",
      "types": [
        "street_address"
      ]
    },
    {
      "address_components": [
        {
          "long_name": "Fox Lake Hills",
          "short_name": "Fox Lake Hills",
          "types": [
            "locality",
            "political"
          ]
        },
        {
          "long_name": "Lake Villa Township",
          "short_name": "Lake Villa Township",
          "types": [
            "administrative_area_level_3",
            "political"
          ]
        },
        {
          "long_name": "Lake County",
          "short_name": "Lake County",
          "types": [
            "administrative_area_level_2",
            "political"
          ]
        },
        {
          "long_name": "Illinois",
          "short_name": "IL",
          "types": [
            "administrative_area_level_1",
            "political"
          ]
        },
        {
          "long_name": "United States",
          "short_name": "US",
          "types": [
            "country",
            "political"
          ]
        }
      ],
      "formatted_address": "Fox Lake Hills, IL, USA",
      "geometry": {
        "bounds": {
          "northeast": {
            "lat": 42.426725,
            "lng": -88.106826
          },
          "southwest": {
            "lat": 42.4007916,
            "lng": -88.13698470000001
          }
        },
        "location": {
          "lat": 42.4080763,
          "lng": -88.1317505
        },
        "location_type": "APPROXIMATE",
        "viewport": {
          "northeast": {
            "lat": 42.426725,
            "lng": -88.106826
          },
          "southwest": {
            "lat": 42.4007916,
            "lng": -88.13698470000001
          }
        }
      },
      "place_id": "ChIJk5WARBuDD4gREfghkU--TNw",
      "types": [
        "locality",
        "political"
      ]
    },
    {
      "address_components": [
        {
          "long_name": "Lake Villa Township",
          "short_name": "Lake Villa Township",
          "types": [
            "administrative_area_level_3",
            "political"
          ]
        },
        {
          "long_name": "Lake County",
          "short_name": "Lake County",
          "types": [
            "administrative_area_level_2",
            "political"
          ]
        },
        {
          "long_name": "Illinois",
          "short_name": "IL",
          "types": [
            "administrative_area_level_1",
            "political"
          ]
        },
        {
          "long_name": "United States",
          "short_name": "US",
          "types": [
            "country",
            "political"
          ]
        }
      ],
      "formatted_address": "Lake Villa Township, IL, USA",
      "geometry": {
        "bounds": {
          "northeast": {
            "lat": 42.4446199,
            "lng": -88.00343289999999
          },
          "southwest": {
            "lat": 42.385653,
            "lng": -88.140198
          }
        },
        "location": {
          "lat": 42.4069886,
          "lng": -88.0607565
        },
        "location_type": "APPROXIMATE",
        "viewport": {
          "northeast": {
            "lat": 42.4446199,
            "lng": -88.00343289999999
          },
          "southwest": {
            "lat": 42.385653,
            "lng": -88.140198
          }
        }
      },
      "place_id": "ChIJk-nclYqED4gR9sL7XNtta58",
      "types": [
        "administrative_area_level_3",
        "political"
      ]
    },
    {
      "address_components": [
        {
          "long_name": "60046",
          "short_name": "60046",
          "types": [
            "postal_code"
          ]
        },
        {
          "long_name": "Lake Villa",
          "short_name": "Lake Villa",
          "types": [
            "locality",
            "political"
          ]
        },
        {
          "long_name": "Lake County",
          "short_name": "Lake County",
          "types": [
            "administrative_area_level_2",
            "political"
          ]
        },
        {
          "long_name": "Illinois",
          "short_name": "IL",
          "types": [
            "administrative_area_level_1",
            "political"
          ]
        },
        {
          "long_name": "United States",
          "short_name": "US",
          "types": [
            "country",
            "political"
          ]
        }
      ],
      "formatted_address": "Lake Villa, IL 60046, USA",
      "geometry": {
        "bounds": {
          "northeast": {
            "lat": 42.45522,
            "lng": -87.99415979999999
          },
          "southwest": {
            "lat": 42.3598229,
            "lng": -88.1402531
          }
        },
        "location": {
          "lat": 42.4069886,
          "lng": -88.0607565
        },
        "location_type": "APPROXIMATE",
        "viewport": {
          "northeast": {
            "lat": 42.45522,
            "lng": -87.99415979999999
          },
          "southwest": {
            "lat": 42.3598229,
            "lng": -88.1402531
          }
        }
      },
      "place_id": "ChIJtUGviO6ED4gR0atz5cObP7I",
      "postcode_localities": [
        "Lake Villa",
        "Lindenhurst",
        "Old Mill Creek"
      ],
      "types": [
        "postal_code"
      ]
    },
    {
      "address_components": [
        {
          "long_name": "Lake County",
          "short_name": "Lake County",
          "types": [
            "administrative_area_level_2",
            "political"
          ]
        },
        {
          "long_name": "Illinois",
          "short_name": "IL",
          "types": [
            "administrative_area_level_1",
            "political"
          ]
        },
        {
          "long_name": "United States",
          "short_name": "US",
          "types": [
            "country",
            "political"
          ]
        }
      ],
      "formatted_address": "Lake County, IL, USA",
      "geometry": {
        "bounds": {
          "northeast": {
            "lat": 42.49563699999999,
            "lng": -87.75900469999999
          },
          "southwest": {
            "lat": 42.152361,
            "lng": -88.1997628
          }
        },
        "location": {
          "lat": 42.3689363,
          "lng": -87.8271534
        },
        "location_type": "APPROXIMATE",
        "viewport": {
          "northeast": {
            "lat": 42.49563699999999,
            "lng": -87.75900469999999
          },
          "southwest": {
            "lat": 42.152361,
            "lng": -88.1997628
          }
        }
      },
      "place_id": "ChIJKdUvmscAD4gRZsVGNFFqkhs",
      "types": [
        "administrative_area_level_2",
        "political"
      ]
    },
    {
      "address_components": [
        {
          "long_name": "Chicago Metropolitan Area",
          "short_name": "Chicago Metropolitan Area",
          "types": [
            "political"
          ]
        },
        {
          "long_name": "United States",
          "short_name": "US",
          "types": [
            "country",
            "political"
          ]
        }
      ],
      "formatted_address": "Chicago Metropolitan Area, USA",
      "geometry": {
        "bounds": {
          "northeast": {
            "lat": 42.670123,
            "lng": -86.92925699999999
          },
          "southwest": {
            "lat": 40.7364641,
            "lng": -88.942292
          }
        },
        "location": {
          "lat": 41.7435073,
          "lng": -88.0118473
        },
        "location_type": "APPROXIMATE",
        "viewport": {
          "northeast": {
            "lat": 42.670123,
            "lng": -86.92925699999999
          },
          "southwest": {
            "lat": 40.7364641,
            "lng": -88.942292
          }
        }
      },
      "place_id": "ChIJg-CZjExEDogRNJNXmgqEe9o",
      "types": [
        "political"
      ]
    },
    {
      "address_components": [
        {
          "long_name": "Illinois",
          "short_name": "IL",
          "types": [
            "administrative_area_level_1",
            "political"
          ]
        },
        {
          "long_name": "United States",
          "short_name": "US",
          "types": [
            "country",
            "political"
          ]
        }
      ],
      "formatted_address": "Illinois, USA",
      "geometry": {
        "bounds": {
          "northeast": {
            "lat": 42.5083379,
            "lng": -87.4951991
          },
          "southwest": {
            "lat": 36.970298,
            "lng": -91.5130789
          }
        },
        "location": {
          "lat": 40.6331249,
          "lng": -89.3985283
        },
        "location_type": "APPROXIMATE",
        "viewport": {
          "northeast": {
            "lat": 42.5083379,
            "lng": -87.4951991
          },
          "southwest": {
            "lat": 36.970298,
            "lng": -91.5130789
          }
        }
      },
      "place_id": "ChIJGSZubzgtC4gRVlkRZFCCFX8",
      "types": [
        "administrative_area_level_1",
        "political"
      ]
    },
    {
      "address_components": [
        {
          "long_name": "United States",
          "short_name": "US",
          "types": [
            "country",
            "political"
          ]
        }
      ],
      "formatted_address": "United States",
      "geometry": {
        "bounds": {
          "northeast": {
            "lat": 71.3867745,
            "lng": -66.9502861
          },
          "southwest": {
            "lat": 18.9106768,
            "lng": 172.4458955
          }
        },
        "location": {
          "lat": 37.09024,
          "lng": -95.712891
        },
        "location_type": "APPROXIMATE",
        "viewport": {
          "northeast": {
            "lat": 49.38,
            "lng": -66.94
          },
          "southwest": {
            "lat": 25.82,
            "lng": -124.39
          }
        }
      },
      "place_id": "ChIJCzYy5IS16lQRQrfeQ5K5Oxw",
      "types": [
        "country",
        "political"
      ]
    }
  ],
  "status": "OK"
}
