{
  "results": [
    {
      "address_components": [
        {
          "long_name": "555",
          "short_name": "555",
          "types": [
            "street_number"
          ]
        },
        {
          "long_name": "U.S. 9",
          "short_name": "U.S. 9",
          "types": [
            "route"
          ]
        },
        {
          "long_name": "Cape May",
          "short_name": "Cape May",
          "types": [
            "locality",
            "political"
          ]
        },
        {
          "long_name": "Lower Township",
          "short_name": "Lower Township",
          "types": [
            "administrative_area_level_3",
            "political"
          ]
        },
        {
          "long_name": "Cape May County",
          "short_name": "Cape May County",
          "types": [
            "administrative_area_level_2",
            "political"
          ]
        },
        {
          "long_name": "New Jersey",
          "short_name": "NJ",
          "types": [
            "administrative_area_level_1",
            "political"
          ]
        },
        {
          "long_name": "United States",
          "short_name": "US",
          "types": [
            "country",
            "political"
          ]
        },
        {
          "long_name": "08204",
          "short_name": "08204",
          "types": [
            "postal_code"
          ]
        }
      ],
      "formatted_address": "555 U.S. 9, Cape May, NJ 08204, USA",
      "geometry": {
        "location": {
          "lat": 38.996291,
          "lng": -74.89388699999999
        },
        "location_type": "ROOFTOP",
        "viewport": {
          "northeast": {
            "lat": 38.9976399802915,
            "lng": -74.8925380197085
          },
          "southwest": {
            "lat": 38.9949420197085,
            "lng": -74.8952359802915
          }
        }
      },
      "place_id": "ChIJV0UPmAuqwIkRt_EAZlE21uo",
      "types": [
        "street_address"
      ]
    },
    {
      "address_components": [
        {
          "long_name": "Erma",
          "short_name": "Erma",
          "types": [
            "locality",
            "political"
          ]
        },
        {
          "long_name": "Lower Township",
          "short_name": "Lower Township",
          "types": [
            "administrative_area_level_3",
            "political"
          ]
        },
        {
          "long_name": "Cape May County",
          "short_name": "Cape May County",
          "types": [
            "administrative_area_level_2",
            "political"
          ]
        },
        {
          "long_name": "New Jersey",
          "short_name": "NJ",
          "types": [
            "administrative_area_level_1",
            "political"
          ]
        },
        {
          "long_name": "United States",
          "short_name": "US",
          "types": [
            "country",
            "political"
          ]
        }
      ],
      "formatted_address": "Erma, NJ, USA",
      "geometry": {
        "bounds": {
          "northeast": {
            "lat": 39.0207819,
            "lng": -74.872607
          },
          "southwest": {
            "lat": 38.974858,
            "lng": -74.913963
          }
        },
        "location": {
          "lat": 38.9969226,
          "lng": -74.8952004
        },
        "location_type": "APPROXIMATE",
        "viewport": {
          "northeast": {
            "lat": 39.0207819,
            "lng": -74.872607
          },
          "southwest": {
            "lat": 38.974858,
            "lng": -74.913963
          }
        }
      },
      "place_id": "ChIJ4ySYk5BVv4kRPMoDa52NrtQ",
      "types": [
        "locality",
        "political"
      ]
    },
    {
      "address_components": [
        {
          "long_name": "Lower Township",
          "short_name": "Lower Township",
          "types": [
            "administrative_area_level_3",
            "political"
          ]
        },
        {
          "long_name": "Cape May County",
          "short_name": "Cape May County",
          "types": [
            "administrative_area_level_2",
            "political"
          ]
        },
        {
          "long_name": "New Jersey",
          "short_name": "NJ",
          "types": [
            "administrative_area_level_1",
            "political"
          ]
        },
        {
          "long_name": "United States",
          "short_name": "US",
          "types": [
            "country",
            "political"
          ]
        }
      ],
      "formatted_address": "Lower Township, NJ, USA",
      "geometry": {
        "bounds": {
          "northeast": {
            "lat": 39.03901,
            "lng": -74.8308689
          },
          "southwest": {
            "lat": 38.931035,
            "lng": -74.9719948
          }
        },
        "location": {
          "lat": 38.9745287,
          "lng": -74.9003335
        },
        "location_type": "APPROXIMATE",
        "viewport": {
          "northeast": {
            "lat": 39.03901,
            "lng": -74.8308689
          },
          "southwest": {
            "lat": 38.931035,
            "lng": -74.9719948
          }
        }
      },
      "place_id": "ChIJpQK9sI1Vv4kR6EHMe1IxtBU",
      "types": [
        "administrative_area_level_3",
        "political"
      ]
    },
    {
      "address_components": [
        {
          "long_name": "08204",
          "short_name": "08204",
          "types": [
            "postal_code"
          ]
        },
        {
          "long_name": "Cape May",
          "short_name": "Cape May",
          "types": [
            "locality",
            "political"
          ]
        },
        {
          "long_name": "Cape May County",
          "short_name": "Cape May County",
          "types": [
            "administrative_area_level_2",
            "political"
          ]
        },
        {
          "long_name": "New Jersey",
          "short_name": "NJ",
          "types": [
            "administrative_area_level_1",
            "political"
          ]
        },
        {
          "long_name": "United States",
          "short_name": "US",
          "types": [
            "country",
            "political"
          ]
        }
      ],
      "formatted_address": "Cape May, NJ 08204, USA",
      "geometry": {
        "bounds": {
          "northeast": {
            "lat": 39.0466288,
            "lng": -74.850748
          },
          "southwest": {
            "lat": 38.92436989999999,
            "lng": -74.977156
          }
        },
        "location": {
          "lat": 38.9638626,
          "lng": -74.90918529999999
        },
        "location_type": "APPROXIMATE",
        "viewport": {
          "northeast": {
            "lat": 39.0466288,
            "lng": -74.850748
          },
          "southwest": {
            "lat": 38.92436989999999,
            "lng": -74.977156
          }
        }
      },
      "place_id": "ChIJVRxWn01Uv4kRfR3qWoBOZ_o",
      "postcode_localities": [
        "Cape May",
        "North Cape May",
        "West Cape May"
      ],
      "types": [
        "postal_code"
      ]
    },
    {
      "address_components": [
        {
          "long_name": "Ocean City",
          "short_name": "Ocean City",
          "types": [
            "political"
          ]
        },
        {
          "long_name": "New Jersey",
          "short_name": "NJ",
          "types": [
            "administrative_area_level_1",
            "political"
          ]
        },
        {
          "long_name": "United States",
          "short_name": "US",
          "types": [
            "country",
            "political"
          ]
        }
      ],
      "formatted_address": "Ocean City, NJ, USA",
      "geometry": {
        "bounds": {
          "northeast": {
            "lat": 39.3243849,
            "lng": -74.5512178
          },
          "southwest": {
            "lat": 38.928519,
            "lng": -74.97199499999999
          }
        },
        "location": {
          "lat": 39.1872529,
          "lng": -74.8273184
        },
        "location_type": "APPROXIMATE",
        "viewport": {
          "northeast": {
            "lat": 39.3243849,
            "lng": -74.5512178
          },
          "southwest": {
            "lat": 38.928519,
            "lng": -74.97199499999999
          }
        }
      },
      "place_id": "ChIJMSNLKBmwwIkR-RMQRxJauF0",
      "types": [
        "political"
      ]
    },
    {
      "address_components": [
        {
          "long_name": "Cape May County",
          "short_name": "Cape May County",
          "types": [
            "administrative_area_level_2",
            "political"
          ]
        },
        {
          "long_name": "New Jersey",
          "short_name": "NJ",
          "types": [
            "administrative_area_level_1",
            "political"
          ]
        },
        {
          "long_name": "United States",
          "short_name": "US",
          "types": [
            "country",
            "political"
          ]
        }
      ],
      "formatted_address": "Cape May County, NJ, USA",
      "geometry": {
        "bounds": {
          "northeast": {
            "lat": 39.324383,
            "lng": -74.55107890000001
          },
          "southwest": {
            "lat": 38.9285589,
            "lng": -74.9724576
          }
        },
        "location": {
          "lat": 39.105884,
          "lng": -74.8273184
        },
        "location_type": "APPROXIMATE",
        "viewport": {
          "northeast": {
            "lat": 39.324383,
            "lng": -74.55107890000001
          },
          "southwest": {
            "lat": 38.9285885,
            "lng": -74.9724275
          }
        }
      },
      "place_id": "ChIJh1y-gZKxwIkRn21Sr3qExCU",
      "types": [
        "administrative_area_level_2",
        "political"
      ]
    },
    {
      "address_components": [
        {
          "long_name": "New Jersey",
          "short_name": "NJ",
          "types": [
            "administrative_area_level_1",
            "political"
          ]
        },
        {
          "long_name": "United States",
          "short_name": "US",
          "types": [
            "country",
            "political"
          ]
        }
      ],
      "formatted_address": "New Jersey, USA",
      "geometry": {
        "bounds": {
          "northeast": {
            "lat": 41.357423,
            "lng": -73.9024391
          },
          "southwest": {
            "lat": 38.9285589,
            "lng": -75.5597921
          }
        },
        "location": {
          "lat": 40.0583238,
          "lng": -74.4056612
        },
        "location_type": "APPROXIMATE",
        "viewport": {
          "northeast": {
            "lat": 41.357423,
            "lng": -73.9024391
          },
          "southwest": {
            "lat": 38.9286032,
            "lng": -75.5597921
          }
        }
      },
      "place_id": "ChIJn0AAnpX7wIkRjW0_-Ad70iw",
      "types": [
        "administrative_area_level_1",
        "political"
      ]
    },
    {
      "address_components": [
        {
          "long_name": "United States",
          "short_name": "US",
          "types": [
            "country",
            "political"
          ]
        }
      ],
      "formatted_address": "United States",
      "geometry": {
        "bounds": {
          "northeast": {
            "lat": 71.3867745,
            "lng": -66.9502861
          },
          "southwest": {
            "lat": 18.9106768,
            "lng": 172.4458955
          }
        },
        "location": {
          "lat": 37.09024,
          "lng": -95.712891
        },
        "location_type": "APPROXIMATE",
        "viewport": {
          "northeast": {
            "lat": 49.38,
            "lng": -66.94
          },
          "southwest": {
            "lat": 25.82,
            "lng": -124.39
          }
        }
      },
      "place_id": "ChIJCzYy5IS16lQRQrfeQ5K5Oxw",
      "types": [
        "country",
        "political"
      ]
    }
  ],
  "status": "OK"
}
