{
  "results": [
    {
      "address_components": [
        {
          "long_name": "3235",
          "short_name": "3235",
          "types": [
            "street_number"
          ]
        },
        {
          "long_name": "South 4th Street",
          "short_name": "S 4th St",
          "types": [
            "route"
          ]
        },
        {
          "long_name": "Southern View",
          "short_name": "Southern View",
          "types": [
            "locality",
            "political"
          ]
        },
        {
          "long_name": "Woodside Township",
          "short_name": "Woodside Township",
          "types": [
            "administrative_area_level_3",
            "political"
          ]
        },
        {
          "long_name": "Sangamon County",
          "short_name": "Sangamon County",
          "types": [
            "administrative_area_level_2",
            "political"
          ]
        },
        {
          "long_name": "Illinois",
          "short_name": "IL",
          "types": [
            "administrative_area_level_1",
            "political"
          ]
        },
        {
          "long_name": "United States",
          "short_name": "US",
          "types": [
            "country",
            "political"
          ]
        },
        {
          "long_name": "62703",
          "short_name": "62703",
          "types": [
            "postal_code"
          ]
        },
        {
          "long_name": "4616",
          "short_name": "4616",
          "types": [
            "postal_code_suffix"
          ]
        }
      ],
      "formatted_address": "3235 S 4th St, Southern View, IL 62703, USA",
      "geometry": {
        "location": {
          "lat": 39.7562793,
          "lng": -89.65127509999999
        },
        "location_type": "ROOFTOP",
        "viewport": {
          "northeast": {
            "lat": 39.75762828029149,
            "lng": -89.6499261197085
          },
          "southwest": {
            "lat": 39.7549303197085,
            "lng": -89.6526240802915
          }
        }
      },
      "place_id": "ChIJGec_shc5dYgRzrUi4cxARBQ",
      "types": [
        "street_address"
      ]
    },
    {
      "address_components": [
        {
          "long_name": "Southern View",
          "short_name": "Southern View",
          "types": [
            "locality",
            "political"
          ]
        },
        {
          "long_name": "Woodside Township",
          "short_name": "Woodside Township",
          "types": [
            "administrative_area_level_3",
            "political"
          ]
        },
        {
          "long_name": "Sangamon County",
          "short_name": "Sangamon County",
          "types": [
            "administrative_area_level_2",
            "political"
          ]
        },
        {
          "long_name": "Illinois",
          "short_name": "IL",
          "types": [
            "administrative_area_level_1",
            "political"
          ]
        },
        {
          "long_name": "United States",
          "short_name": "US",
          "types": [
            "country",
            "political"
          ]
        },
        {
          "long_name": "62703",
          "short_name": "62703",
          "types": [
            "postal_code"
          ]
        }
      ],
      "formatted_address": "Southern View, IL 62703, USA",
      "geometry": {
        "bounds": {
          "northeast": {
            "lat": 39.7642379,
            "lng": -89.639809
          },
          "southwest": {
            "lat": 39.74995,
            "lng": -89.66130679999999
          }
        },
        "location": {
          "lat": 39.757273,
          "lng": -89.65370999999999
        },
        "location_type": "APPROXIMATE",
        "viewport": {
          "northeast": {
            "lat": 39.7642379,
            "lng": -89.639809
          },
          "southwest": {
            "lat": 39.74995,
            "lng": -89.66130679999999
          }
        }
      },
      "place_id": "ChIJ7_Mb9xY5dYgRq7ro78Fd8VI",
      "types": [
        "locality",
        "political"
      ]
    },
    {
      "address_components": [
        {
          "long_name": "62703",
          "short_name": "62703",
          "types": [
            "postal_code"
          ]
        },
        {
          "long_name": "Springfield",
          "short_name": "Springfield",
          "types": [
            "locality",
            "political"
          ]
        },
        {
          "long_name": "Sangamon County",
          "short_name": "Sangamon County",
          "types": [
            "administrative_area_level_2",
            "political"
          ]
        },
        {
          "long_name": "Illinois",
          "short_name": "IL",
          "types": [
            "administrative_area_level_1",
            "political"
          ]
        },
        {
          "long_name": "United States",
          "short_name": "US",
          "types": [
            "country",
            "political"
          ]
        }
      ],
      "formatted_address": "Springfield, IL 62703, USA",
      "geometry": {
        "bounds": {
          "northeast": {
            "lat": 39.806382,
            "lng": -89.5828489
          },
          "southwest": {
            "lat": 39.713344,
            "lng": -89.66783699999999
          }
        },
        "location": {
          "lat": 39.764682,
          "lng": -89.6345796
        },
        "location_type": "APPROXIMATE",
        "viewport": {
          "northeast": {
            "lat": 39.806382,
            "lng": -89.5828489
          },
          "southwest": {
            "lat": 39.713344,
            "lng": -89.66783699999999
          }
        }
      },
      "place_id": "ChIJabn1b2Y5dYgR5Xk71Q10Lss",
      "postcode_localities": [
        "Southern View",
        "Springfield"
      ],
      "types": [
        "postal_code"
      ]
    },
    {
      "address_components": [
        {
          "long_name": "Woodside Township",
          "short_name": "Woodside Township",
          "types": [
            "administrative_area_level_3",
            "political"
          ]
        },
        {
          "long_name": "Sangamon County",
          "short_name": "Sangamon County",
          "types": [
            "administrative_area_level_2",
            "political"
          ]
        },
        {
          "long_name": "Illinois",
          "short_name": "IL",
          "types": [
            "administrative_area_level_1",
            "political"
          ]
        },
        {
          "long_name": "United States",
          "short_name": "US",
          "types": [
            "country",
            "political"
          ]
        }
      ],
      "formatted_address": "Woodside Township, IL, USA",
      "geometry": {
        "bounds": {
          "northeast": {
            "lat": 39.78745,
            "lng": -89.59209589999999
          },
          "southwest": {
            "lat": 39.6983168,
            "lng": -89.706001
          }
        },
        "location": {
          "lat": 39.723568,
          "lng": -89.6722171
        },
        "location_type": "APPROXIMATE",
        "viewport": {
          "northeast": {
            "lat": 39.78745,
            "lng": -89.59209589999999
          },
          "southwest": {
            "lat": 39.6983168,
            "lng": -89.706001
          }
        }
      },
      "place_id": "ChIJt3nvFDA5dYgRmNbwXvAxpbs",
      "types": [
        "administrative_area_level_3",
        "political"
      ]
    },
    {
      "address_components": [
        {
          "long_name": "Sangamon County",
          "short_name": "Sangamon County",
          "types": [
            "administrative_area_level_2",
            "political"
          ]
        },
        {
          "long_name": "Illinois",
          "short_name": "IL",
          "types": [
            "administrative_area_level_1",
            "political"
          ]
        },
        {
          "long_name": "United States",
          "short_name": "US",
          "types": [
            "country",
            "political"
          ]
        }
      ],
      "formatted_address": "Sangamon County, IL, USA",
      "geometry": {
        "bounds": {
          "northeast": {
            "lat": 39.9767359,
            "lng": -89.2173739
          },
          "southwest": {
            "lat": 39.522052,
            "lng": -89.994524
          }
        },
        "location": {
          "lat": 39.7337353,
          "lng": -89.62516459999999
        },
        "location_type": "APPROXIMATE",
        "viewport": {
          "northeast": {
            "lat": 39.9767359,
            "lng": -89.2173739
          },
          "southwest": {
            "lat": 39.522052,
            "lng": -89.994524
          }
        }
      },
      "place_id": "ChIJjQBm7XBqdYgRe4_c2pUEMSQ",
      "types": [
        "administrative_area_level_2",
        "political"
      ]
    },
    {
      "address_components": [
        {
          "long_name": "Springfield",
          "short_name": "Springfield",
          "types": [
            "political"
          ]
        },
        {
          "long_name": "Illinois",
          "short_name": "IL",
          "types": [
            "administrative_area_level_1",
            "political"
          ]
        },
        {
          "long_name": "United States",
          "short_name": "US",
          "types": [
            "country",
            "political"
          ]
        }
      ],
      "formatted_address": "Springfield, IL, USA",
      "geometry": {
        "bounds": {
          "northeast": {
            "lat": 40.1606629,
            "lng": -89.2173739
          },
          "southwest": {
            "lat": 39.520502,
            "lng": -89.9950279
          }
        },
        "location": {
          "lat": 39.898831,
          "lng": -89.77553379999999
        },
        "location_type": "APPROXIMATE",
        "viewport": {
          "northeast": {
            "lat": 40.1606629,
            "lng": -89.2173739
          },
          "southwest": {
            "lat": 39.520502,
            "lng": -89.9950279
          }
        }
      },
      "place_id": "ChIJqR95n-M3dYgRcyivJOibk30",
      "types": [
        "political"
      ]
    },
    {
      "address_components": [
        {
          "long_name": "Illinois",
          "short_name": "IL",
          "types": [
            "administrative_area_level_1",
            "political"
          ]
        },
        {
          "long_name": "United States",
          "short_name": "US",
          "types": [
            "country",
            "political"
          ]
        }
      ],
      "formatted_address": "Illinois, USA",
      "geometry": {
        "bounds": {
          "northeast": {
            "lat": 42.5083379,
            "lng": -87.4951991
          },
          "southwest": {
            "lat": 36.970298,
            "lng": -91.5130789
          }
        },
        "location": {
          "lat": 40.6331249,
          "lng": -89.3985283
        },
        "location_type": "APPROXIMATE",
        "viewport": {
          "northeast": {
            "lat": 42.5083379,
            "lng": -87.4951991
          },
          "southwest": {
            "lat": 36.970298,
            "lng": -91.5130789
          }
        }
      },
      "place_id": "ChIJGSZubzgtC4gRVlkRZFCCFX8",
      "types": [
        "administrative_area_level_1",
        "political"
      ]
    },
    {
      "address_components": [
        {
          "long_name": "United States",
          "short_name": "US",
          "types": [
            "country",
            "political"
          ]
        }
      ],
      "formatted_address": "United States",
      "geometry": {
        "bounds": {
          "northeast": {
            "lat": 71.3867745,
            "lng": -66.9502861
          },
          "southwest": {
            "lat": 18.9106768,
            "lng": 172.4458955
          }
        },
        "location": {
          "lat": 37.09024,
          "lng": -95.712891
        },
        "location_type": "APPROXIMATE",
        "viewport": {
          "northeast": {
            "lat": 49.38,
            "lng": -66.94
          },
          "southwest": {
            "lat": 25.82,
            "lng": -124.39
          }
        }
      },
      "place_id": "ChIJCzYy5IS16lQRQrfeQ5K5Oxw",
      "types": [
        "country",
        "political"
      ]
    }
  ],
  "status": "OK"
}
