{
  "results": [
    {
      "address_components": [
        {
          "long_name": "57",
          "short_name": "57",
          "types": [
            "street_number"
          ]
        },
        {
          "long_name": "Rona Lane",
          "short_name": "Rona Ln",
          "types": [
            "route"
          ]
        },
        {
          "long_name": "Manahawkin",
          "short_name": "Manahawkin",
          "types": [
            "neighborhood",
            "political"
          ]
        },
        {
          "long_name": "Stafford Township",
          "short_name": "Stafford Township",
          "types": [
            "locality",
            "political"
          ]
        },
        {
          "long_name": "Ocean County",
          "short_name": "Ocean County",
          "types": [
            "administrative_area_level_2",
            "political"
          ]
        },
        {
          "long_name": "New Jersey",
          "short_name": "NJ",
          "types": [
            "administrative_area_level_1",
            "political"
          ]
        },
        {
          "long_name": "United States",
          "short_name": "US",
          "types": [
            "country",
            "political"
          ]
        },
        {
          "long_name": "08050",
          "short_name": "08050",
          "types": [
            "postal_code"
          ]
        },
        {
          "long_name": "3791",
          "short_name": "3791",
          "types": [
            "postal_code_suffix"
          ]
        }
      ],
      "formatted_address": "57 Rona Ln, Manahawkin, NJ 08050, USA",
      "geometry": {
        "location": {
          "lat": 39.6701849,
          "lng": -74.233769
        },
        "location_type": "ROOFTOP",
        "viewport": {
          "northeast": {
            "lat": 39.6715338802915,
            "lng": -74.23242001970848
          },
          "southwest": {
            "lat": 39.6688359197085,
            "lng": -74.2351179802915
          }
        }
      },
      "place_id": "ChIJXRUz8nYHwYkRQFqc3hBfFv8",
      "types": [
        "street_address"
      ]
    },
    {
      "address_components": [
        {
          "long_name": "Beach Haven West",
          "short_name": "Beach Haven West",
          "types": [
            "neighborhood",
            "political"
          ]
        },
        {
          "long_name": "Stafford Township",
          "short_name": "Stafford Township",
          "types": [
            "locality",
            "political"
          ]
        },
        {
          "long_name": "Ocean County",
          "short_name": "Ocean County",
          "types": [
            "administrative_area_level_2",
            "political"
          ]
        },
        {
          "long_name": "New Jersey",
          "short_name": "NJ",
          "types": [
            "administrative_area_level_1",
            "political"
          ]
        },
        {
          "long_name": "United States",
          "short_name": "US",
          "types": [
            "country",
            "political"
          ]
        }
      ],
      "formatted_address": "Beach Haven West, Stafford Township, NJ, USA",
      "geometry": {
        "bounds": {
          "northeast": {
            "lat": 39.6931421,
            "lng": -74.214085
          },
          "southwest": {
            "lat": 39.647107,
            "lng": -74.25896709999999
          }
        },
        "location": {
          "lat": 39.6698413,
          "lng": -74.2318071
        },
        "location_type": "APPROXIMATE",
        "viewport": {
          "northeast": {
            "lat": 39.6931421,
            "lng": -74.214085
          },
          "southwest": {
            "lat": 39.647107,
            "lng": -74.25896709999999
          }
        }
      },
      "place_id": "ChIJ546Q8HYHwYkRzABXnty6Iz8",
      "types": [
        "neighborhood",
        "political"
      ]
    },
    {
      "address_components": [
        {
          "long_name": "Stafford Township",
          "short_name": "Stafford Township",
          "types": [
            "locality",
            "political"
          ]
        },
        {
          "long_name": "Ocean County",
          "short_name": "Ocean County",
          "types": [
            "administrative_area_level_2",
            "political"
          ]
        },
        {
          "long_name": "New Jersey",
          "short_name": "NJ",
          "types": [
            "administrative_area_level_1",
            "political"
          ]
        },
        {
          "long_name": "United States",
          "short_name": "US",
          "types": [
            "country",
            "political"
          ]
        }
      ],
      "formatted_address": "Stafford Township, NJ, USA",
      "geometry": {
        "bounds": {
          "northeast": {
            "lat": 39.773047,
            "lng": -74.1599882
          },
          "southwest": {
            "lat": 39.6442834,
            "lng": -74.38965809999999
          }
        },
        "location": {
          "lat": 39.7046713,
          "lng": -74.26327839999999
        },
        "location_type": "APPROXIMATE",
        "viewport": {
          "northeast": {
            "lat": 39.773047,
            "lng": -74.1599882
          },
          "southwest": {
            "lat": 39.6442834,
            "lng": -74.38965809999999
          }
        }
      },
      "place_id": "ChIJ60owRzIGwYkRVm6wR89To-I",
      "types": [
        "locality",
        "political"
      ]
    },
    {
      "address_components": [
        {
          "long_name": "08050",
          "short_name": "08050",
          "types": [
            "postal_code"
          ]
        },
        {
          "long_name": "Manahawkin",
          "short_name": "Manahawkin",
          "types": [
            "neighborhood",
            "political"
          ]
        },
        {
          "long_name": "Ocean County",
          "short_name": "Ocean County",
          "types": [
            "administrative_area_level_2",
            "political"
          ]
        },
        {
          "long_name": "New Jersey",
          "short_name": "NJ",
          "types": [
            "administrative_area_level_1",
            "political"
          ]
        },
        {
          "long_name": "United States",
          "short_name": "US",
          "types": [
            "country",
            "political"
          ]
        }
      ],
      "formatted_address": "Manahawkin, NJ 08050, USA",
      "geometry": {
        "bounds": {
          "northeast": {
            "lat": 39.759311,
            "lng": -74.17635
          },
          "southwest": {
            "lat": 39.6453161,
            "lng": -74.3505481
          }
        },
        "location": {
          "lat": 39.7060622,
          "lng": -74.2531465
        },
        "location_type": "APPROXIMATE",
        "viewport": {
          "northeast": {
            "lat": 39.759311,
            "lng": -74.17635
          },
          "southwest": {
            "lat": 39.6453161,
            "lng": -74.3505481
          }
        }
      },
      "place_id": "ChIJR6bjOsQHwYkR98DfAnFJTTc",
      "types": [
        "postal_code"
      ]
    },
    {
      "address_components": [
        {
          "long_name": "Ocean County",
          "short_name": "Ocean County",
          "types": [
            "administrative_area_level_2",
            "political"
          ]
        },
        {
          "long_name": "New Jersey",
          "short_name": "NJ",
          "types": [
            "administrative_area_level_1",
            "political"
          ]
        },
        {
          "long_name": "United States",
          "short_name": "US",
          "types": [
            "country",
            "political"
          ]
        }
      ],
      "formatted_address": "Ocean County, NJ, USA",
      "geometry": {
        "bounds": {
          "northeast": {
            "lat": 40.17235489999999,
            "lng": -74.0300122
          },
          "southwest": {
            "lat": 39.5071756,
            "lng": -74.5531051
          }
        },
        "location": {
          "lat": 39.9652553,
          "lng": -74.3118212
        },
        "location_type": "APPROXIMATE",
        "viewport": {
          "northeast": {
            "lat": 40.17235489999999,
            "lng": -74.0300122
          },
          "southwest": {
            "lat": 39.5071756,
            "lng": -74.5531051
          }
        }
      },
      "place_id": "ChIJh7ZJcChswYkRWgFmCdLUJYw",
      "types": [
        "administrative_area_level_2",
        "political"
      ]
    },
    {
      "address_components": [
        {
          "long_name": "New Jersey",
          "short_name": "NJ",
          "types": [
            "administrative_area_level_1",
            "political"
          ]
        },
        {
          "long_name": "United States",
          "short_name": "US",
          "types": [
            "country",
            "political"
          ]
        }
      ],
      "formatted_address": "New Jersey, USA",
      "geometry": {
        "bounds": {
          "northeast": {
            "lat": 41.357423,
            "lng": -73.9024391
          },
          "southwest": {
            "lat": 38.9285589,
            "lng": -75.5597921
          }
        },
        "location": {
          "lat": 40.0583238,
          "lng": -74.4056612
        },
        "location_type": "APPROXIMATE",
        "viewport": {
          "northeast": {
            "lat": 41.357423,
            "lng": -73.9024391
          },
          "southwest": {
            "lat": 38.9286032,
            "lng": -75.5597921
          }
        }
      },
      "place_id": "ChIJn0AAnpX7wIkRjW0_-Ad70iw",
      "types": [
        "administrative_area_level_1",
        "political"
      ]
    },
    {
      "address_components": [
        {
          "long_name": "United States",
          "short_name": "US",
          "types": [
            "country",
            "political"
          ]
        }
      ],
      "formatted_address": "United States",
      "geometry": {
        "bounds": {
          "northeast": {
            "lat": 71.3867745,
            "lng": -66.9502861
          },
          "southwest": {
            "lat": 18.9106768,
            "lng": 172.4458955
          }
        },
        "location": {
          "lat": 37.09024,
          "lng": -95.712891
        },
        "location_type": "APPROXIMATE",
        "viewport": {
          "northeast": {
            "lat": 49.38,
            "lng": -66.94
          },
          "southwest": {
            "lat": 25.82,
            "lng": -124.39
          }
        }
      },
      "place_id": "ChIJCzYy5IS16lQRQrfeQ5K5Oxw",
      "types": [
        "country",
        "political"
      ]
    }
  ],
  "status": "OK"
}
