{
  "results": [
    {
      "address_components": [
        {
          "long_name": "104",
          "short_name": "104",
          "types": [
            "street_number"
          ]
        },
        {
          "long_name": "Po Box",
          "short_name": "Po Box",
          "types": [
            "route"
          ]
        },
        {
          "long_name": "Huey",
          "short_name": "Huey",
          "types": [
            "locality",
            "political"
          ]
        },
        {
          "long_name": "Clement Township",
          "short_name": "Clement Township",
          "types": [
            "administrative_area_level_3",
            "political"
          ]
        },
        {
          "long_name": "Clinton County",
          "short_name": "Clinton County",
          "types": [
            "administrative_area_level_2",
            "political"
          ]
        },
        {
          "long_name": "Illinois",
          "short_name": "IL",
          "types": [
            "administrative_area_level_1",
            "political"
          ]
        },
        {
          "long_name": "United States",
          "short_name": "US",
          "types": [
            "country",
            "political"
          ]
        },
        {
          "long_name": "62252",
          "short_name": "62252",
          "types": [
            "postal_code"
          ]
        }
      ],
      "formatted_address": "104 Po Box, Huey, IL 62252, USA",
      "geometry": {
        "location": {
          "lat": 38.60531599999999,
          "lng": -89.2897713
        },
        "location_type": "ROOFTOP",
        "viewport": {
          "northeast": {
            "lat": 38.60666498029149,
            "lng": -89.28842231970849
          },
          "southwest": {
            "lat": 38.60396701970849,
            "lng": -89.29112028029151
          }
        }
      },
      "place_id": "ChIJrYN6cayDdogR-BTcV-LvuA8",
      "types": [
        "street_address"
      ]
    },
    {
      "address_components": [
        {
          "long_name": "Huey",
          "short_name": "Huey",
          "types": [
            "locality",
            "political"
          ]
        },
        {
          "long_name": "Clement Township",
          "short_name": "Clement Township",
          "types": [
            "administrative_area_level_3",
            "political"
          ]
        },
        {
          "long_name": "Clinton County",
          "short_name": "Clinton County",
          "types": [
            "administrative_area_level_2",
            "political"
          ]
        },
        {
          "long_name": "Illinois",
          "short_name": "IL",
          "types": [
            "administrative_area_level_1",
            "political"
          ]
        },
        {
          "long_name": "United States",
          "short_name": "US",
          "types": [
            "country",
            "political"
          ]
        }
      ],
      "formatted_address": "Huey, IL, USA",
      "geometry": {
        "bounds": {
          "northeast": {
            "lat": 38.6077281,
            "lng": -89.286247
          },
          "southwest": {
            "lat": 38.6017561,
            "lng": -89.295512
          }
        },
        "location": {
          "lat": 38.6044931,
          "lng": -89.2911874
        },
        "location_type": "APPROXIMATE",
        "viewport": {
          "northeast": {
            "lat": 38.6077281,
            "lng": -89.286247
          },
          "southwest": {
            "lat": 38.6017561,
            "lng": -89.295512
          }
        }
      },
      "place_id": "ChIJ3c2YOayDdogR9itjUSHPLw8",
      "types": [
        "locality",
        "political"
      ]
    },
    {
      "address_components": [
        {
          "long_name": "Clement Township",
          "short_name": "Clement Township",
          "types": [
            "administrative_area_level_3",
            "political"
          ]
        },
        {
          "long_name": "Clinton County",
          "short_name": "Clinton County",
          "types": [
            "administrative_area_level_2",
            "political"
          ]
        },
        {
          "long_name": "Illinois",
          "short_name": "IL",
          "types": [
            "administrative_area_level_1",
            "political"
          ]
        },
        {
          "long_name": "United States",
          "short_name": "US",
          "types": [
            "country",
            "political"
          ]
        }
      ],
      "formatted_address": "Clement Township, IL, USA",
      "geometry": {
        "bounds": {
          "northeast": {
            "lat": 38.6694679,
            "lng": -89.253226
          },
          "southwest": {
            "lat": 38.5663829,
            "lng": -89.328403
          }
        },
        "location": {
          "lat": 38.6299452,
          "lng": -89.3037147
        },
        "location_type": "APPROXIMATE",
        "viewport": {
          "northeast": {
            "lat": 38.6694679,
            "lng": -89.253226
          },
          "southwest": {
            "lat": 38.5663829,
            "lng": -89.328403
          }
        }
      },
      "place_id": "ChIJa-dzIt2CdogRSLNz8EhjoZM",
      "types": [
        "administrative_area_level_3",
        "political"
      ]
    },
    {
      "address_components": [
        {
          "long_name": "62231",
          "short_name": "62231",
          "types": [
            "postal_code"
          ]
        },
        {
          "long_name": "Carlyle",
          "short_name": "Carlyle",
          "types": [
            "locality",
            "political"
          ]
        },
        {
          "long_name": "Illinois",
          "short_name": "IL",
          "types": [
            "administrative_area_level_1",
            "political"
          ]
        },
        {
          "long_name": "United States",
          "short_name": "US",
          "types": [
            "country",
            "political"
          ]
        }
      ],
      "formatted_address": "Carlyle, IL 62231, USA",
      "geometry": {
        "bounds": {
          "northeast": {
            "lat": 38.8009038,
            "lng": -89.138443
          },
          "southwest": {
            "lat": 38.4782749,
            "lng": -89.50925579999999
          }
        },
        "location": {
          "lat": 38.6092868,
          "lng": -89.3606298
        },
        "location_type": "APPROXIMATE",
        "viewport": {
          "northeast": {
            "lat": 38.8009038,
            "lng": -89.138443
          },
          "southwest": {
            "lat": 38.4782749,
            "lng": -89.50925579999999
          }
        }
      },
      "place_id": "ChIJh8AfuTuAdogRblFLI1OGbKI",
      "postcode_localities": [
        "Carlyle",
        "Shattuc"
      ],
      "types": [
        "postal_code"
      ]
    },
    {
      "address_components": [
        {
          "long_name": "Clinton County",
          "short_name": "Clinton County",
          "types": [
            "administrative_area_level_2",
            "political"
          ]
        },
        {
          "long_name": "Illinois",
          "short_name": "IL",
          "types": [
            "administrative_area_level_1",
            "political"
          ]
        },
        {
          "long_name": "United States",
          "short_name": "US",
          "types": [
            "country",
            "political"
          ]
        }
      ],
      "formatted_address": "Clinton County, IL, USA",
      "geometry": {
        "bounds": {
          "northeast": {
            "lat": 38.7432389,
            "lng": -89.1383649
          },
          "southwest": {
            "lat": 38.4141539,
            "lng": -89.7070349
          }
        },
        "location": {
          "lat": 38.56844419999999,
          "lng": -89.62516459999999
        },
        "location_type": "APPROXIMATE",
        "viewport": {
          "northeast": {
            "lat": 38.7432389,
            "lng": -89.1383649
          },
          "southwest": {
            "lat": 38.4141539,
            "lng": -89.7070349
          }
        }
      },
      "place_id": "ChIJT1oudq93dogRCuZmt4SST9Y",
      "types": [
        "administrative_area_level_2",
        "political"
      ]
    },
    {
      "address_components": [
        {
          "long_name": "St. Louis",
          "short_name": "St. Louis",
          "types": [
            "political"
          ]
        },
        {
          "long_name": "United States",
          "short_name": "US",
          "types": [
            "country",
            "political"
          ]
        }
      ],
      "formatted_address": "St. Louis, USA",
      "geometry": {
        "bounds": {
          "northeast": {
            "lat": 39.5233661,
            "lng": -89.138356
          },
          "southwest": {
            "lat": 37.7341961,
            "lng": -91.4186371
          }
        },
        "location": {
          "lat": 38.8196814,
          "lng": -90.4502368
        },
        "location_type": "APPROXIMATE",
        "viewport": {
          "northeast": {
            "lat": 39.5233661,
            "lng": -89.138356
          },
          "southwest": {
            "lat": 37.7341961,
            "lng": -91.4186371
          }
        }
      },
      "place_id": "ChIJneBzzj4z34cRFGg2ez6q57o",
      "types": [
        "political"
      ]
    },
    {
      "address_components": [
        {
          "long_name": "Illinois",
          "short_name": "IL",
          "types": [
            "administrative_area_level_1",
            "political"
          ]
        },
        {
          "long_name": "United States",
          "short_name": "US",
          "types": [
            "country",
            "political"
          ]
        }
      ],
      "formatted_address": "Illinois, USA",
      "geometry": {
        "bounds": {
          "northeast": {
            "lat": 42.5083379,
            "lng": -87.4951991
          },
          "southwest": {
            "lat": 36.970298,
            "lng": -91.5130789
          }
        },
        "location": {
          "lat": 40.6331249,
          "lng": -89.3985283
        },
        "location_type": "APPROXIMATE",
        "viewport": {
          "northeast": {
            "lat": 42.5083379,
            "lng": -87.4951991
          },
          "southwest": {
            "lat": 36.970298,
            "lng": -91.5130789
          }
        }
      },
      "place_id": "ChIJGSZubzgtC4gRVlkRZFCCFX8",
      "types": [
        "administrative_area_level_1",
        "political"
      ]
    },
    {
      "address_components": [
        {
          "long_name": "United States",
          "short_name": "US",
          "types": [
            "country",
            "political"
          ]
        }
      ],
      "formatted_address": "United States",
      "geometry": {
        "bounds": {
          "northeast": {
            "lat": 71.3867745,
            "lng": -66.9502861
          },
          "southwest": {
            "lat": 18.9106768,
            "lng": 172.4458955
          }
        },
        "location": {
          "lat": 37.09024,
          "lng": -95.712891
        },
        "location_type": "APPROXIMATE",
        "viewport": {
          "northeast": {
            "lat": 49.38,
            "lng": -66.94
          },
          "southwest": {
            "lat": 25.82,
            "lng": -124.39
          }
        }
      },
      "place_id": "ChIJCzYy5IS16lQRQrfeQ5K5Oxw",
      "types": [
        "country",
        "political"
      ]
    }
  ],
  "status": "OK"
}
