{
  "results": [
    {
      "address_components": [
        {
          "long_name": "1002",
          "short_name": "1002",
          "types": [
            "street_number"
          ]
        },
        {
          "long_name": "Milwaukee Street",
          "short_name": "Milwaukee St",
          "types": [
            "route"
          ]
        },
        {
          "long_name": "Rockland",
          "short_name": "Rockland",
          "types": [
            "administrative_area_level_3",
            "political"
          ]
        },
        {
          "long_name": "Manitowoc County",
          "short_name": "Manitowoc County",
          "types": [
            "administrative_area_level_2",
            "political"
          ]
        },
        {
          "long_name": "Wisconsin",
          "short_name": "WI",
          "types": [
            "administrative_area_level_1",
            "political"
          ]
        },
        {
          "long_name": "United States",
          "short_name": "US",
          "types": [
            "country",
            "political"
          ]
        },
        {
          "long_name": "54216",
          "short_name": "54216",
          "types": [
            "postal_code"
          ]
        }
      ],
      "formatted_address": "1002 Milwaukee St, Rockland, WI 54216, USA",
      "geometry": {
        "bounds": {
          "northeast": {
            "lat": 44.0844232,
            "lng": -87.9824498
          },
          "southwest": {
            "lat": 44.0784967,
            "lng": -87.98248919999999
          }
        },
        "location": {
          "lat": 44.0826621,
          "lng": -87.9824963
        },
        "location_type": "RANGE_INTERPOLATED",
        "viewport": {
          "northeast": {
            "lat": 44.0844232,
            "lng": -87.98112051970848
          },
          "southwest": {
            "lat": 44.0784967,
            "lng": -87.9838184802915
          }
        }
      },
      "place_id": "EioxMDAyIE1pbHdhdWtlZSBTdCwgUm9ja2xhbmQsIFdJIDU0MjE2LCBVU0E",
      "types": [
        "street_address"
      ]
    },
    {
      "address_components": [
        {
          "long_name": "54207",
          "short_name": "54207",
          "types": [
            "postal_code"
          ]
        },
        {
          "long_name": "Collins",
          "short_name": "Collins",
          "types": [
            "locality",
            "political"
          ]
        },
        {
          "long_name": "Rockland",
          "short_name": "Rockland",
          "types": [
            "administrative_area_level_3",
            "political"
          ]
        },
        {
          "long_name": "Manitowoc County",
          "short_name": "Manitowoc County",
          "types": [
            "administrative_area_level_2",
            "political"
          ]
        },
        {
          "long_name": "Wisconsin",
          "short_name": "WI",
          "types": [
            "administrative_area_level_1",
            "political"
          ]
        },
        {
          "long_name": "United States",
          "short_name": "US",
          "types": [
            "country",
            "political"
          ]
        }
      ],
      "formatted_address": "Collins, WI 54207, USA",
      "geometry": {
        "bounds": {
          "northeast": {
            "lat": 44.0867689,
            "lng": -87.9768869
          },
          "southwest": {
            "lat": 44.0734179,
            "lng": -87.98983299999999
          }
        },
        "location": {
          "lat": 44.0794428,
          "lng": -87.9812516
        },
        "location_type": "APPROXIMATE",
        "viewport": {
          "northeast": {
            "lat": 44.0867689,
            "lng": -87.9768869
          },
          "southwest": {
            "lat": 44.0734179,
            "lng": -87.98983299999999
          }
        }
      },
      "place_id": "ChIJE-i61cYSA4gRV3QY-pFKk7U",
      "types": [
        "postal_code"
      ]
    },
    {
      "address_components": [
        {
          "long_name": "Rockland",
          "short_name": "Rockland",
          "types": [
            "administrative_area_level_3",
            "political"
          ]
        },
        {
          "long_name": "Manitowoc County",
          "short_name": "Manitowoc County",
          "types": [
            "administrative_area_level_2",
            "political"
          ]
        },
        {
          "long_name": "Wisconsin",
          "short_name": "WI",
          "types": [
            "administrative_area_level_1",
            "political"
          ]
        },
        {
          "long_name": "United States",
          "short_name": "US",
          "types": [
            "country",
            "political"
          ]
        }
      ],
      "formatted_address": "Rockland, WI, USA",
      "geometry": {
        "bounds": {
          "northeast": {
            "lat": 44.15435799999999,
            "lng": -87.922349
          },
          "southwest": {
            "lat": 44.066057,
            "lng": -88.043656
          }
        },
        "location": {
          "lat": 44.0974578,
          "lng": -87.9922684
        },
        "location_type": "APPROXIMATE",
        "viewport": {
          "northeast": {
            "lat": 44.15435799999999,
            "lng": -87.922349
          },
          "southwest": {
            "lat": 44.066057,
            "lng": -88.043656
          }
        }
      },
      "place_id": "ChIJASG1mfASA4gRXbbWfKCJxuI",
      "types": [
        "administrative_area_level_3",
        "political"
      ]
    },
    {
      "address_components": [
        {
          "long_name": "Manitowoc",
          "short_name": "Manitowoc",
          "types": [
            "political"
          ]
        },
        {
          "long_name": "Wisconsin",
          "short_name": "WI",
          "types": [
            "administrative_area_level_1",
            "political"
          ]
        },
        {
          "long_name": "United States",
          "short_name": "US",
          "types": [
            "country",
            "political"
          ]
        }
      ],
      "formatted_address": "Manitowoc, WI, USA",
      "geometry": {
        "bounds": {
          "northeast": {
            "lat": 44.327637,
            "lng": -87.50741909999999
          },
          "southwest": {
            "lat": 43.8916079,
            "lng": -88.043823
          }
        },
        "location": {
          "lat": 44.1504551,
          "lng": -87.77633329999999
        },
        "location_type": "APPROXIMATE",
        "viewport": {
          "northeast": {
            "lat": 44.327637,
            "lng": -87.50741909999999
          },
          "southwest": {
            "lat": 43.8916079,
            "lng": -88.043823
          }
        }
      },
      "place_id": "ChIJhUEryfs-A4gRRu1bugSFvdE",
      "types": [
        "political"
      ]
    },
    {
      "address_components": [
        {
          "long_name": "Manitowoc County",
          "short_name": "Manitowoc County",
          "types": [
            "administrative_area_level_2",
            "political"
          ]
        },
        {
          "long_name": "Wisconsin",
          "short_name": "WI",
          "types": [
            "administrative_area_level_1",
            "political"
          ]
        },
        {
          "long_name": "United States",
          "short_name": "US",
          "types": [
            "country",
            "political"
          ]
        }
      ],
      "formatted_address": "Manitowoc County, WI, USA",
      "geometry": {
        "bounds": {
          "northeast": {
            "lat": 44.327591,
            "lng": -87.50669359999999
          },
          "southwest": {
            "lat": 43.8915849,
            "lng": -88.04378
          }
        },
        "location": {
          "lat": 44.109588,
          "lng": -87.7752368
        },
        "location_type": "APPROXIMATE",
        "viewport": {
          "northeast": {
            "lat": 44.327591,
            "lng": -87.50669359999999
          },
          "southwest": {
            "lat": 43.8915849,
            "lng": -88.04378
          }
        }
      },
      "place_id": "ChIJ4ZF3i0fPHIgRCaIHeDUBIRU",
      "types": [
        "administrative_area_level_2",
        "political"
      ]
    },
    {
      "address_components": [
        {
          "long_name": "Wisconsin",
          "short_name": "WI",
          "types": [
            "administrative_area_level_1",
            "political"
          ]
        },
        {
          "long_name": "United States",
          "short_name": "US",
          "types": [
            "country",
            "political"
          ]
        }
      ],
      "formatted_address": "Wisconsin, USA",
      "geometry": {
        "bounds": {
          "northeast": {
            "lat": 47.0807296,
            "lng": -86.7639767
          },
          "southwest": {
            "lat": 42.491864,
            "lng": -92.88943309999999
          }
        },
        "location": {
          "lat": 43.7844397,
          "lng": -88.7878678
        },
        "location_type": "APPROXIMATE",
        "viewport": {
          "northeast": {
            "lat": 47.0807296,
            "lng": -86.7639767
          },
          "southwest": {
            "lat": 42.491864,
            "lng": -92.88943309999999
          }
        }
      },
      "place_id": "ChIJr-OEkw_0qFIR1kmG-LjV1fI",
      "types": [
        "administrative_area_level_1",
        "political"
      ]
    },
    {
      "address_components": [
        {
          "long_name": "United States",
          "short_name": "US",
          "types": [
            "country",
            "political"
          ]
        }
      ],
      "formatted_address": "United States",
      "geometry": {
        "bounds": {
          "northeast": {
            "lat": 71.3867745,
            "lng": -66.9502861
          },
          "southwest": {
            "lat": 18.9106768,
            "lng": 172.4458955
          }
        },
        "location": {
          "lat": 37.09024,
          "lng": -95.712891
        },
        "location_type": "APPROXIMATE",
        "viewport": {
          "northeast": {
            "lat": 49.38,
            "lng": -66.94
          },
          "southwest": {
            "lat": 25.82,
            "lng": -124.39
          }
        }
      },
      "place_id": "ChIJCzYy5IS16lQRQrfeQ5K5Oxw",
      "types": [
        "country",
        "political"
      ]
    }
  ],
  "status": "OK"
}
