{
  "results": [
    {
      "address_components": [
        {
          "long_name": "212-214",
          "short_name": "212-214",
          "types": [
            "street_number"
          ]
        },
        {
          "long_name": "Mc Kinley Avenue",
          "short_name": "Mc Kinley Ave",
          "types": [
            "route"
          ]
        },
        {
          "long_name": "Robinson",
          "short_name": "Robinson",
          "types": [
            "locality",
            "political"
          ]
        },
        {
          "long_name": "West Wheatfield Township",
          "short_name": "West Wheatfield Township",
          "types": [
            "administrative_area_level_3",
            "political"
          ]
        },
        {
          "long_name": "Indiana County",
          "short_name": "Indiana County",
          "types": [
            "administrative_area_level_2",
            "political"
          ]
        },
        {
          "long_name": "Pennsylvania",
          "short_name": "PA",
          "types": [
            "administrative_area_level_1",
            "political"
          ]
        },
        {
          "long_name": "United States",
          "short_name": "US",
          "types": [
            "country",
            "political"
          ]
        },
        {
          "long_name": "15949",
          "short_name": "15949",
          "types": [
            "postal_code"
          ]
        }
      ],
      "formatted_address": "212-214 Mc Kinley Ave, Robinson, PA 15949, USA",
      "geometry": {
        "bounds": {
          "northeast": {
            "lat": 40.4049439,
            "lng": -79.13848899999999
          },
          "southwest": {
            "lat": 40.4041176,
            "lng": -79.1387419
          }
        },
        "location": {
          "lat": 40.4048864,
          "lng": -79.1384873
        },
        "location_type": "RANGE_INTERPOLATED",
        "viewport": {
          "northeast": {
            "lat": 40.4058797302915,
            "lng": -79.13726646970849
          },
          "southwest": {
            "lat": 40.4031817697085,
            "lng": -79.1399644302915
          }
        }
      },
      "place_id": "Ei4yMTItMjE0IE1jIEtpbmxleSBBdmUsIFJvYmluc29uLCBQQSAxNTk0OSwgVVNB",
      "types": [
        "street_address"
      ]
    },
    {
      "address_components": [
        {
          "long_name": "Robinson",
          "short_name": "Robinson",
          "types": [
            "locality",
            "political"
          ]
        },
        {
          "long_name": "West Wheatfield Township",
          "short_name": "West Wheatfield Township",
          "types": [
            "administrative_area_level_3",
            "political"
          ]
        },
        {
          "long_name": "Indiana County",
          "short_name": "Indiana County",
          "types": [
            "administrative_area_level_2",
            "political"
          ]
        },
        {
          "long_name": "Pennsylvania",
          "short_name": "PA",
          "types": [
            "administrative_area_level_1",
            "political"
          ]
        },
        {
          "long_name": "United States",
          "short_name": "US",
          "types": [
            "country",
            "political"
          ]
        }
      ],
      "formatted_address": "Robinson, PA, USA",
      "geometry": {
        "bounds": {
          "northeast": {
            "lat": 40.4184939,
            "lng": -79.12418009999999
          },
          "southwest": {
            "lat": 40.3973529,
            "lng": -79.15400199999999
          }
        },
        "location": {
          "lat": 40.4016794,
          "lng": -79.13974979999999
        },
        "location_type": "APPROXIMATE",
        "viewport": {
          "northeast": {
            "lat": 40.4184939,
            "lng": -79.12418009999999
          },
          "southwest": {
            "lat": 40.3973529,
            "lng": -79.15400199999999
          }
        }
      },
      "place_id": "ChIJGebDPuI4y4kRzBOTjW7BS0U",
      "types": [
        "locality",
        "political"
      ]
    },
    {
      "address_components": [
        {
          "long_name": "15949",
          "short_name": "15949",
          "types": [
            "postal_code"
          ]
        },
        {
          "long_name": "Robinson",
          "short_name": "Robinson",
          "types": [
            "locality",
            "political"
          ]
        },
        {
          "long_name": "Pennsylvania",
          "short_name": "PA",
          "types": [
            "administrative_area_level_1",
            "political"
          ]
        },
        {
          "long_name": "United States",
          "short_name": "US",
          "types": [
            "country",
            "political"
          ]
        }
      ],
      "formatted_address": "Robinson, PA 15949, USA",
      "geometry": {
        "bounds": {
          "northeast": {
            "lat": 40.416697,
            "lng": -79.11742400000001
          },
          "southwest": {
            "lat": 40.3969639,
            "lng": -79.15400199999999
          }
        },
        "location": {
          "lat": 40.4040493,
          "lng": -79.1407421
        },
        "location_type": "APPROXIMATE",
        "viewport": {
          "northeast": {
            "lat": 40.416697,
            "lng": -79.11742400000001
          },
          "southwest": {
            "lat": 40.3969639,
            "lng": -79.15400199999999
          }
        }
      },
      "place_id": "ChIJP3aFit84y4kRlCzud-2oosA",
      "types": [
        "postal_code"
      ]
    },
    {
      "address_components": [
        {
          "long_name": "West Wheatfield Township",
          "short_name": "West Wheatfield Township",
          "types": [
            "administrative_area_level_3",
            "political"
          ]
        },
        {
          "long_name": "Indiana County",
          "short_name": "Indiana County",
          "types": [
            "administrative_area_level_2",
            "political"
          ]
        },
        {
          "long_name": "Pennsylvania",
          "short_name": "PA",
          "types": [
            "administrative_area_level_1",
            "political"
          ]
        },
        {
          "long_name": "United States",
          "short_name": "US",
          "types": [
            "country",
            "political"
          ]
        }
      ],
      "formatted_address": "West Wheatfield Township, PA, USA",
      "geometry": {
        "bounds": {
          "northeast": {
            "lat": 40.48743,
            "lng": -79.0486009
          },
          "southwest": {
            "lat": 40.3687169,
            "lng": -79.161858
          }
        },
        "location": {
          "lat": 40.4216248,
          "lng": -79.08710049999999
        },
        "location_type": "APPROXIMATE",
        "viewport": {
          "northeast": {
            "lat": 40.48743,
            "lng": -79.0486009
          },
          "southwest": {
            "lat": 40.3687169,
            "lng": -79.161858
          }
        }
      },
      "place_id": "ChIJe9GW-Us_y4kRAZ0vVRyoj08",
      "types": [
        "administrative_area_level_3",
        "political"
      ]
    },
    {
      "address_components": [
        {
          "long_name": "Indiana",
          "short_name": "Indiana",
          "types": [
            "political"
          ]
        },
        {
          "long_name": "Pennsylvania",
          "short_name": "PA",
          "types": [
            "administrative_area_level_1",
            "political"
          ]
        },
        {
          "long_name": "United States",
          "short_name": "US",
          "types": [
            "country",
            "political"
          ]
        }
      ],
      "formatted_address": "Indiana, PA, USA",
      "geometry": {
        "bounds": {
          "northeast": {
            "lat": 40.91134599999999,
            "lng": -78.79899
          },
          "southwest": {
            "lat": 40.368868,
            "lng": -79.45989999999999
          }
        },
        "location": {
          "lat": 40.6850762,
          "lng": -79.1096901
        },
        "location_type": "APPROXIMATE",
        "viewport": {
          "northeast": {
            "lat": 40.91134599999999,
            "lng": -78.79899
          },
          "southwest": {
            "lat": 40.368868,
            "lng": -79.45989999999999
          }
        }
      },
      "place_id": "ChIJq2dx8mdcy4kRqYBAsUf1SHw",
      "types": [
        "political"
      ]
    },
    {
      "address_components": [
        {
          "long_name": "Indiana County",
          "short_name": "Indiana County",
          "types": [
            "administrative_area_level_2",
            "political"
          ]
        },
        {
          "long_name": "Pennsylvania",
          "short_name": "PA",
          "types": [
            "administrative_area_level_1",
            "political"
          ]
        },
        {
          "long_name": "United States",
          "short_name": "US",
          "types": [
            "country",
            "political"
          ]
        }
      ],
      "formatted_address": "Indiana County, PA, USA",
      "geometry": {
        "bounds": {
          "northeast": {
            "lat": 40.91134599999999,
            "lng": -78.79899
          },
          "southwest": {
            "lat": 40.3687169,
            "lng": -79.45989999999999
          }
        },
        "location": {
          "lat": 40.6850762,
          "lng": -79.1096901
        },
        "location_type": "APPROXIMATE",
        "viewport": {
          "northeast": {
            "lat": 40.91134599999999,
            "lng": -78.79899
          },
          "southwest": {
            "lat": 40.3687169,
            "lng": -79.45989999999999
          }
        }
      },
      "place_id": "ChIJVQHtdMRBy4kRWBdHCi1ccYc",
      "types": [
        "administrative_area_level_2",
        "political"
      ]
    },
    {
      "address_components": [
        {
          "long_name": "Pennsylvania",
          "short_name": "PA",
          "types": [
            "administrative_area_level_1",
            "political"
          ]
        },
        {
          "long_name": "United States",
          "short_name": "US",
          "types": [
            "country",
            "political"
          ]
        }
      ],
      "formatted_address": "Pennsylvania, USA",
      "geometry": {
        "bounds": {
          "northeast": {
            "lat": 42.2693866,
            "lng": -74.6895018
          },
          "southwest": {
            "lat": 39.7197989,
            "lng": -80.51989499999999
          }
        },
        "location": {
          "lat": 41.2033216,
          "lng": -77.1945247
        },
        "location_type": "APPROXIMATE",
        "viewport": {
          "northeast": {
            "lat": 42.2693866,
            "lng": -74.6895018
          },
          "southwest": {
            "lat": 39.7197989,
            "lng": -80.51989499999999
          }
        }
      },
      "place_id": "ChIJieUyHiaALYgRPbQiUEchRsI",
      "types": [
        "administrative_area_level_1",
        "political"
      ]
    },
    {
      "address_components": [
        {
          "long_name": "United States",
          "short_name": "US",
          "types": [
            "country",
            "political"
          ]
        }
      ],
      "formatted_address": "United States",
      "geometry": {
        "bounds": {
          "northeast": {
            "lat": 71.3867745,
            "lng": -66.9502861
          },
          "southwest": {
            "lat": 18.9106768,
            "lng": 172.4458955
          }
        },
        "location": {
          "lat": 37.09024,
          "lng": -95.712891
        },
        "location_type": "APPROXIMATE",
        "viewport": {
          "northeast": {
            "lat": 49.38,
            "lng": -66.94
          },
          "southwest": {
            "lat": 25.82,
            "lng": -124.39
          }
        }
      },
      "place_id": "ChIJCzYy5IS16lQRQrfeQ5K5Oxw",
      "types": [
        "country",
        "political"
      ]
    }
  ],
  "status": "OK"
}
