{
  "results": [
    {
      "address_components": [
        {
          "long_name": "U.S. 18",
          "short_name": "US-18",
          "types": [
            "route"
          ]
        },
        {
          "long_name": "Mission",
          "short_name": "Mission",
          "types": [
            "locality",
            "political"
          ]
        },
        {
          "long_name": "West Todd",
          "short_name": "West Todd",
          "types": [
            "administrative_area_level_3",
            "political"
          ]
        },
        {
          "long_name": "Todd County",
          "short_name": "Todd County",
          "types": [
            "administrative_area_level_2",
            "political"
          ]
        },
        {
          "long_name": "South Dakota",
          "short_name": "SD",
          "types": [
            "administrative_area_level_1",
            "political"
          ]
        },
        {
          "long_name": "United States",
          "short_name": "US",
          "types": [
            "country",
            "political"
          ]
        },
        {
          "long_name": "57555",
          "short_name": "57555",
          "types": [
            "postal_code"
          ]
        }
      ],
      "formatted_address": "US-18, Mission, SD 57555, USA",
      "geometry": {
        "bounds": {
          "northeast": {
            "lat": 43.3244505,
            "lng": -100.8850408
          },
          "southwest": {
            "lat": 43.3233542,
            "lng": -100.8886269
          }
        },
        "location": {
          "lat": 43.3239024,
          "lng": -100.8868339
        },
        "location_type": "GEOMETRIC_CENTER",
        "viewport": {
          "northeast": {
            "lat": 43.32525133029149,
            "lng": -100.8850408
          },
          "southwest": {
            "lat": 43.3225533697085,
            "lng": -100.8886269
          }
        }
      },
      "place_id": "ChIJcVB6KHRMf4cR4R8qD-sfBa0",
      "types": [
        "route"
      ]
    },
    {
      "address_components": [
        {
          "long_name": "57555",
          "short_name": "57555",
          "types": [
            "postal_code"
          ]
        },
        {
          "long_name": "Mission",
          "short_name": "Mission",
          "types": [
            "locality",
            "political"
          ]
        },
        {
          "long_name": "South Dakota",
          "short_name": "SD",
          "types": [
            "administrative_area_level_1",
            "political"
          ]
        },
        {
          "long_name": "United States",
          "short_name": "US",
          "types": [
            "country",
            "political"
          ]
        }
      ],
      "formatted_address": "Mission, SD 57555, USA",
      "geometry": {
        "bounds": {
          "northeast": {
            "lat": 43.3954929,
            "lng": -100.2485331
          },
          "southwest": {
            "lat": 42.99810189999999,
            "lng": -100.932911
          }
        },
        "location": {
          "lat": 43.3305588,
          "lng": -100.6647101
        },
        "location_type": "APPROXIMATE",
        "viewport": {
          "northeast": {
            "lat": 43.3954929,
            "lng": -100.2485331
          },
          "southwest": {
            "lat": 43.157851,
            "lng": -100.932911
          }
        }
      },
      "place_id": "ChIJdyO0lEwEgocRai7odu2qnCQ",
      "types": [
        "postal_code"
      ]
    },
    {
      "address_components": [
        {
          "long_name": "West Todd",
          "short_name": "West Todd",
          "types": [
            "administrative_area_level_3",
            "political"
          ]
        },
        {
          "long_name": "Todd County",
          "short_name": "Todd County",
          "types": [
            "administrative_area_level_2",
            "political"
          ]
        },
        {
          "long_name": "South Dakota",
          "short_name": "SD",
          "types": [
            "administrative_area_level_1",
            "political"
          ]
        },
        {
          "long_name": "United States",
          "short_name": "US",
          "types": [
            "country",
            "political"
          ]
        }
      ],
      "formatted_address": "West Todd, SD, USA",
      "geometry": {
        "bounds": {
          "northeast": {
            "lat": 43.3897199,
            "lng": -100.7109091
          },
          "southwest": {
            "lat": 42.997717,
            "lng": -101.228267
          }
        },
        "location": {
          "lat": 43.1768701,
          "lng": -101.0711758
        },
        "location_type": "APPROXIMATE",
        "viewport": {
          "northeast": {
            "lat": 43.3897199,
            "lng": -100.7109091
          },
          "southwest": {
            "lat": 42.997717,
            "lng": -101.228267
          }
        }
      },
      "place_id": "ChIJhf6RtOK1eIcRl8zm-PX23r4",
      "types": [
        "administrative_area_level_3",
        "political"
      ]
    },
    {
      "address_components": [
        {
          "long_name": "Todd County",
          "short_name": "Todd County",
          "types": [
            "administrative_area_level_2",
            "political"
          ]
        },
        {
          "long_name": "South Dakota",
          "short_name": "SD",
          "types": [
            "administrative_area_level_1",
            "political"
          ]
        },
        {
          "long_name": "United States",
          "short_name": "US",
          "types": [
            "country",
            "political"
          ]
        }
      ],
      "formatted_address": "Todd County, SD, USA",
      "geometry": {
        "bounds": {
          "northeast": {
            "lat": 43.39043700000001,
            "lng": -100.198138
          },
          "southwest": {
            "lat": 42.997717,
            "lng": -101.228267
          }
        },
        "location": {
          "lat": 43.2115664,
          "lng": -100.7097867
        },
        "location_type": "APPROXIMATE",
        "viewport": {
          "northeast": {
            "lat": 43.39043700000001,
            "lng": -100.198138
          },
          "southwest": {
            "lat": 42.997717,
            "lng": -101.228267
          }
        }
      },
      "place_id": "ChIJ0TI-MQaseIcREC8MgfCqaww",
      "types": [
        "administrative_area_level_2",
        "political"
      ]
    },
    {
      "address_components": [
        {
          "long_name": "South Dakota",
          "short_name": "SD",
          "types": [
            "administrative_area_level_1",
            "political"
          ]
        },
        {
          "long_name": "United States",
          "short_name": "US",
          "types": [
            "country",
            "political"
          ]
        }
      ],
      "formatted_address": "South Dakota, USA",
      "geometry": {
        "bounds": {
          "northeast": {
            "lat": 45.945713,
            "lng": -96.436589
          },
          "southwest": {
            "lat": 42.479686,
            "lng": -104.0577391
          }
        },
        "location": {
          "lat": 43.9695148,
          "lng": -99.9018131
        },
        "location_type": "APPROXIMATE",
        "viewport": {
          "northeast": {
            "lat": 45.945713,
            "lng": -96.436589
          },
          "southwest": {
            "lat": 42.479686,
            "lng": -104.0577391
          }
        }
      },
      "place_id": "ChIJpTjphS1DfYcRt6SGMSnW8Ac",
      "types": [
        "administrative_area_level_1",
        "political"
      ]
    },
    {
      "address_components": [
        {
          "long_name": "United States",
          "short_name": "US",
          "types": [
            "country",
            "political"
          ]
        }
      ],
      "formatted_address": "United States",
      "geometry": {
        "bounds": {
          "northeast": {
            "lat": 71.3867745,
            "lng": -66.9502861
          },
          "southwest": {
            "lat": 18.9106768,
            "lng": 172.4458955
          }
        },
        "location": {
          "lat": 37.09024,
          "lng": -95.712891
        },
        "location_type": "APPROXIMATE",
        "viewport": {
          "northeast": {
            "lat": 49.38,
            "lng": -66.94
          },
          "southwest": {
            "lat": 25.82,
            "lng": -124.39
          }
        }
      },
      "place_id": "ChIJCzYy5IS16lQRQrfeQ5K5Oxw",
      "types": [
        "country",
        "political"
      ]
    }
  ],
  "status": "OK"
}
