{
  "results": [
    {
      "address_components": [
        {
          "long_name": "237",
          "short_name": "237",
          "types": [
            "street_number"
          ]
        },
        {
          "long_name": "Niles Street",
          "short_name": "Niles St",
          "types": [
            "route"
          ]
        },
        {
          "long_name": "Blue Mound",
          "short_name": "Blue Mound",
          "types": [
            "locality",
            "political"
          ]
        },
        {
          "long_name": "Pleasant View Township",
          "short_name": "Pleasant View Township",
          "types": [
            "administrative_area_level_3",
            "political"
          ]
        },
        {
          "long_name": "Macon County",
          "short_name": "Macon County",
          "types": [
            "administrative_area_level_2",
            "political"
          ]
        },
        {
          "long_name": "Illinois",
          "short_name": "IL",
          "types": [
            "administrative_area_level_1",
            "political"
          ]
        },
        {
          "long_name": "United States",
          "short_name": "US",
          "types": [
            "country",
            "political"
          ]
        },
        {
          "long_name": "62513",
          "short_name": "62513",
          "types": [
            "postal_code"
          ]
        },
        {
          "long_name": "9505",
          "short_name": "9505",
          "types": [
            "postal_code_suffix"
          ]
        }
      ],
      "formatted_address": "237 Niles St, Blue Mound, IL 62513, USA",
      "geometry": {
        "location": {
          "lat": 39.700314,
          "lng": -89.1182831
        },
        "location_type": "ROOFTOP",
        "viewport": {
          "northeast": {
            "lat": 39.7016629802915,
            "lng": -89.1169341197085
          },
          "southwest": {
            "lat": 39.6989650197085,
            "lng": -89.11963208029151
          }
        }
      },
      "place_id": "ChIJg3TCAO7AdIgRlF8rEZ0p7Ds",
      "types": [
        "street_address"
      ]
    },
    {
      "address_components": [
        {
          "long_name": "Blue Mound",
          "short_name": "Blue Mound",
          "types": [
            "locality",
            "political"
          ]
        },
        {
          "long_name": "Pleasant View Township",
          "short_name": "Pleasant View Township",
          "types": [
            "administrative_area_level_3",
            "political"
          ]
        },
        {
          "long_name": "Macon County",
          "short_name": "Macon County",
          "types": [
            "administrative_area_level_2",
            "political"
          ]
        },
        {
          "long_name": "Illinois",
          "short_name": "IL",
          "types": [
            "administrative_area_level_1",
            "political"
          ]
        },
        {
          "long_name": "United States",
          "short_name": "US",
          "types": [
            "country",
            "political"
          ]
        },
        {
          "long_name": "62513",
          "short_name": "62513",
          "types": [
            "postal_code"
          ]
        }
      ],
      "formatted_address": "Blue Mound, IL 62513, USA",
      "geometry": {
        "bounds": {
          "northeast": {
            "lat": 39.7111239,
            "lng": -89.10733309999999
          },
          "southwest": {
            "lat": 39.692921,
            "lng": -89.130275
          }
        },
        "location": {
          "lat": 39.7011516,
          "lng": -89.1231356
        },
        "location_type": "APPROXIMATE",
        "viewport": {
          "northeast": {
            "lat": 39.7111239,
            "lng": -89.10733309999999
          },
          "southwest": {
            "lat": 39.692921,
            "lng": -89.130275
          }
        }
      },
      "place_id": "ChIJlReRGu7AdIgRkF6LxY6Imk0",
      "types": [
        "locality",
        "political"
      ]
    },
    {
      "address_components": [
        {
          "long_name": "Pleasant View Township",
          "short_name": "Pleasant View Township",
          "types": [
            "administrative_area_level_3",
            "political"
          ]
        },
        {
          "long_name": "Macon County",
          "short_name": "Macon County",
          "types": [
            "administrative_area_level_2",
            "political"
          ]
        },
        {
          "long_name": "Illinois",
          "short_name": "IL",
          "types": [
            "administrative_area_level_1",
            "political"
          ]
        },
        {
          "long_name": "United States",
          "short_name": "US",
          "types": [
            "country",
            "political"
          ]
        }
      ],
      "formatted_address": "Pleasant View Township, IL, USA",
      "geometry": {
        "bounds": {
          "northeast": {
            "lat": 39.7285539,
            "lng": -89.0257309
          },
          "southwest": {
            "lat": 39.654468,
            "lng": -89.140683
          }
        },
        "location": {
          "lat": 39.6998129,
          "lng": -89.0847949
        },
        "location_type": "APPROXIMATE",
        "viewport": {
          "northeast": {
            "lat": 39.7285539,
            "lng": -89.0257309
          },
          "southwest": {
            "lat": 39.654468,
            "lng": -89.140683
          }
        }
      },
      "place_id": "ChIJzUzmpHe_dIgRC4MHTEXo-jw",
      "types": [
        "administrative_area_level_3",
        "political"
      ]
    },
    {
      "address_components": [
        {
          "long_name": "62513",
          "short_name": "62513",
          "types": [
            "postal_code"
          ]
        },
        {
          "long_name": "Blue Mound",
          "short_name": "Blue Mound",
          "types": [
            "locality",
            "political"
          ]
        },
        {
          "long_name": "Illinois",
          "short_name": "IL",
          "types": [
            "administrative_area_level_1",
            "political"
          ]
        },
        {
          "long_name": "United States",
          "short_name": "US",
          "types": [
            "country",
            "political"
          ]
        }
      ],
      "formatted_address": "Blue Mound, IL 62513, USA",
      "geometry": {
        "bounds": {
          "northeast": {
            "lat": 39.78744289999999,
            "lng": -89.0445979
          },
          "southwest": {
            "lat": 39.6547319,
            "lng": -89.27043189999999
          }
        },
        "location": {
          "lat": 39.7106303,
          "lng": -89.1515476
        },
        "location_type": "APPROXIMATE",
        "viewport": {
          "northeast": {
            "lat": 39.78744289999999,
            "lng": -89.0445979
          },
          "southwest": {
            "lat": 39.6547319,
            "lng": -89.27043189999999
          }
        }
      },
      "place_id": "ChIJqTqzJS7BdIgRHIxRTxLaWUA",
      "types": [
        "postal_code"
      ]
    },
    {
      "address_components": [
        {
          "long_name": "Decatur",
          "short_name": "Decatur",
          "types": [
            "political"
          ]
        },
        {
          "long_name": "Illinois",
          "short_name": "IL",
          "types": [
            "administrative_area_level_1",
            "political"
          ]
        },
        {
          "long_name": "United States",
          "short_name": "US",
          "types": [
            "country",
            "political"
          ]
        }
      ],
      "formatted_address": "Decatur, IL, USA",
      "geometry": {
        "bounds": {
          "northeast": {
            "lat": 40.0552319,
            "lng": -88.74512089999999
          },
          "southwest": {
            "lat": 39.6527309,
            "lng": -89.2177971
          }
        },
        "location": {
          "lat": 39.8949055,
          "lng": -89.0179332
        },
        "location_type": "APPROXIMATE",
        "viewport": {
          "northeast": {
            "lat": 40.0552319,
            "lng": -88.74512089999999
          },
          "southwest": {
            "lat": 39.6527309,
            "lng": -89.2177971
          }
        }
      },
      "place_id": "ChIJw56LP7axdIgRvaeV9Y2WXXc",
      "types": [
        "political"
      ]
    },
    {
      "address_components": [
        {
          "long_name": "Macon County",
          "short_name": "Macon County",
          "types": [
            "administrative_area_level_2",
            "political"
          ]
        },
        {
          "long_name": "Illinois",
          "short_name": "IL",
          "types": [
            "administrative_area_level_1",
            "political"
          ]
        },
        {
          "long_name": "United States",
          "short_name": "US",
          "types": [
            "country",
            "political"
          ]
        }
      ],
      "formatted_address": "Macon County, IL, USA",
      "geometry": {
        "bounds": {
          "northeast": {
            "lat": 40.0553449,
            "lng": -88.74512089999999
          },
          "southwest": {
            "lat": 39.6527309,
            "lng": -89.21790100000001
          }
        },
        "location": {
          "lat": 39.8949055,
          "lng": -89.0179332
        },
        "location_type": "APPROXIMATE",
        "viewport": {
          "northeast": {
            "lat": 40.0553449,
            "lng": -88.74512089999999
          },
          "southwest": {
            "lat": 39.6527309,
            "lng": -89.21790100000001
          }
        }
      },
      "place_id": "ChIJDbBjlSC5dIgRFBUBHiuLODk",
      "types": [
        "administrative_area_level_2",
        "political"
      ]
    },
    {
      "address_components": [
        {
          "long_name": "Illinois",
          "short_name": "IL",
          "types": [
            "administrative_area_level_1",
            "political"
          ]
        },
        {
          "long_name": "United States",
          "short_name": "US",
          "types": [
            "country",
            "political"
          ]
        }
      ],
      "formatted_address": "Illinois, USA",
      "geometry": {
        "bounds": {
          "northeast": {
            "lat": 42.5083379,
            "lng": -87.4951991
          },
          "southwest": {
            "lat": 36.970298,
            "lng": -91.5130789
          }
        },
        "location": {
          "lat": 40.6331249,
          "lng": -89.3985283
        },
        "location_type": "APPROXIMATE",
        "viewport": {
          "northeast": {
            "lat": 42.5083379,
            "lng": -87.4951991
          },
          "southwest": {
            "lat": 36.970298,
            "lng": -91.5130789
          }
        }
      },
      "place_id": "ChIJGSZubzgtC4gRVlkRZFCCFX8",
      "types": [
        "administrative_area_level_1",
        "political"
      ]
    },
    {
      "address_components": [
        {
          "long_name": "United States",
          "short_name": "US",
          "types": [
            "country",
            "political"
          ]
        }
      ],
      "formatted_address": "United States",
      "geometry": {
        "bounds": {
          "northeast": {
            "lat": 71.3867745,
            "lng": -66.9502861
          },
          "southwest": {
            "lat": 18.9106768,
            "lng": 172.4458955
          }
        },
        "location": {
          "lat": 37.09024,
          "lng": -95.712891
        },
        "location_type": "APPROXIMATE",
        "viewport": {
          "northeast": {
            "lat": 49.38,
            "lng": -66.94
          },
          "southwest": {
            "lat": 25.82,
            "lng": -124.39
          }
        }
      },
      "place_id": "ChIJCzYy5IS16lQRQrfeQ5K5Oxw",
      "types": [
        "country",
        "political"
      ]
    }
  ],
  "status": "OK"
}
