{
  "results": [
    {
      "address_components": [
        {
          "long_name": "200",
          "short_name": "200",
          "types": [
            "street_number"
          ]
        },
        {
          "long_name": "Farragut Avenue",
          "short_name": "Farragut Ave",
          "types": [
            "route"
          ]
        },
        {
          "long_name": "Mays Landing",
          "short_name": "Mays Landing",
          "types": [
            "neighborhood",
            "political"
          ]
        },
        {
          "long_name": "Hamilton Township",
          "short_name": "Hamilton Township",
          "types": [
            "locality",
            "political"
          ]
        },
        {
          "long_name": "Atlantic County",
          "short_name": "Atlantic County",
          "types": [
            "administrative_area_level_2",
            "political"
          ]
        },
        {
          "long_name": "New Jersey",
          "short_name": "NJ",
          "types": [
            "administrative_area_level_1",
            "political"
          ]
        },
        {
          "long_name": "United States",
          "short_name": "US",
          "types": [
            "country",
            "political"
          ]
        },
        {
          "long_name": "08330",
          "short_name": "08330",
          "types": [
            "postal_code"
          ]
        }
      ],
      "formatted_address": "200 Farragut Ave, Mays Landing, NJ 08330, USA",
      "geometry": {
        "location": {
          "lat": 39.452878,
          "lng": -74.723912
        },
        "location_type": "ROOFTOP",
        "viewport": {
          "northeast": {
            "lat": 39.4542269802915,
            "lng": -74.72256301970849
          },
          "southwest": {
            "lat": 39.4515290197085,
            "lng": -74.7252609802915
          }
        }
      },
      "place_id": "ChIJ1_aSJNLEwIkRnT3YxoP5wTQ",
      "types": [
        "street_address"
      ]
    },
    {
      "address_components": [
        {
          "long_name": "Mays Landing",
          "short_name": "Mays Landing",
          "types": [
            "neighborhood",
            "political"
          ]
        },
        {
          "long_name": "Hamilton Township",
          "short_name": "Hamilton Township",
          "types": [
            "locality",
            "political"
          ]
        },
        {
          "long_name": "Atlantic County",
          "short_name": "Atlantic County",
          "types": [
            "administrative_area_level_2",
            "political"
          ]
        },
        {
          "long_name": "New Jersey",
          "short_name": "NJ",
          "types": [
            "administrative_area_level_1",
            "political"
          ]
        },
        {
          "long_name": "United States",
          "short_name": "US",
          "types": [
            "country",
            "political"
          ]
        },
        {
          "long_name": "08330",
          "short_name": "08330",
          "types": [
            "postal_code"
          ]
        }
      ],
      "formatted_address": "Mays Landing, Hamilton Township, NJ 08330, USA",
      "geometry": {
        "bounds": {
          "northeast": {
            "lat": 39.4727229,
            "lng": -74.7059829
          },
          "southwest": {
            "lat": 39.433098,
            "lng": -74.73937289999999
          }
        },
        "location": {
          "lat": 39.4523385,
          "lng": -74.7276626
        },
        "location_type": "APPROXIMATE",
        "viewport": {
          "northeast": {
            "lat": 39.4727229,
            "lng": -74.7059829
          },
          "southwest": {
            "lat": 39.433098,
            "lng": -74.73937289999999
          }
        }
      },
      "place_id": "ChIJW45lL9LEwIkRNWzaGcyL7Lc",
      "types": [
        "neighborhood",
        "political"
      ]
    },
    {
      "address_components": [
        {
          "long_name": "Hamilton Township",
          "short_name": "Hamilton Township",
          "types": [
            "locality",
            "political"
          ]
        },
        {
          "long_name": "Atlantic County",
          "short_name": "Atlantic County",
          "types": [
            "administrative_area_level_2",
            "political"
          ]
        },
        {
          "long_name": "New Jersey",
          "short_name": "NJ",
          "types": [
            "administrative_area_level_1",
            "political"
          ]
        },
        {
          "long_name": "United States",
          "short_name": "US",
          "types": [
            "country",
            "political"
          ]
        }
      ],
      "formatted_address": "Hamilton Township, NJ, USA",
      "geometry": {
        "bounds": {
          "northeast": {
            "lat": 39.60123,
            "lng": -74.58632209999999
          },
          "southwest": {
            "lat": 39.4038361,
            "lng": -74.8699309
          }
        },
        "location": {
          "lat": 39.4941863,
          "lng": -74.7347674
        },
        "location_type": "APPROXIMATE",
        "viewport": {
          "northeast": {
            "lat": 39.60123,
            "lng": -74.58632209999999
          },
          "southwest": {
            "lat": 39.4038361,
            "lng": -74.8699309
          }
        }
      },
      "place_id": "ChIJDaNg4avbwIkROaN3Y4Nwy20",
      "types": [
        "locality",
        "political"
      ]
    },
    {
      "address_components": [
        {
          "long_name": "08330",
          "short_name": "08330",
          "types": [
            "postal_code"
          ]
        },
        {
          "long_name": "Mays Landing",
          "short_name": "Mays Landing",
          "types": [
            "neighborhood",
            "political"
          ]
        },
        {
          "long_name": "Atlantic County",
          "short_name": "Atlantic County",
          "types": [
            "administrative_area_level_2",
            "political"
          ]
        },
        {
          "long_name": "New Jersey",
          "short_name": "NJ",
          "types": [
            "administrative_area_level_1",
            "political"
          ]
        },
        {
          "long_name": "United States",
          "short_name": "US",
          "types": [
            "country",
            "political"
          ]
        }
      ],
      "formatted_address": "Mays Landing, NJ 08330, USA",
      "geometry": {
        "bounds": {
          "northeast": {
            "lat": 39.580953,
            "lng": -74.5914349
          },
          "southwest": {
            "lat": 39.3554198,
            "lng": -74.8683661
          }
        },
        "location": {
          "lat": 39.4820948,
          "lng": -74.7571147
        },
        "location_type": "APPROXIMATE",
        "viewport": {
          "northeast": {
            "lat": 39.580953,
            "lng": -74.5914349
          },
          "southwest": {
            "lat": 39.3554198,
            "lng": -74.8683661
          }
        }
      },
      "place_id": "ChIJl33Z_jfEwIkRIRlX_lHNGPg",
      "types": [
        "postal_code"
      ]
    },
    {
      "address_components": [
        {
          "long_name": "Atlantic City",
          "short_name": "Atlantic City",
          "types": [
            "political"
          ]
        },
        {
          "long_name": "New Jersey",
          "short_name": "NJ",
          "types": [
            "administrative_area_level_1",
            "political"
          ]
        },
        {
          "long_name": "United States",
          "short_name": "US",
          "types": [
            "country",
            "political"
          ]
        }
      ],
      "formatted_address": "Atlantic City, NJ, USA",
      "geometry": {
        "bounds": {
          "northeast": {
            "lat": 39.729838,
            "lng": -74.3021839
          },
          "southwest": {
            "lat": 39.288595,
            "lng": -74.9850531
          }
        },
        "location": {
          "lat": 39.5333379,
          "lng": -74.6868815
        },
        "location_type": "APPROXIMATE",
        "viewport": {
          "northeast": {
            "lat": 39.729838,
            "lng": -74.3021839
          },
          "southwest": {
            "lat": 39.288595,
            "lng": -74.9850531
          }
        }
      },
      "place_id": "ChIJp4Kmo-3cwIkRX-pX_Yd2KQQ",
      "types": [
        "political"
      ]
    },
    {
      "address_components": [
        {
          "long_name": "Atlantic County",
          "short_name": "Atlantic County",
          "types": [
            "administrative_area_level_2",
            "political"
          ]
        },
        {
          "long_name": "New Jersey",
          "short_name": "NJ",
          "types": [
            "administrative_area_level_1",
            "political"
          ]
        },
        {
          "long_name": "United States",
          "short_name": "US",
          "types": [
            "country",
            "political"
          ]
        }
      ],
      "formatted_address": "Atlantic County, NJ, USA",
      "geometry": {
        "bounds": {
          "northeast": {
            "lat": 39.7299091,
            "lng": -74.3089408
          },
          "southwest": {
            "lat": 39.28856589999999,
            "lng": -74.9852228
          }
        },
        "location": {
          "lat": 39.5333379,
          "lng": -74.6868815
        },
        "location_type": "APPROXIMATE",
        "viewport": {
          "northeast": {
            "lat": 39.7299091,
            "lng": -74.30895520000001
          },
          "southwest": {
            "lat": 39.28856589999999,
            "lng": -74.9852228
          }
        }
      },
      "place_id": "ChIJ1QoSk33fwIkRe269C6wfLcA",
      "types": [
        "administrative_area_level_2",
        "political"
      ]
    },
    {
      "address_components": [
        {
          "long_name": "New Jersey",
          "short_name": "NJ",
          "types": [
            "administrative_area_level_1",
            "political"
          ]
        },
        {
          "long_name": "United States",
          "short_name": "US",
          "types": [
            "country",
            "political"
          ]
        }
      ],
      "formatted_address": "New Jersey, USA",
      "geometry": {
        "bounds": {
          "northeast": {
            "lat": 41.357423,
            "lng": -73.9024391
          },
          "southwest": {
            "lat": 38.9285589,
            "lng": -75.5597921
          }
        },
        "location": {
          "lat": 40.0583238,
          "lng": -74.4056612
        },
        "location_type": "APPROXIMATE",
        "viewport": {
          "northeast": {
            "lat": 41.357423,
            "lng": -73.9024391
          },
          "southwest": {
            "lat": 38.9286032,
            "lng": -75.5597921
          }
        }
      },
      "place_id": "ChIJn0AAnpX7wIkRjW0_-Ad70iw",
      "types": [
        "administrative_area_level_1",
        "political"
      ]
    },
    {
      "address_components": [
        {
          "long_name": "United States",
          "short_name": "US",
          "types": [
            "country",
            "political"
          ]
        }
      ],
      "formatted_address": "United States",
      "geometry": {
        "bounds": {
          "northeast": {
            "lat": 71.3867745,
            "lng": -66.9502861
          },
          "southwest": {
            "lat": 18.9106768,
            "lng": 172.4458955
          }
        },
        "location": {
          "lat": 37.09024,
          "lng": -95.712891
        },
        "location_type": "APPROXIMATE",
        "viewport": {
          "northeast": {
            "lat": 49.38,
            "lng": -66.94
          },
          "southwest": {
            "lat": 25.82,
            "lng": -124.39
          }
        }
      },
      "place_id": "ChIJCzYy5IS16lQRQrfeQ5K5Oxw",
      "types": [
        "country",
        "political"
      ]
    }
  ],
  "status": "OK"
}
