{
  "results": [
    {
      "address_components": [
        {
          "long_name": "57-61",
          "short_name": "57-61",
          "types": [
            "street_number"
          ]
        },
        {
          "long_name": "Main Street",
          "short_name": "Main St",
          "types": [
            "route"
          ]
        },
        {
          "long_name": "Amherst Center",
          "short_name": "Amherst Center",
          "types": [
            "neighborhood",
            "political"
          ]
        },
        {
          "long_name": "Amherst",
          "short_name": "Amherst",
          "types": [
            "locality",
            "political"
          ]
        },
        {
          "long_name": "Hampshire County",
          "short_name": "Hampshire County",
          "types": [
            "administrative_area_level_2",
            "political"
          ]
        },
        {
          "long_name": "Massachusetts",
          "short_name": "MA",
          "types": [
            "administrative_area_level_1",
            "political"
          ]
        },
        {
          "long_name": "United States",
          "short_name": "US",
          "types": [
            "country",
            "political"
          ]
        },
        {
          "long_name": "01002",
          "short_name": "01002",
          "types": [
            "postal_code"
          ]
        },
        {
          "long_name": "2350",
          "short_name": "2350",
          "types": [
            "postal_code_suffix"
          ]
        }
      ],
      "formatted_address": "57-61 Main St, Amherst, MA 01002, USA",
      "geometry": {
        "bounds": {
          "northeast": {
            "lat": 42.3757341,
            "lng": -72.51830989999999
          },
          "southwest": {
            "lat": 42.3756975,
            "lng": -72.5189178
          }
        },
        "location": {
          "lat": 42.3756882,
          "lng": -72.51884609999999
        },
        "location_type": "RANGE_INTERPOLATED",
        "viewport": {
          "northeast": {
            "lat": 42.3770647802915,
            "lng": -72.51726486970848
          },
          "southwest": {
            "lat": 42.3743668197085,
            "lng": -72.51996283029149
          }
        }
      },
      "place_id": "EiU1Ny02MSBNYWluIFN0LCBBbWhlcnN0LCBNQSAwMTAwMiwgVVNB",
      "types": [
        "street_address"
      ]
    },
    {
      "address_components": [
        {
          "long_name": "Amherst Center",
          "short_name": "Amherst Center",
          "types": [
            "neighborhood",
            "political"
          ]
        },
        {
          "long_name": "Amherst",
          "short_name": "Amherst",
          "types": [
            "locality",
            "political"
          ]
        },
        {
          "long_name": "Hampshire County",
          "short_name": "Hampshire County",
          "types": [
            "administrative_area_level_2",
            "political"
          ]
        },
        {
          "long_name": "Massachusetts",
          "short_name": "MA",
          "types": [
            "administrative_area_level_1",
            "political"
          ]
        },
        {
          "long_name": "United States",
          "short_name": "US",
          "types": [
            "country",
            "political"
          ]
        }
      ],
      "formatted_address": "Amherst Center, Amherst, MA, USA",
      "geometry": {
        "bounds": {
          "northeast": {
            "lat": 42.401452,
            "lng": -72.4981449
          },
          "southwest": {
            "lat": 42.349975,
            "lng": -72.5371009
          }
        },
        "location": {
          "lat": 42.3753677,
          "lng": -72.519254
        },
        "location_type": "APPROXIMATE",
        "viewport": {
          "northeast": {
            "lat": 42.401452,
            "lng": -72.4981449
          },
          "southwest": {
            "lat": 42.349975,
            "lng": -72.5371009
          }
        }
      },
      "place_id": "ChIJH79CLPbN5okRjKnQ15YCBnc",
      "types": [
        "neighborhood",
        "political"
      ]
    },
    {
      "address_components": [
        {
          "long_name": "Amherst",
          "short_name": "Amherst",
          "types": [
            "locality",
            "political"
          ]
        },
        {
          "long_name": "Hampshire County",
          "short_name": "Hampshire County",
          "types": [
            "administrative_area_level_2",
            "political"
          ]
        },
        {
          "long_name": "Massachusetts",
          "short_name": "MA",
          "types": [
            "administrative_area_level_1",
            "political"
          ]
        },
        {
          "long_name": "United States",
          "short_name": "US",
          "types": [
            "country",
            "political"
          ]
        }
      ],
      "formatted_address": "Amherst, MA, USA",
      "geometry": {
        "bounds": {
          "northeast": {
            "lat": 42.433715,
            "lng": -72.46418589999999
          },
          "southwest": {
            "lat": 42.301514,
            "lng": -72.546796
          }
        },
        "location": {
          "lat": 42.3732216,
          "lng": -72.5198537
        },
        "location_type": "APPROXIMATE",
        "viewport": {
          "northeast": {
            "lat": 42.433715,
            "lng": -72.46418589999999
          },
          "southwest": {
            "lat": 42.301514,
            "lng": -72.546796
          }
        }
      },
      "place_id": "ChIJDyRxCgLO5okR3C9MlxUdddU",
      "types": [
        "locality",
        "political"
      ]
    },
    {
      "address_components": [
        {
          "long_name": "01002",
          "short_name": "01002",
          "types": [
            "postal_code"
          ]
        },
        {
          "long_name": "Amherst",
          "short_name": "Amherst",
          "types": [
            "locality",
            "political"
          ]
        },
        {
          "long_name": "Massachusetts",
          "short_name": "MA",
          "types": [
            "administrative_area_level_1",
            "political"
          ]
        },
        {
          "long_name": "United States",
          "short_name": "US",
          "types": [
            "country",
            "political"
          ]
        }
      ],
      "formatted_address": "Amherst, MA 01002, USA",
      "geometry": {
        "bounds": {
          "northeast": {
            "lat": 42.438158,
            "lng": -72.36134489999999
          },
          "southwest": {
            "lat": 42.2951409,
            "lng": -72.6024449
          }
        },
        "location": {
          "lat": 42.34037989999999,
          "lng": -72.4968189
        },
        "location_type": "APPROXIMATE",
        "viewport": {
          "northeast": {
            "lat": 42.438158,
            "lng": -72.36134489999999
          },
          "southwest": {
            "lat": 42.2951409,
            "lng": -72.6024449
          }
        }
      },
      "place_id": "ChIJB3LZzCvM5okRaOeUS0yjKbE",
      "postcode_localities": [
        "Amherst",
        "Pelham"
      ],
      "types": [
        "postal_code"
      ]
    },
    {
      "address_components": [
        {
          "long_name": "Amherst Center",
          "short_name": "Amherst Center",
          "types": [
            "political"
          ]
        },
        {
          "long_name": "Massachusetts",
          "short_name": "MA",
          "types": [
            "administrative_area_level_1",
            "political"
          ]
        },
        {
          "long_name": "United States",
          "short_name": "US",
          "types": [
            "country",
            "political"
          ]
        }
      ],
      "formatted_address": "Amherst Center, MA, USA",
      "geometry": {
        "bounds": {
          "northeast": {
            "lat": 42.51850899999999,
            "lng": -72.355325
          },
          "southwest": {
            "lat": 42.30153,
            "lng": -72.58963700000001
          }
        },
        "location": {
          "lat": 42.409317,
          "lng": -72.44948480000001
        },
        "location_type": "APPROXIMATE",
        "viewport": {
          "northeast": {
            "lat": 42.51850899999999,
            "lng": -72.355325
          },
          "southwest": {
            "lat": 42.30153,
            "lng": -72.58963700000001
          }
        }
      },
      "place_id": "ChIJDdG7aNfM5okRdLtgyFgoY_g",
      "types": [
        "political"
      ]
    },
    {
      "address_components": [
        {
          "long_name": "Hampshire County",
          "short_name": "Hampshire County",
          "types": [
            "administrative_area_level_2",
            "political"
          ]
        },
        {
          "long_name": "Massachusetts",
          "short_name": "MA",
          "types": [
            "administrative_area_level_1",
            "political"
          ]
        },
        {
          "long_name": "United States",
          "short_name": "US",
          "types": [
            "country",
            "political"
          ]
        }
      ],
      "formatted_address": "Hampshire County, MA, USA",
      "geometry": {
        "bounds": {
          "northeast": {
            "lat": 42.55593289999999,
            "lng": -72.203363
          },
          "southwest": {
            "lat": 42.1831841,
            "lng": -73.06861789999999
          }
        },
        "location": {
          "lat": 42.3471357,
          "lng": -72.6624209
        },
        "location_type": "APPROXIMATE",
        "viewport": {
          "northeast": {
            "lat": 42.55593289999999,
            "lng": -72.203363
          },
          "southwest": {
            "lat": 42.1831841,
            "lng": -73.06861789999999
          }
        }
      },
      "place_id": "ChIJbe_a8p3W5okR7DabUz5DByk",
      "types": [
        "administrative_area_level_2",
        "political"
      ]
    },
    {
      "address_components": [
        {
          "long_name": "Springfield",
          "short_name": "Springfield",
          "types": [
            "political"
          ]
        },
        {
          "long_name": "United States",
          "short_name": "US",
          "types": [
            "country",
            "political"
          ]
        }
      ],
      "formatted_address": "Springfield, USA",
      "geometry": {
        "bounds": {
          "northeast": {
            "lat": 42.7411329,
            "lng": -72.13479989999999
          },
          "southwest": {
            "lat": 41.997595,
            "lng": -73.074885
          }
        },
        "location": {
          "lat": 42.2867339,
          "lng": -72.5204827
        },
        "location_type": "APPROXIMATE",
        "viewport": {
          "northeast": {
            "lat": 42.7411329,
            "lng": -72.13479989999999
          },
          "southwest": {
            "lat": 41.997595,
            "lng": -73.074885
          }
        }
      },
      "place_id": "ChIJpy_MQLfW5okR3vDTqkup2nQ",
      "types": [
        "political"
      ]
    },
    {
      "address_components": [
        {
          "long_name": "Massachusetts",
          "short_name": "MA",
          "types": [
            "administrative_area_level_1",
            "political"
          ]
        },
        {
          "long_name": "United States",
          "short_name": "US",
          "types": [
            "country",
            "political"
          ]
        }
      ],
      "formatted_address": "Massachusetts, USA",
      "geometry": {
        "bounds": {
          "northeast": {
            "lat": 42.88679,
            "lng": -69.92855109999999
          },
          "southwest": {
            "lat": 41.2390448,
            "lng": -73.5081419
          }
        },
        "location": {
          "lat": 42.4072107,
          "lng": -71.3824374
        },
        "location_type": "APPROXIMATE",
        "viewport": {
          "northeast": {
            "lat": 42.88679,
            "lng": -69.92855109999999
          },
          "southwest": {
            "lat": 41.2390737,
            "lng": -73.5081419
          }
        }
      },
      "place_id": "ChIJ_b9z6W1l44kRHA2DVTbQxkU",
      "types": [
        "administrative_area_level_1",
        "political"
      ]
    },
    {
      "address_components": [
        {
          "long_name": "United States",
          "short_name": "US",
          "types": [
            "country",
            "political"
          ]
        }
      ],
      "formatted_address": "United States",
      "geometry": {
        "bounds": {
          "northeast": {
            "lat": 71.3867745,
            "lng": -66.9502861
          },
          "southwest": {
            "lat": 18.9106768,
            "lng": 172.4458955
          }
        },
        "location": {
          "lat": 37.09024,
          "lng": -95.712891
        },
        "location_type": "APPROXIMATE",
        "viewport": {
          "northeast": {
            "lat": 49.38,
            "lng": -66.94
          },
          "southwest": {
            "lat": 25.82,
            "lng": -124.39
          }
        }
      },
      "place_id": "ChIJCzYy5IS16lQRQrfeQ5K5Oxw",
      "types": [
        "country",
        "political"
      ]
    }
  ],
  "status": "OK"
}
