{
  "results": [
    {
      "address_components": [
        {
          "long_name": "528-598",
          "short_name": "528-598",
          "types": [
            "street_number"
          ]
        },
        {
          "long_name": "Chesterbrook Boulevard",
          "short_name": "Chesterbrook Blvd",
          "types": [
            "route"
          ]
        },
        {
          "long_name": "Chesterbrook",
          "short_name": "Chesterbrook",
          "types": [
            "locality",
            "political"
          ]
        },
        {
          "long_name": "Tredyffrin Township",
          "short_name": "Tredyffrin Township",
          "types": [
            "administrative_area_level_3",
            "political"
          ]
        },
        {
          "long_name": "Chester County",
          "short_name": "Chester County",
          "types": [
            "administrative_area_level_2",
            "political"
          ]
        },
        {
          "long_name": "Pennsylvania",
          "short_name": "PA",
          "types": [
            "administrative_area_level_1",
            "political"
          ]
        },
        {
          "long_name": "United States",
          "short_name": "US",
          "types": [
            "country",
            "political"
          ]
        },
        {
          "long_name": "19087",
          "short_name": "19087",
          "types": [
            "postal_code"
          ]
        }
      ],
      "formatted_address": "528-598 Chesterbrook Blvd, Chesterbrook, PA 19087, USA",
      "geometry": {
        "bounds": {
          "northeast": {
            "lat": 40.0740196,
            "lng": -75.4578841
          },
          "southwest": {
            "lat": 40.0735042,
            "lng": -75.4586654
          }
        },
        "location": {
          "lat": 40.07366280000001,
          "lng": -75.4584396
        },
        "location_type": "RANGE_INTERPOLATED",
        "viewport": {
          "northeast": {
            "lat": 40.0751108802915,
            "lng": -75.4569257697085
          },
          "southwest": {
            "lat": 40.0724129197085,
            "lng": -75.45962373029151
          }
        }
      },
      "place_id": "EjY1MjgtNTk4IENoZXN0ZXJicm9vayBCbHZkLCBDaGVzdGVyYnJvb2ssIFBBIDE5MDg3LCBVU0E",
      "types": [
        "street_address"
      ]
    },
    {
      "address_components": [
        {
          "long_name": "Chesterbrook",
          "short_name": "Chesterbrook",
          "types": [
            "locality",
            "political"
          ]
        },
        {
          "long_name": "Tredyffrin Township",
          "short_name": "Tredyffrin Township",
          "types": [
            "administrative_area_level_3",
            "political"
          ]
        },
        {
          "long_name": "Chester County",
          "short_name": "Chester County",
          "types": [
            "administrative_area_level_2",
            "political"
          ]
        },
        {
          "long_name": "Pennsylvania",
          "short_name": "PA",
          "types": [
            "administrative_area_level_1",
            "political"
          ]
        },
        {
          "long_name": "United States",
          "short_name": "US",
          "types": [
            "country",
            "political"
          ]
        }
      ],
      "formatted_address": "Chesterbrook, PA, USA",
      "geometry": {
        "bounds": {
          "northeast": {
            "lat": 40.082395,
            "lng": -75.4375149
          },
          "southwest": {
            "lat": 40.0627098,
            "lng": -75.4780569
          }
        },
        "location": {
          "lat": 40.0756627,
          "lng": -75.45908159999999
        },
        "location_type": "APPROXIMATE",
        "viewport": {
          "northeast": {
            "lat": 40.082395,
            "lng": -75.4375149
          },
          "southwest": {
            "lat": 40.0627098,
            "lng": -75.4780569
          }
        }
      },
      "place_id": "ChIJwbZt5wqTxokRkzBxaoENJTQ",
      "types": [
        "locality",
        "political"
      ]
    },
    {
      "address_components": [
        {
          "long_name": "19087",
          "short_name": "19087",
          "types": [
            "postal_code"
          ]
        },
        {
          "long_name": "Wayne",
          "short_name": "Wayne",
          "types": [
            "locality",
            "political"
          ]
        },
        {
          "long_name": "Pennsylvania",
          "short_name": "PA",
          "types": [
            "administrative_area_level_1",
            "political"
          ]
        },
        {
          "long_name": "United States",
          "short_name": "US",
          "types": [
            "country",
            "political"
          ]
        }
      ],
      "formatted_address": "Wayne, PA 19087, USA",
      "geometry": {
        "bounds": {
          "northeast": {
            "lat": 40.104057,
            "lng": -75.32878389999999
          },
          "southwest": {
            "lat": 40.015405,
            "lng": -75.4780569
          }
        },
        "location": {
          "lat": 40.0600713,
          "lng": -75.3995089
        },
        "location_type": "APPROXIMATE",
        "viewport": {
          "northeast": {
            "lat": 40.104057,
            "lng": -75.32878389999999
          },
          "southwest": {
            "lat": 40.015405,
            "lng": -75.4780569
          }
        }
      },
      "place_id": "ChIJacTq6u2UxokRUwWNNg--hPc",
      "postcode_localities": [
        "Chesterbrook",
        "Radnor",
        "Saint Davids",
        "Strafford",
        "Wayne"
      ],
      "types": [
        "postal_code"
      ]
    },
    {
      "address_components": [
        {
          "long_name": "Tredyffrin Township",
          "short_name": "Tredyffrin Township",
          "types": [
            "administrative_area_level_3",
            "political"
          ]
        },
        {
          "long_name": "Chester County",
          "short_name": "Chester County",
          "types": [
            "administrative_area_level_2",
            "political"
          ]
        },
        {
          "long_name": "Pennsylvania",
          "short_name": "PA",
          "types": [
            "administrative_area_level_1",
            "political"
          ]
        },
        {
          "long_name": "United States",
          "short_name": "US",
          "types": [
            "country",
            "political"
          ]
        }
      ],
      "formatted_address": "Tredyffrin Township, PA, USA",
      "geometry": {
        "bounds": {
          "northeast": {
            "lat": 40.097211,
            "lng": -75.361013
          },
          "southwest": {
            "lat": 40.034602,
            "lng": -75.53009000000002
          }
        },
        "location": {
          "lat": 40.066043,
          "lng": -75.44612560000002
        },
        "location_type": "APPROXIMATE",
        "viewport": {
          "northeast": {
            "lat": 40.097211,
            "lng": -75.361013
          },
          "southwest": {
            "lat": 40.034602,
            "lng": -75.53009000000002
          }
        }
      },
      "place_id": "ChIJJVx-W63sxokRepzhyN24j7U",
      "types": [
        "administrative_area_level_3",
        "political"
      ]
    },
    {
      "address_components": [
        {
          "long_name": "Chester County",
          "short_name": "Chester County",
          "types": [
            "administrative_area_level_2",
            "political"
          ]
        },
        {
          "long_name": "Pennsylvania",
          "short_name": "PA",
          "types": [
            "administrative_area_level_1",
            "political"
          ]
        },
        {
          "long_name": "United States",
          "short_name": "US",
          "types": [
            "country",
            "political"
          ]
        }
      ],
      "formatted_address": "Chester County, PA, USA",
      "geometry": {
        "bounds": {
          "northeast": {
            "lat": 40.2451251,
            "lng": -75.361013
          },
          "southwest": {
            "lat": 39.7211468,
            "lng": -76.13667199999999
          }
        },
        "location": {
          "lat": 40.0010204,
          "lng": -75.8069082
        },
        "location_type": "APPROXIMATE",
        "viewport": {
          "northeast": {
            "lat": 40.2451251,
            "lng": -75.361013
          },
          "southwest": {
            "lat": 39.7211468,
            "lng": -76.13667199999999
          }
        }
      },
      "place_id": "ChIJ_w4lRiZdxokRjwDbOR-3-YE",
      "types": [
        "administrative_area_level_2",
        "political"
      ]
    },
    {
      "address_components": [
        {
          "long_name": "Pennsylvania",
          "short_name": "PA",
          "types": [
            "administrative_area_level_1",
            "political"
          ]
        },
        {
          "long_name": "United States",
          "short_name": "US",
          "types": [
            "country",
            "political"
          ]
        }
      ],
      "formatted_address": "Pennsylvania, USA",
      "geometry": {
        "bounds": {
          "northeast": {
            "lat": 42.2693866,
            "lng": -74.6895018
          },
          "southwest": {
            "lat": 39.7197989,
            "lng": -80.51989499999999
          }
        },
        "location": {
          "lat": 41.2033216,
          "lng": -77.1945247
        },
        "location_type": "APPROXIMATE",
        "viewport": {
          "northeast": {
            "lat": 42.2693866,
            "lng": -74.6895018
          },
          "southwest": {
            "lat": 39.7197989,
            "lng": -80.51989499999999
          }
        }
      },
      "place_id": "ChIJieUyHiaALYgRPbQiUEchRsI",
      "types": [
        "administrative_area_level_1",
        "political"
      ]
    },
    {
      "address_components": [
        {
          "long_name": "United States",
          "short_name": "US",
          "types": [
            "country",
            "political"
          ]
        }
      ],
      "formatted_address": "United States",
      "geometry": {
        "bounds": {
          "northeast": {
            "lat": 71.3867745,
            "lng": -66.9502861
          },
          "southwest": {
            "lat": 18.9106768,
            "lng": 172.4458955
          }
        },
        "location": {
          "lat": 37.09024,
          "lng": -95.712891
        },
        "location_type": "APPROXIMATE",
        "viewport": {
          "northeast": {
            "lat": 49.38,
            "lng": -66.94
          },
          "southwest": {
            "lat": 25.82,
            "lng": -124.39
          }
        }
      },
      "place_id": "ChIJCzYy5IS16lQRQrfeQ5K5Oxw",
      "types": [
        "country",
        "political"
      ]
    }
  ],
  "status": "OK"
}
