{
  "results": [
    {
      "address_components": [
        {
          "long_name": "North Campus Drive",
          "short_name": "N Campus Dr",
          "types": [
            "route"
          ]
        },
        {
          "long_name": "Kutztown",
          "short_name": "Kutztown",
          "types": [
            "locality",
            "political"
          ]
        },
        {
          "long_name": "Maxatawny Township",
          "short_name": "Maxatawny Township",
          "types": [
            "administrative_area_level_3",
            "political"
          ]
        },
        {
          "long_name": "Berks County",
          "short_name": "Berks County",
          "types": [
            "administrative_area_level_2",
            "political"
          ]
        },
        {
          "long_name": "Pennsylvania",
          "short_name": "PA",
          "types": [
            "administrative_area_level_1",
            "political"
          ]
        },
        {
          "long_name": "United States",
          "short_name": "US",
          "types": [
            "country",
            "political"
          ]
        },
        {
          "long_name": "19530",
          "short_name": "19530",
          "types": [
            "postal_code"
          ]
        }
      ],
      "formatted_address": "N Campus Dr, Kutztown, PA 19530, USA",
      "geometry": {
        "bounds": {
          "northeast": {
            "lat": 40.5110546,
            "lng": -75.7846507
          },
          "southwest": {
            "lat": 40.5104843,
            "lng": -75.7853988
          }
        },
        "location": {
          "lat": 40.5107438,
          "lng": -75.7849895
        },
        "location_type": "GEOMETRIC_CENTER",
        "viewport": {
          "northeast": {
            "lat": 40.5121184302915,
            "lng": -75.7836757697085
          },
          "southwest": {
            "lat": 40.5094204697085,
            "lng": -75.7863737302915
          }
        }
      },
      "place_id": "ChIJOyc3P8jTxYkRz5s_f1Fiwpw",
      "types": [
        "route"
      ]
    },
    {
      "address_components": [
        {
          "long_name": "Maxatawny Township",
          "short_name": "Maxatawny Township",
          "types": [
            "administrative_area_level_3",
            "political"
          ]
        },
        {
          "long_name": "Berks County",
          "short_name": "Berks County",
          "types": [
            "administrative_area_level_2",
            "political"
          ]
        },
        {
          "long_name": "Pennsylvania",
          "short_name": "PA",
          "types": [
            "administrative_area_level_1",
            "political"
          ]
        },
        {
          "long_name": "United States",
          "short_name": "US",
          "types": [
            "country",
            "political"
          ]
        }
      ],
      "formatted_address": "Maxatawny Township, PA, USA",
      "geometry": {
        "bounds": {
          "northeast": {
            "lat": 40.580229,
            "lng": -75.675105
          },
          "southwest": {
            "lat": 40.468094,
            "lng": -75.81833
          }
        },
        "location": {
          "lat": 40.533145,
          "lng": -75.737149
        },
        "location_type": "APPROXIMATE",
        "viewport": {
          "northeast": {
            "lat": 40.580229,
            "lng": -75.675105
          },
          "southwest": {
            "lat": 40.468094,
            "lng": -75.81833
          }
        }
      },
      "place_id": "ChIJgWVLh-XSxYkRHBP05YN2iK4",
      "types": [
        "administrative_area_level_3",
        "political"
      ]
    },
    {
      "address_components": [
        {
          "long_name": "19530",
          "short_name": "19530",
          "types": [
            "postal_code"
          ]
        },
        {
          "long_name": "Kutztown",
          "short_name": "Kutztown",
          "types": [
            "locality",
            "political"
          ]
        },
        {
          "long_name": "Pennsylvania",
          "short_name": "PA",
          "types": [
            "administrative_area_level_1",
            "political"
          ]
        },
        {
          "long_name": "United States",
          "short_name": "US",
          "types": [
            "country",
            "political"
          ]
        }
      ],
      "formatted_address": "Kutztown, PA 19530, USA",
      "geometry": {
        "bounds": {
          "northeast": {
            "lat": 40.6013481,
            "lng": -75.682238
          },
          "southwest": {
            "lat": 40.4791499,
            "lng": -75.88015279999999
          }
        },
        "location": {
          "lat": 40.533145,
          "lng": -75.737149
        },
        "location_type": "APPROXIMATE",
        "viewport": {
          "northeast": {
            "lat": 40.6013481,
            "lng": -75.682238
          },
          "southwest": {
            "lat": 40.4791499,
            "lng": -75.88015279999999
          }
        }
      },
      "place_id": "ChIJ4_qH-kHSxYkR1OsosU8BTyI",
      "types": [
        "postal_code"
      ]
    },
    {
      "address_components": [
        {
          "long_name": "Reading",
          "short_name": "Reading",
          "types": [
            "political"
          ]
        },
        {
          "long_name": "Pennsylvania",
          "short_name": "PA",
          "types": [
            "administrative_area_level_1",
            "political"
          ]
        },
        {
          "long_name": "United States",
          "short_name": "US",
          "types": [
            "country",
            "political"
          ]
        }
      ],
      "formatted_address": "Reading, PA, USA",
      "geometry": {
        "bounds": {
          "northeast": {
            "lat": 40.67727,
            "lng": -75.5296219
          },
          "southwest": {
            "lat": 40.137076,
            "lng": -76.440181
          }
        },
        "location": {
          "lat": 40.3451566,
          "lng": -75.9927652
        },
        "location_type": "APPROXIMATE",
        "viewport": {
          "northeast": {
            "lat": 40.67727,
            "lng": -75.5296219
          },
          "southwest": {
            "lat": 40.137076,
            "lng": -76.440181
          }
        }
      },
      "place_id": "ChIJsUqmgt93xokRe6bJ_oABq68",
      "types": [
        "political"
      ]
    },
    {
      "address_components": [
        {
          "long_name": "Berks County",
          "short_name": "Berks County",
          "types": [
            "administrative_area_level_2",
            "political"
          ]
        },
        {
          "long_name": "Pennsylvania",
          "short_name": "PA",
          "types": [
            "administrative_area_level_1",
            "political"
          ]
        },
        {
          "long_name": "United States",
          "short_name": "US",
          "types": [
            "country",
            "political"
          ]
        }
      ],
      "formatted_address": "Berks County, PA, USA",
      "geometry": {
        "bounds": {
          "northeast": {
            "lat": 40.67727,
            "lng": -75.529623
          },
          "southwest": {
            "lat": 40.1373759,
            "lng": -76.440181
          }
        },
        "location": {
          "lat": 40.3451566,
          "lng": -75.9927652
        },
        "location_type": "APPROXIMATE",
        "viewport": {
          "northeast": {
            "lat": 40.67727,
            "lng": -75.529623
          },
          "southwest": {
            "lat": 40.1373759,
            "lng": -76.440181
          }
        }
      },
      "place_id": "ChIJDeYOtrt0xokRZSWVYWC06gU",
      "types": [
        "administrative_area_level_2",
        "political"
      ]
    },
    {
      "address_components": [
        {
          "long_name": "Pennsylvania",
          "short_name": "PA",
          "types": [
            "administrative_area_level_1",
            "political"
          ]
        },
        {
          "long_name": "United States",
          "short_name": "US",
          "types": [
            "country",
            "political"
          ]
        }
      ],
      "formatted_address": "Pennsylvania, USA",
      "geometry": {
        "bounds": {
          "northeast": {
            "lat": 42.2693866,
            "lng": -74.6895018
          },
          "southwest": {
            "lat": 39.7197989,
            "lng": -80.51989499999999
          }
        },
        "location": {
          "lat": 41.2033216,
          "lng": -77.1945247
        },
        "location_type": "APPROXIMATE",
        "viewport": {
          "northeast": {
            "lat": 42.2693866,
            "lng": -74.6895018
          },
          "southwest": {
            "lat": 39.7197989,
            "lng": -80.51989499999999
          }
        }
      },
      "place_id": "ChIJieUyHiaALYgRPbQiUEchRsI",
      "types": [
        "administrative_area_level_1",
        "political"
      ]
    },
    {
      "address_components": [
        {
          "long_name": "United States",
          "short_name": "US",
          "types": [
            "country",
            "political"
          ]
        }
      ],
      "formatted_address": "United States",
      "geometry": {
        "bounds": {
          "northeast": {
            "lat": 71.3867745,
            "lng": -66.9502861
          },
          "southwest": {
            "lat": 18.9106768,
            "lng": 172.4458955
          }
        },
        "location": {
          "lat": 37.09024,
          "lng": -95.712891
        },
        "location_type": "APPROXIMATE",
        "viewport": {
          "northeast": {
            "lat": 49.38,
            "lng": -66.94
          },
          "southwest": {
            "lat": 25.82,
            "lng": -124.39
          }
        }
      },
      "place_id": "ChIJCzYy5IS16lQRQrfeQ5K5Oxw",
      "types": [
        "country",
        "political"
      ]
    }
  ],
  "status": "OK"
}
