{
  "results": [
    {
      "address_components": [
        {
          "long_name": "Ashuelot Rail Trail",
          "short_name": "Ashuelot Rail Trail",
          "types": [
            "route"
          ]
        },
        {
          "long_name": "West Swanzey",
          "short_name": "West Swanzey",
          "types": [
            "neighborhood",
            "political"
          ]
        },
        {
          "long_name": "Swanzey",
          "short_name": "Swanzey",
          "types": [
            "locality",
            "political"
          ]
        },
        {
          "long_name": "Cheshire County",
          "short_name": "Cheshire County",
          "types": [
            "administrative_area_level_2",
            "political"
          ]
        },
        {
          "long_name": "New Hampshire",
          "short_name": "NH",
          "types": [
            "administrative_area_level_1",
            "political"
          ]
        },
        {
          "long_name": "United States",
          "short_name": "US",
          "types": [
            "country",
            "political"
          ]
        },
        {
          "long_name": "03446",
          "short_name": "03446",
          "types": [
            "postal_code"
          ]
        }
      ],
      "formatted_address": "Ashuelot Rail Trail, Swanzey, NH 03446, USA",
      "geometry": {
        "bounds": {
          "northeast": {
            "lat": 42.8718171,
            "lng": -72.3212159
          },
          "southwest": {
            "lat": 42.87022,
            "lng": -72.3225743
          }
        },
        "location": {
          "lat": 42.87107779999999,
          "lng": -72.32201429999999
        },
        "location_type": "GEOMETRIC_CENTER",
        "viewport": {
          "northeast": {
            "lat": 42.8723675302915,
            "lng": -72.32054611970848
          },
          "southwest": {
            "lat": 42.8696695697085,
            "lng": -72.3232440802915
          }
        }
      },
      "place_id": "ChIJm-W2AK9y4YkRBEiPLi3EBNc",
      "types": [
        "route"
      ]
    },
    {
      "address_components": [
        {
          "long_name": "West Swanzey",
          "short_name": "West Swanzey",
          "types": [
            "neighborhood",
            "political"
          ]
        },
        {
          "long_name": "Swanzey",
          "short_name": "Swanzey",
          "types": [
            "locality",
            "political"
          ]
        },
        {
          "long_name": "Cheshire County",
          "short_name": "Cheshire County",
          "types": [
            "administrative_area_level_2",
            "political"
          ]
        },
        {
          "long_name": "New Hampshire",
          "short_name": "NH",
          "types": [
            "administrative_area_level_1",
            "political"
          ]
        },
        {
          "long_name": "United States",
          "short_name": "US",
          "types": [
            "country",
            "political"
          ]
        },
        {
          "long_name": "03446",
          "short_name": "03446",
          "types": [
            "postal_code"
          ]
        }
      ],
      "formatted_address": "West Swanzey, Swanzey, NH 03446, USA",
      "geometry": {
        "bounds": {
          "northeast": {
            "lat": 42.8881468,
            "lng": -72.2921729
          },
          "southwest": {
            "lat": 42.84939199999999,
            "lng": -72.341098
          }
        },
        "location": {
          "lat": 42.8700819,
          "lng": -72.3217525
        },
        "location_type": "APPROXIMATE",
        "viewport": {
          "northeast": {
            "lat": 42.8881468,
            "lng": -72.2921729
          },
          "southwest": {
            "lat": 42.84939199999999,
            "lng": -72.341098
          }
        }
      },
      "place_id": "ChIJTdCN_a5y4YkR9QultGQiOqE",
      "types": [
        "neighborhood",
        "political"
      ]
    },
    {
      "address_components": [
        {
          "long_name": "Swanzey",
          "short_name": "Swanzey",
          "types": [
            "locality",
            "political"
          ]
        },
        {
          "long_name": "Cheshire County",
          "short_name": "Cheshire County",
          "types": [
            "administrative_area_level_2",
            "political"
          ]
        },
        {
          "long_name": "New Hampshire",
          "short_name": "NH",
          "types": [
            "administrative_area_level_1",
            "political"
          ]
        },
        {
          "long_name": "United States",
          "short_name": "US",
          "types": [
            "country",
            "political"
          ]
        }
      ],
      "formatted_address": "Swanzey, NH, USA",
      "geometry": {
        "bounds": {
          "northeast": {
            "lat": 42.911321,
            "lng": -72.2225129
          },
          "southwest": {
            "lat": 42.8054428,
            "lng": -72.3889871
          }
        },
        "location": {
          "lat": 42.8741204,
          "lng": -72.2795383
        },
        "location_type": "APPROXIMATE",
        "viewport": {
          "northeast": {
            "lat": 42.911321,
            "lng": -72.2225129
          },
          "southwest": {
            "lat": 42.8054428,
            "lng": -72.3889871
          }
        }
      },
      "place_id": "ChIJhUcLQWBt4YkRuYeeb1fnsF0",
      "types": [
        "locality",
        "political"
      ]
    },
    {
      "address_components": [
        {
          "long_name": "03446",
          "short_name": "03446",
          "types": [
            "postal_code"
          ]
        },
        {
          "long_name": "Swanzey",
          "short_name": "Swanzey",
          "types": [
            "locality",
            "political"
          ]
        },
        {
          "long_name": "Cheshire County",
          "short_name": "Cheshire County",
          "types": [
            "administrative_area_level_2",
            "political"
          ]
        },
        {
          "long_name": "New Hampshire",
          "short_name": "NH",
          "types": [
            "administrative_area_level_1",
            "political"
          ]
        },
        {
          "long_name": "United States",
          "short_name": "US",
          "types": [
            "country",
            "political"
          ]
        }
      ],
      "formatted_address": "Swanzey, NH 03446, USA",
      "geometry": {
        "bounds": {
          "northeast": {
            "lat": 42.9117559,
            "lng": -72.2129799
          },
          "southwest": {
            "lat": 42.795513,
            "lng": -72.3889871
          }
        },
        "location": {
          "lat": 42.8427802,
          "lng": -72.3074326
        },
        "location_type": "APPROXIMATE",
        "viewport": {
          "northeast": {
            "lat": 42.9117559,
            "lng": -72.2129799
          },
          "southwest": {
            "lat": 42.795513,
            "lng": -72.3889871
          }
        }
      },
      "place_id": "ChIJMcZlmWFt4YkRm5lFHJWJkzU",
      "types": [
        "postal_code"
      ]
    },
    {
      "address_components": [
        {
          "long_name": "Keene",
          "short_name": "Keene",
          "types": [
            "political"
          ]
        },
        {
          "long_name": "United States",
          "short_name": "US",
          "types": [
            "country",
            "political"
          ]
        }
      ],
      "formatted_address": "Keene, USA",
      "geometry": {
        "bounds": {
          "northeast": {
            "lat": 43.181962,
            "lng": -72.00103399999999
          },
          "southwest": {
            "lat": 42.716238,
            "lng": -72.556214
          }
        },
        "location": {
          "lat": 42.9712401,
          "lng": -72.28375
        },
        "location_type": "APPROXIMATE",
        "viewport": {
          "northeast": {
            "lat": 43.181962,
            "lng": -72.00103399999999
          },
          "southwest": {
            "lat": 42.716238,
            "lng": -72.556214
          }
        }
      },
      "place_id": "ChIJORQGyHx04YkR4i3qSakz3NU",
      "types": [
        "political"
      ]
    },
    {
      "address_components": [
        {
          "long_name": "Cheshire County",
          "short_name": "Cheshire County",
          "types": [
            "administrative_area_level_2",
            "political"
          ]
        },
        {
          "long_name": "New Hampshire",
          "short_name": "NH",
          "types": [
            "administrative_area_level_1",
            "political"
          ]
        },
        {
          "long_name": "United States",
          "short_name": "US",
          "types": [
            "country",
            "political"
          ]
        }
      ],
      "formatted_address": "Cheshire County, NH, USA",
      "geometry": {
        "bounds": {
          "northeast": {
            "lat": 43.181962,
            "lng": -71.928811
          },
          "southwest": {
            "lat": 42.7122338,
            "lng": -72.55718499999999
          }
        },
        "location": {
          "lat": 42.9259375,
          "lng": -72.236379
        },
        "location_type": "APPROXIMATE",
        "viewport": {
          "northeast": {
            "lat": 43.181962,
            "lng": -71.928811
          },
          "southwest": {
            "lat": 42.7122338,
            "lng": -72.55718499999999
          }
        }
      },
      "place_id": "ChIJ4xjGzvh14YkRtwt0ynXMmnI",
      "types": [
        "administrative_area_level_2",
        "political"
      ]
    },
    {
      "address_components": [
        {
          "long_name": "Keene",
          "short_name": "Keene",
          "types": [
            "political"
          ]
        },
        {
          "long_name": "United States",
          "short_name": "US",
          "types": [
            "country",
            "political"
          ]
        }
      ],
      "formatted_address": "Keene, USA",
      "geometry": {
        "bounds": {
          "northeast": {
            "lat": 43.181962,
            "lng": -71.928811
          },
          "southwest": {
            "lat": 42.712234,
            "lng": -72.5572471
          }
        },
        "location": {
          "lat": 42.9259375,
          "lng": -72.236379
        },
        "location_type": "APPROXIMATE",
        "viewport": {
          "northeast": {
            "lat": 43.181962,
            "lng": -71.928811
          },
          "southwest": {
            "lat": 42.712234,
            "lng": -72.5572471
          }
        }
      },
      "place_id": "ChIJ2VdRK_Bz4YkRMQT8FzkUQhM",
      "types": [
        "political"
      ]
    },
    {
      "address_components": [
        {
          "long_name": "New Hampshire",
          "short_name": "NH",
          "types": [
            "administrative_area_level_1",
            "political"
          ]
        },
        {
          "long_name": "United States",
          "short_name": "US",
          "types": [
            "country",
            "political"
          ]
        }
      ],
      "formatted_address": "New Hampshire, USA",
      "geometry": {
        "bounds": {
          "northeast": {
            "lat": 45.3054761,
            "lng": -70.6026612
          },
          "southwest": {
            "lat": 42.696985,
            "lng": -72.55718499999999
          }
        },
        "location": {
          "lat": 43.1938516,
          "lng": -71.5723953
        },
        "location_type": "APPROXIMATE",
        "viewport": {
          "northeast": {
            "lat": 45.3054761,
            "lng": -70.6026612
          },
          "southwest": {
            "lat": 42.696985,
            "lng": -72.55718499999999
          }
        }
      },
      "place_id": "ChIJ66bAnUtEs0wR64CmJa8CyNc",
      "types": [
        "administrative_area_level_1",
        "political"
      ]
    },
    {
      "address_components": [
        {
          "long_name": "United States",
          "short_name": "US",
          "types": [
            "country",
            "political"
          ]
        }
      ],
      "formatted_address": "United States",
      "geometry": {
        "bounds": {
          "northeast": {
            "lat": 71.3867745,
            "lng": -66.9502861
          },
          "southwest": {
            "lat": 18.9106768,
            "lng": 172.4458955
          }
        },
        "location": {
          "lat": 37.09024,
          "lng": -95.712891
        },
        "location_type": "APPROXIMATE",
        "viewport": {
          "northeast": {
            "lat": 49.38,
            "lng": -66.94
          },
          "southwest": {
            "lat": 25.82,
            "lng": -124.39
          }
        }
      },
      "place_id": "ChIJCzYy5IS16lQRQrfeQ5K5Oxw",
      "types": [
        "country",
        "political"
      ]
    }
  ],
  "status": "OK"
}
