{
  "results": [
    {
      "address_components": [
        {
          "long_name": "20433",
          "short_name": "20433",
          "types": [
            "street_number"
          ]
        },
        {
          "long_name": "Kedzie Avenue",
          "short_name": "Kedzie Ave",
          "types": [
            "route"
          ]
        },
        {
          "long_name": "Olympia Fields",
          "short_name": "Olympia Fields",
          "types": [
            "locality",
            "political"
          ]
        },
        {
          "long_name": "Rich Township",
          "short_name": "Rich Township",
          "types": [
            "administrative_area_level_3",
            "political"
          ]
        },
        {
          "long_name": "Cook County",
          "short_name": "Cook County",
          "types": [
            "administrative_area_level_2",
            "political"
          ]
        },
        {
          "long_name": "Illinois",
          "short_name": "IL",
          "types": [
            "administrative_area_level_1",
            "political"
          ]
        },
        {
          "long_name": "United States",
          "short_name": "US",
          "types": [
            "country",
            "political"
          ]
        },
        {
          "long_name": "60461",
          "short_name": "60461",
          "types": [
            "postal_code"
          ]
        },
        {
          "long_name": "1429",
          "short_name": "1429",
          "types": [
            "postal_code_suffix"
          ]
        }
      ],
      "formatted_address": "20433 Kedzie Ave, Olympia Fields, IL 60461, USA",
      "geometry": {
        "location": {
          "lat": 41.517434,
          "lng": -87.69278899999999
        },
        "location_type": "ROOFTOP",
        "viewport": {
          "northeast": {
            "lat": 41.5187829802915,
            "lng": -87.69144001970848
          },
          "southwest": {
            "lat": 41.5160850197085,
            "lng": -87.69413798029149
          }
        }
      },
      "place_id": "ChIJactVsuAZDogRkn7pNZ62Cg4",
      "types": [
        "street_address"
      ]
    },
    {
      "address_components": [
        {
          "long_name": "Olympia Fields",
          "short_name": "Olympia Fields",
          "types": [
            "locality",
            "political"
          ]
        },
        {
          "long_name": "Rich Township",
          "short_name": "Rich Township",
          "types": [
            "administrative_area_level_3",
            "political"
          ]
        },
        {
          "long_name": "Cook County",
          "short_name": "Cook County",
          "types": [
            "administrative_area_level_2",
            "political"
          ]
        },
        {
          "long_name": "Illinois",
          "short_name": "IL",
          "types": [
            "administrative_area_level_1",
            "political"
          ]
        },
        {
          "long_name": "United States",
          "short_name": "US",
          "types": [
            "country",
            "political"
          ]
        }
      ],
      "formatted_address": "Olympia Fields, IL, USA",
      "geometry": {
        "bounds": {
          "northeast": {
            "lat": 41.529134,
            "lng": -87.6646449
          },
          "southwest": {
            "lat": 41.5039339,
            "lng": -87.714446
          }
        },
        "location": {
          "lat": 41.5131999,
          "lng": -87.6926257
        },
        "location_type": "APPROXIMATE",
        "viewport": {
          "northeast": {
            "lat": 41.529134,
            "lng": -87.6646449
          },
          "southwest": {
            "lat": 41.5039339,
            "lng": -87.714446
          }
        }
      },
      "place_id": "ChIJ4_DVeeYZDogRGfBHBA6QpPg",
      "types": [
        "locality",
        "political"
      ]
    },
    {
      "address_components": [
        {
          "long_name": "60461",
          "short_name": "60461",
          "types": [
            "postal_code"
          ]
        },
        {
          "long_name": "Olympia Fields",
          "short_name": "Olympia Fields",
          "types": [
            "locality",
            "political"
          ]
        },
        {
          "long_name": "Cook County",
          "short_name": "Cook County",
          "types": [
            "administrative_area_level_2",
            "political"
          ]
        },
        {
          "long_name": "Illinois",
          "short_name": "IL",
          "types": [
            "administrative_area_level_1",
            "political"
          ]
        },
        {
          "long_name": "United States",
          "short_name": "US",
          "types": [
            "country",
            "political"
          ]
        }
      ],
      "formatted_address": "Olympia Fields, IL 60461, USA",
      "geometry": {
        "bounds": {
          "northeast": {
            "lat": 41.528214,
            "lng": -87.6646449
          },
          "southwest": {
            "lat": 41.503098,
            "lng": -87.71343399999999
          }
        },
        "location": {
          "lat": 41.5131999,
          "lng": -87.6926257
        },
        "location_type": "APPROXIMATE",
        "viewport": {
          "northeast": {
            "lat": 41.528214,
            "lng": -87.6646449
          },
          "southwest": {
            "lat": 41.503098,
            "lng": -87.71343399999999
          }
        }
      },
      "place_id": "ChIJiTkfTOcZDogRJqoiA2BNcHE",
      "types": [
        "postal_code"
      ]
    },
    {
      "address_components": [
        {
          "long_name": "Rich Township",
          "short_name": "Rich Township",
          "types": [
            "administrative_area_level_3",
            "political"
          ]
        },
        {
          "long_name": "Cook County",
          "short_name": "Cook County",
          "types": [
            "administrative_area_level_2",
            "political"
          ]
        },
        {
          "long_name": "Illinois",
          "short_name": "IL",
          "types": [
            "administrative_area_level_1",
            "political"
          ]
        },
        {
          "long_name": "United States",
          "short_name": "US",
          "types": [
            "country",
            "political"
          ]
        }
      ],
      "formatted_address": "Rich Township, IL, USA",
      "geometry": {
        "bounds": {
          "northeast": {
            "lat": 41.55893289999999,
            "lng": -87.6739439
          },
          "southwest": {
            "lat": 41.46953389999999,
            "lng": -87.7927491
          }
        },
        "location": {
          "lat": 41.5186856,
          "lng": -87.7172616
        },
        "location_type": "APPROXIMATE",
        "viewport": {
          "northeast": {
            "lat": 41.55893289999999,
            "lng": -87.6739439
          },
          "southwest": {
            "lat": 41.46953389999999,
            "lng": -87.7927491
          }
        }
      },
      "place_id": "ChIJccKihzoXDogR8j52OOJCUHI",
      "types": [
        "administrative_area_level_3",
        "political"
      ]
    },
    {
      "address_components": [
        {
          "long_name": "Cook County",
          "short_name": "Cook County",
          "types": [
            "administrative_area_level_2",
            "political"
          ]
        },
        {
          "long_name": "Illinois",
          "short_name": "IL",
          "types": [
            "administrative_area_level_1",
            "political"
          ]
        },
        {
          "long_name": "United States",
          "short_name": "US",
          "types": [
            "country",
            "political"
          ]
        }
      ],
      "formatted_address": "Cook County, IL, USA",
      "geometry": {
        "bounds": {
          "northeast": {
            "lat": 42.1543239,
            "lng": -87.52404399999999
          },
          "southwest": {
            "lat": 41.46953389999999,
            "lng": -88.2634779
          }
        },
        "location": {
          "lat": 41.7376587,
          "lng": -87.697554
        },
        "location_type": "APPROXIMATE",
        "viewport": {
          "northeast": {
            "lat": 42.1543239,
            "lng": -87.52404399999999
          },
          "southwest": {
            "lat": 41.46953389999999,
            "lng": -88.2634779
          }
        }
      },
      "place_id": "ChIJdRNDZqqxD4gRPOAOIwnX2Yo",
      "types": [
        "administrative_area_level_2",
        "political"
      ]
    },
    {
      "address_components": [
        {
          "long_name": "Chicago Metropolitan Area",
          "short_name": "Chicago Metropolitan Area",
          "types": [
            "political"
          ]
        },
        {
          "long_name": "United States",
          "short_name": "US",
          "types": [
            "country",
            "political"
          ]
        }
      ],
      "formatted_address": "Chicago Metropolitan Area, USA",
      "geometry": {
        "bounds": {
          "northeast": {
            "lat": 42.670123,
            "lng": -86.92925699999999
          },
          "southwest": {
            "lat": 40.7364641,
            "lng": -88.942292
          }
        },
        "location": {
          "lat": 41.7435073,
          "lng": -88.0118473
        },
        "location_type": "APPROXIMATE",
        "viewport": {
          "northeast": {
            "lat": 42.670123,
            "lng": -86.92925699999999
          },
          "southwest": {
            "lat": 40.7364641,
            "lng": -88.942292
          }
        }
      },
      "place_id": "ChIJg-CZjExEDogRNJNXmgqEe9o",
      "types": [
        "political"
      ]
    },
    {
      "address_components": [
        {
          "long_name": "Illinois",
          "short_name": "IL",
          "types": [
            "administrative_area_level_1",
            "political"
          ]
        },
        {
          "long_name": "United States",
          "short_name": "US",
          "types": [
            "country",
            "political"
          ]
        }
      ],
      "formatted_address": "Illinois, USA",
      "geometry": {
        "bounds": {
          "northeast": {
            "lat": 42.5083379,
            "lng": -87.4951991
          },
          "southwest": {
            "lat": 36.970298,
            "lng": -91.5130789
          }
        },
        "location": {
          "lat": 40.6331249,
          "lng": -89.3985283
        },
        "location_type": "APPROXIMATE",
        "viewport": {
          "northeast": {
            "lat": 42.5083379,
            "lng": -87.4951991
          },
          "southwest": {
            "lat": 36.970298,
            "lng": -91.5130789
          }
        }
      },
      "place_id": "ChIJGSZubzgtC4gRVlkRZFCCFX8",
      "types": [
        "administrative_area_level_1",
        "political"
      ]
    },
    {
      "address_components": [
        {
          "long_name": "United States",
          "short_name": "US",
          "types": [
            "country",
            "political"
          ]
        }
      ],
      "formatted_address": "United States",
      "geometry": {
        "bounds": {
          "northeast": {
            "lat": 71.3867745,
            "lng": -66.9502861
          },
          "southwest": {
            "lat": 18.9106768,
            "lng": 172.4458955
          }
        },
        "location": {
          "lat": 37.09024,
          "lng": -95.712891
        },
        "location_type": "APPROXIMATE",
        "viewport": {
          "northeast": {
            "lat": 49.38,
            "lng": -66.94
          },
          "southwest": {
            "lat": 25.82,
            "lng": -124.39
          }
        }
      },
      "place_id": "ChIJCzYy5IS16lQRQrfeQ5K5Oxw",
      "types": [
        "country",
        "political"
      ]
    }
  ],
  "status": "OK"
}
