{
  "results": [
    {
      "address_components": [
        {
          "long_name": "18342-18346",
          "short_name": "18342-18346",
          "types": [
            "street_number"
          ]
        },
        {
          "long_name": "James Street",
          "short_name": "James St",
          "types": [
            "route"
          ]
        },
        {
          "long_name": "Wilmington",
          "short_name": "Wilmington",
          "types": [
            "locality",
            "political"
          ]
        },
        {
          "long_name": "Florence Township",
          "short_name": "Florence Township",
          "types": [
            "administrative_area_level_3",
            "political"
          ]
        },
        {
          "long_name": "Will County",
          "short_name": "Will County",
          "types": [
            "administrative_area_level_2",
            "political"
          ]
        },
        {
          "long_name": "Illinois",
          "short_name": "IL",
          "types": [
            "administrative_area_level_1",
            "political"
          ]
        },
        {
          "long_name": "United States",
          "short_name": "US",
          "types": [
            "country",
            "political"
          ]
        },
        {
          "long_name": "60481",
          "short_name": "60481",
          "types": [
            "postal_code"
          ]
        }
      ],
      "formatted_address": "18342-18346 James St, Wilmington, IL 60481, USA",
      "geometry": {
        "bounds": {
          "northeast": {
            "lat": 41.32845469999999,
            "lng": -88.05383379999999
          },
          "southwest": {
            "lat": 41.3279833,
            "lng": -88.0538476
          }
        },
        "location": {
          "lat": 41.32800710000001,
          "lng": -88.0538533
        },
        "location_type": "RANGE_INTERPOLATED",
        "viewport": {
          "northeast": {
            "lat": 41.3295679802915,
            "lng": -88.05249171970848
          },
          "southwest": {
            "lat": 41.3268700197085,
            "lng": -88.0551896802915
          }
        }
      },
      "place_id": "Ei8xODM0Mi0xODM0NiBKYW1lcyBTdCwgV2lsbWluZ3RvbiwgSUwgNjA0ODEsIFVTQQ",
      "types": [
        "street_address"
      ]
    },
    {
      "address_components": [
        {
          "long_name": "Symerton",
          "short_name": "Symerton",
          "types": [
            "locality",
            "political"
          ]
        },
        {
          "long_name": "Florence Township",
          "short_name": "Florence Township",
          "types": [
            "administrative_area_level_3",
            "political"
          ]
        },
        {
          "long_name": "Will County",
          "short_name": "Will County",
          "types": [
            "administrative_area_level_2",
            "political"
          ]
        },
        {
          "long_name": "Illinois",
          "short_name": "IL",
          "types": [
            "administrative_area_level_1",
            "political"
          ]
        },
        {
          "long_name": "United States",
          "short_name": "US",
          "types": [
            "country",
            "political"
          ]
        },
        {
          "long_name": "60481",
          "short_name": "60481",
          "types": [
            "postal_code"
          ]
        }
      ],
      "formatted_address": "Symerton, IL 60481, USA",
      "geometry": {
        "bounds": {
          "northeast": {
            "lat": 41.3296039,
            "lng": -88.050558
          },
          "southwest": {
            "lat": 41.324628,
            "lng": -88.05616200000001
          }
        },
        "location": {
          "lat": 41.32864259999999,
          "lng": -88.05255389999999
        },
        "location_type": "APPROXIMATE",
        "viewport": {
          "northeast": {
            "lat": 41.3296039,
            "lng": -88.050558
          },
          "southwest": {
            "lat": 41.324628,
            "lng": -88.05616200000001
          }
        }
      },
      "place_id": "ChIJx6MsQnR5DogRK-aGyOabJ70",
      "types": [
        "locality",
        "political"
      ]
    },
    {
      "address_components": [
        {
          "long_name": "Florence Township",
          "short_name": "Florence Township",
          "types": [
            "administrative_area_level_3",
            "political"
          ]
        },
        {
          "long_name": "Will County",
          "short_name": "Will County",
          "types": [
            "administrative_area_level_2",
            "political"
          ]
        },
        {
          "long_name": "Illinois",
          "short_name": "IL",
          "types": [
            "administrative_area_level_1",
            "political"
          ]
        },
        {
          "long_name": "United States",
          "short_name": "US",
          "types": [
            "country",
            "political"
          ]
        }
      ],
      "formatted_address": "Florence Township, IL, USA",
      "geometry": {
        "bounds": {
          "northeast": {
            "lat": 41.37993100000001,
            "lng": -88.01586909999999
          },
          "southwest": {
            "lat": 41.2910441,
            "lng": -88.1347299
          }
        },
        "location": {
          "lat": 41.32494519999999,
          "lng": -88.0705319
        },
        "location_type": "APPROXIMATE",
        "viewport": {
          "northeast": {
            "lat": 41.37993100000001,
            "lng": -88.01586909999999
          },
          "southwest": {
            "lat": 41.2910441,
            "lng": -88.1347299
          }
        }
      },
      "place_id": "ChIJm3H1czl8DogRxgcdTumo1fg",
      "types": [
        "administrative_area_level_3",
        "political"
      ]
    },
    {
      "address_components": [
        {
          "long_name": "60481",
          "short_name": "60481",
          "types": [
            "postal_code"
          ]
        },
        {
          "long_name": "Wilmington",
          "short_name": "Wilmington",
          "types": [
            "locality",
            "political"
          ]
        },
        {
          "long_name": "Illinois",
          "short_name": "IL",
          "types": [
            "administrative_area_level_1",
            "political"
          ]
        },
        {
          "long_name": "United States",
          "short_name": "US",
          "types": [
            "country",
            "political"
          ]
        }
      ],
      "formatted_address": "Wilmington, IL 60481, USA",
      "geometry": {
        "bounds": {
          "northeast": {
            "lat": 41.430273,
            "lng": -87.976359
          },
          "southwest": {
            "lat": 41.18971510000001,
            "lng": -88.26705799999999
          }
        },
        "location": {
          "lat": 41.3058508,
          "lng": -88.1291387
        },
        "location_type": "APPROXIMATE",
        "viewport": {
          "northeast": {
            "lat": 41.430273,
            "lng": -87.976359
          },
          "southwest": {
            "lat": 41.18971510000001,
            "lng": -88.26705799999999
          }
        }
      },
      "place_id": "ChIJ5SHqfVTVDYgRrjf0GXa4ab4",
      "postcode_localities": [
        "Custer Park",
        "Wilmington"
      ],
      "types": [
        "postal_code"
      ]
    },
    {
      "address_components": [
        {
          "long_name": "Will County",
          "short_name": "Will County",
          "types": [
            "administrative_area_level_2",
            "political"
          ]
        },
        {
          "long_name": "Illinois",
          "short_name": "IL",
          "types": [
            "administrative_area_level_1",
            "political"
          ]
        },
        {
          "long_name": "United States",
          "short_name": "US",
          "types": [
            "country",
            "political"
          ]
        }
      ],
      "formatted_address": "Will County, IL, USA",
      "geometry": {
        "bounds": {
          "northeast": {
            "lat": 41.72893,
            "lng": -87.52530209999999
          },
          "southwest": {
            "lat": 41.2015529,
            "lng": -88.2614679
          }
        },
        "location": {
          "lat": 41.5054724,
          "lng": -88.0900762
        },
        "location_type": "APPROXIMATE",
        "viewport": {
          "northeast": {
            "lat": 41.72893,
            "lng": -87.52530209999999
          },
          "southwest": {
            "lat": 41.2015529,
            "lng": -88.2614679
          }
        }
      },
      "place_id": "ChIJuwvCvgOLDogRSNhOfXa7wKA",
      "types": [
        "administrative_area_level_2",
        "political"
      ]
    },
    {
      "address_components": [
        {
          "long_name": "Chicago Metropolitan Area",
          "short_name": "Chicago Metropolitan Area",
          "types": [
            "political"
          ]
        },
        {
          "long_name": "United States",
          "short_name": "US",
          "types": [
            "country",
            "political"
          ]
        }
      ],
      "formatted_address": "Chicago Metropolitan Area, USA",
      "geometry": {
        "bounds": {
          "northeast": {
            "lat": 42.670123,
            "lng": -86.92925699999999
          },
          "southwest": {
            "lat": 40.7364641,
            "lng": -88.942292
          }
        },
        "location": {
          "lat": 41.7435073,
          "lng": -88.0118473
        },
        "location_type": "APPROXIMATE",
        "viewport": {
          "northeast": {
            "lat": 42.670123,
            "lng": -86.92925699999999
          },
          "southwest": {
            "lat": 40.7364641,
            "lng": -88.942292
          }
        }
      },
      "place_id": "ChIJg-CZjExEDogRNJNXmgqEe9o",
      "types": [
        "political"
      ]
    },
    {
      "address_components": [
        {
          "long_name": "Illinois",
          "short_name": "IL",
          "types": [
            "administrative_area_level_1",
            "political"
          ]
        },
        {
          "long_name": "United States",
          "short_name": "US",
          "types": [
            "country",
            "political"
          ]
        }
      ],
      "formatted_address": "Illinois, USA",
      "geometry": {
        "bounds": {
          "northeast": {
            "lat": 42.5083379,
            "lng": -87.4951991
          },
          "southwest": {
            "lat": 36.970298,
            "lng": -91.5130789
          }
        },
        "location": {
          "lat": 40.6331249,
          "lng": -89.3985283
        },
        "location_type": "APPROXIMATE",
        "viewport": {
          "northeast": {
            "lat": 42.5083379,
            "lng": -87.4951991
          },
          "southwest": {
            "lat": 36.970298,
            "lng": -91.5130789
          }
        }
      },
      "place_id": "ChIJGSZubzgtC4gRVlkRZFCCFX8",
      "types": [
        "administrative_area_level_1",
        "political"
      ]
    },
    {
      "address_components": [
        {
          "long_name": "United States",
          "short_name": "US",
          "types": [
            "country",
            "political"
          ]
        }
      ],
      "formatted_address": "United States",
      "geometry": {
        "bounds": {
          "northeast": {
            "lat": 71.3867745,
            "lng": -66.9502861
          },
          "southwest": {
            "lat": 18.9106768,
            "lng": 172.4458955
          }
        },
        "location": {
          "lat": 37.09024,
          "lng": -95.712891
        },
        "location_type": "APPROXIMATE",
        "viewport": {
          "northeast": {
            "lat": 49.38,
            "lng": -66.94
          },
          "southwest": {
            "lat": 25.82,
            "lng": -124.39
          }
        }
      },
      "place_id": "ChIJCzYy5IS16lQRQrfeQ5K5Oxw",
      "types": [
        "country",
        "political"
      ]
    }
  ],
  "status": "OK"
}
