{
  "results": [
    {
      "address_components": [
        {
          "long_name": "1725",
          "short_name": "1725",
          "types": [
            "street_number"
          ]
        },
        {
          "long_name": "Tomahawk Trail",
          "short_name": "Tomahawk Trail",
          "types": [
            "route"
          ]
        },
        {
          "long_name": "Round Lake Heights",
          "short_name": "Round Lake Heights",
          "types": [
            "locality",
            "political"
          ]
        },
        {
          "long_name": "Avon Township",
          "short_name": "Avon Township",
          "types": [
            "administrative_area_level_3",
            "political"
          ]
        },
        {
          "long_name": "Lake County",
          "short_name": "Lake County",
          "types": [
            "administrative_area_level_2",
            "political"
          ]
        },
        {
          "long_name": "Illinois",
          "short_name": "IL",
          "types": [
            "administrative_area_level_1",
            "political"
          ]
        },
        {
          "long_name": "United States",
          "short_name": "US",
          "types": [
            "country",
            "political"
          ]
        },
        {
          "long_name": "60073",
          "short_name": "60073",
          "types": [
            "postal_code"
          ]
        },
        {
          "long_name": "1133",
          "short_name": "1133",
          "types": [
            "postal_code_suffix"
          ]
        }
      ],
      "formatted_address": "1725 Tomahawk Trail, Round Lake Heights, IL 60073, USA",
      "geometry": {
        "location": {
          "lat": 42.38583999999999,
          "lng": -88.103623
        },
        "location_type": "ROOFTOP",
        "viewport": {
          "northeast": {
            "lat": 42.3871889802915,
            "lng": -88.1022740197085
          },
          "southwest": {
            "lat": 42.3844910197085,
            "lng": -88.10497198029151
          }
        }
      },
      "place_id": "ChIJBXeaIU-DD4gRemfMKuoO0SM",
      "types": [
        "street_address"
      ]
    },
    {
      "address_components": [
        {
          "long_name": "Round Lake Heights",
          "short_name": "Round Lake Heights",
          "types": [
            "locality",
            "political"
          ]
        },
        {
          "long_name": "Lake County",
          "short_name": "Lake County",
          "types": [
            "administrative_area_level_2",
            "political"
          ]
        },
        {
          "long_name": "Illinois",
          "short_name": "IL",
          "types": [
            "administrative_area_level_1",
            "political"
          ]
        },
        {
          "long_name": "United States",
          "short_name": "US",
          "types": [
            "country",
            "political"
          ]
        }
      ],
      "formatted_address": "Round Lake Heights, IL, USA",
      "geometry": {
        "bounds": {
          "northeast": {
            "lat": 42.3941139,
            "lng": -88.09706589999999
          },
          "southwest": {
            "lat": 42.378924,
            "lng": -88.11321199999999
          }
        },
        "location": {
          "lat": 42.3800212,
          "lng": -88.1042489
        },
        "location_type": "APPROXIMATE",
        "viewport": {
          "northeast": {
            "lat": 42.3941139,
            "lng": -88.09706589999999
          },
          "southwest": {
            "lat": 42.378924,
            "lng": -88.11321199999999
          }
        }
      },
      "place_id": "ChIJMUUJuk6DD4gRTzqplaBueOE",
      "types": [
        "locality",
        "political"
      ]
    },
    {
      "address_components": [
        {
          "long_name": "60073",
          "short_name": "60073",
          "types": [
            "postal_code"
          ]
        },
        {
          "long_name": "Round Lake",
          "short_name": "Round Lake",
          "types": [
            "locality",
            "political"
          ]
        },
        {
          "long_name": "Lake County",
          "short_name": "Lake County",
          "types": [
            "administrative_area_level_2",
            "political"
          ]
        },
        {
          "long_name": "Illinois",
          "short_name": "IL",
          "types": [
            "administrative_area_level_1",
            "political"
          ]
        },
        {
          "long_name": "United States",
          "short_name": "US",
          "types": [
            "country",
            "political"
          ]
        }
      ],
      "formatted_address": "Round Lake, IL 60073, USA",
      "geometry": {
        "bounds": {
          "northeast": {
            "lat": 42.39806,
            "lng": -88.0474079
          },
          "southwest": {
            "lat": 42.293484,
            "lng": -88.1852919
          }
        },
        "location": {
          "lat": 42.3612999,
          "lng": -88.0899304
        },
        "location_type": "APPROXIMATE",
        "viewport": {
          "northeast": {
            "lat": 42.39806,
            "lng": -88.0474079
          },
          "southwest": {
            "lat": 42.293484,
            "lng": -88.1852919
          }
        }
      },
      "place_id": "ChIJQyQXRyuFD4gR2buCl2_Z4G8",
      "postcode_localities": [
        "Hainesville",
        "Round Lake",
        "Round Lake Beach",
        "Round Lake Heights",
        "Round Lake Park",
        "Volo"
      ],
      "types": [
        "postal_code"
      ]
    },
    {
      "address_components": [
        {
          "long_name": "Avon Township",
          "short_name": "Avon Township",
          "types": [
            "administrative_area_level_3",
            "political"
          ]
        },
        {
          "long_name": "Lake County",
          "short_name": "Lake County",
          "types": [
            "administrative_area_level_2",
            "political"
          ]
        },
        {
          "long_name": "Illinois",
          "short_name": "IL",
          "types": [
            "administrative_area_level_1",
            "political"
          ]
        },
        {
          "long_name": "United States",
          "short_name": "US",
          "types": [
            "country",
            "political"
          ]
        }
      ],
      "formatted_address": "Avon Township, IL, USA",
      "geometry": {
        "bounds": {
          "northeast": {
            "lat": 42.3864589,
            "lng": -88.0039539
          },
          "southwest": {
            "lat": 42.327399,
            "lng": -88.1208209
          }
        },
        "location": {
          "lat": 42.3579855,
          "lng": -88.0705319
        },
        "location_type": "APPROXIMATE",
        "viewport": {
          "northeast": {
            "lat": 42.3864589,
            "lng": -88.0039539
          },
          "southwest": {
            "lat": 42.327399,
            "lng": -88.1208209
          }
        }
      },
      "place_id": "ChIJGxxKvxebD4gR8MuanFAwfwU",
      "types": [
        "administrative_area_level_3",
        "political"
      ]
    },
    {
      "address_components": [
        {
          "long_name": "Lake County",
          "short_name": "Lake County",
          "types": [
            "administrative_area_level_2",
            "political"
          ]
        },
        {
          "long_name": "Illinois",
          "short_name": "IL",
          "types": [
            "administrative_area_level_1",
            "political"
          ]
        },
        {
          "long_name": "United States",
          "short_name": "US",
          "types": [
            "country",
            "political"
          ]
        }
      ],
      "formatted_address": "Lake County, IL, USA",
      "geometry": {
        "bounds": {
          "northeast": {
            "lat": 42.49563699999999,
            "lng": -87.75900469999999
          },
          "southwest": {
            "lat": 42.152361,
            "lng": -88.1997628
          }
        },
        "location": {
          "lat": 42.3689363,
          "lng": -87.8271534
        },
        "location_type": "APPROXIMATE",
        "viewport": {
          "northeast": {
            "lat": 42.49563699999999,
            "lng": -87.75900469999999
          },
          "southwest": {
            "lat": 42.152361,
            "lng": -88.1997628
          }
        }
      },
      "place_id": "ChIJKdUvmscAD4gRZsVGNFFqkhs",
      "types": [
        "administrative_area_level_2",
        "political"
      ]
    },
    {
      "address_components": [
        {
          "long_name": "Chicago Metropolitan Area",
          "short_name": "Chicago Metropolitan Area",
          "types": [
            "political"
          ]
        },
        {
          "long_name": "United States",
          "short_name": "US",
          "types": [
            "country",
            "political"
          ]
        }
      ],
      "formatted_address": "Chicago Metropolitan Area, USA",
      "geometry": {
        "bounds": {
          "northeast": {
            "lat": 42.670123,
            "lng": -86.92925699999999
          },
          "southwest": {
            "lat": 40.7364641,
            "lng": -88.942292
          }
        },
        "location": {
          "lat": 41.7435073,
          "lng": -88.0118473
        },
        "location_type": "APPROXIMATE",
        "viewport": {
          "northeast": {
            "lat": 42.670123,
            "lng": -86.92925699999999
          },
          "southwest": {
            "lat": 40.7364641,
            "lng": -88.942292
          }
        }
      },
      "place_id": "ChIJg-CZjExEDogRNJNXmgqEe9o",
      "types": [
        "political"
      ]
    },
    {
      "address_components": [
        {
          "long_name": "Illinois",
          "short_name": "IL",
          "types": [
            "administrative_area_level_1",
            "political"
          ]
        },
        {
          "long_name": "United States",
          "short_name": "US",
          "types": [
            "country",
            "political"
          ]
        }
      ],
      "formatted_address": "Illinois, USA",
      "geometry": {
        "bounds": {
          "northeast": {
            "lat": 42.5083379,
            "lng": -87.4951991
          },
          "southwest": {
            "lat": 36.970298,
            "lng": -91.5130789
          }
        },
        "location": {
          "lat": 40.6331249,
          "lng": -89.3985283
        },
        "location_type": "APPROXIMATE",
        "viewport": {
          "northeast": {
            "lat": 42.5083379,
            "lng": -87.4951991
          },
          "southwest": {
            "lat": 36.970298,
            "lng": -91.5130789
          }
        }
      },
      "place_id": "ChIJGSZubzgtC4gRVlkRZFCCFX8",
      "types": [
        "administrative_area_level_1",
        "political"
      ]
    },
    {
      "address_components": [
        {
          "long_name": "United States",
          "short_name": "US",
          "types": [
            "country",
            "political"
          ]
        }
      ],
      "formatted_address": "United States",
      "geometry": {
        "bounds": {
          "northeast": {
            "lat": 71.3867745,
            "lng": -66.9502861
          },
          "southwest": {
            "lat": 18.9106768,
            "lng": 172.4458955
          }
        },
        "location": {
          "lat": 37.09024,
          "lng": -95.712891
        },
        "location_type": "APPROXIMATE",
        "viewport": {
          "northeast": {
            "lat": 49.38,
            "lng": -66.94
          },
          "southwest": {
            "lat": 25.82,
            "lng": -124.39
          }
        }
      },
      "place_id": "ChIJCzYy5IS16lQRQrfeQ5K5Oxw",
      "types": [
        "country",
        "political"
      ]
    }
  ],
  "status": "OK"
}
