{
  "results": [
    {
      "address_components": [
        {
          "long_name": "200-298",
          "short_name": "200-298",
          "types": [
            "street_number"
          ]
        },
        {
          "long_name": "East 3rd Street",
          "short_name": "E 3rd St",
          "types": [
            "route"
          ]
        },
        {
          "long_name": "Pleasant Plains",
          "short_name": "Pleasant Plains",
          "types": [
            "locality",
            "political"
          ]
        },
        {
          "long_name": "Cartwright Township",
          "short_name": "Cartwright Township",
          "types": [
            "administrative_area_level_3",
            "political"
          ]
        },
        {
          "long_name": "Sangamon County",
          "short_name": "Sangamon County",
          "types": [
            "administrative_area_level_2",
            "political"
          ]
        },
        {
          "long_name": "Illinois",
          "short_name": "IL",
          "types": [
            "administrative_area_level_1",
            "political"
          ]
        },
        {
          "long_name": "United States",
          "short_name": "US",
          "types": [
            "country",
            "political"
          ]
        },
        {
          "long_name": "62677",
          "short_name": "62677",
          "types": [
            "postal_code"
          ]
        },
        {
          "long_name": "3598",
          "short_name": "3598",
          "types": [
            "postal_code_suffix"
          ]
        }
      ],
      "formatted_address": "200-298 E 3rd St, Pleasant Plains, IL 62677, USA",
      "geometry": {
        "bounds": {
          "northeast": {
            "lat": 39.8748142,
            "lng": -89.91813230000001
          },
          "southwest": {
            "lat": 39.8747874,
            "lng": -89.91954179999999
          }
        },
        "location": {
          "lat": 39.874792,
          "lng": -89.9186785
        },
        "location_type": "RANGE_INTERPOLATED",
        "viewport": {
          "northeast": {
            "lat": 39.87614978029149,
            "lng": -89.91748806970851
          },
          "southwest": {
            "lat": 39.87345181970849,
            "lng": -89.92018603029152
          }
        }
      },
      "place_id": "EjAyMDAtMjk4IEUgM3JkIFN0LCBQbGVhc2FudCBQbGFpbnMsIElMIDYyNjc3LCBVU0E",
      "types": [
        "street_address"
      ]
    },
    {
      "address_components": [
        {
          "long_name": "Pleasant Plains",
          "short_name": "Pleasant Plains",
          "types": [
            "locality",
            "political"
          ]
        },
        {
          "long_name": "Cartwright Township",
          "short_name": "Cartwright Township",
          "types": [
            "administrative_area_level_3",
            "political"
          ]
        },
        {
          "long_name": "Sangamon County",
          "short_name": "Sangamon County",
          "types": [
            "administrative_area_level_2",
            "political"
          ]
        },
        {
          "long_name": "Illinois",
          "short_name": "IL",
          "types": [
            "administrative_area_level_1",
            "political"
          ]
        },
        {
          "long_name": "United States",
          "short_name": "US",
          "types": [
            "country",
            "political"
          ]
        },
        {
          "long_name": "62677",
          "short_name": "62677",
          "types": [
            "postal_code"
          ]
        }
      ],
      "formatted_address": "Pleasant Plains, IL 62677, USA",
      "geometry": {
        "bounds": {
          "northeast": {
            "lat": 39.8865209,
            "lng": -89.909725
          },
          "southwest": {
            "lat": 39.8654749,
            "lng": -89.9312059
          }
        },
        "location": {
          "lat": 39.8728269,
          "lng": -89.9212211
        },
        "location_type": "APPROXIMATE",
        "viewport": {
          "northeast": {
            "lat": 39.8865209,
            "lng": -89.909725
          },
          "southwest": {
            "lat": 39.8654749,
            "lng": -89.9312059
          }
        }
      },
      "place_id": "ChIJ1WRYRDhQdYgRLdHV4IAhO0w",
      "types": [
        "locality",
        "political"
      ]
    },
    {
      "address_components": [
        {
          "long_name": "Cartwright Township",
          "short_name": "Cartwright Township",
          "types": [
            "administrative_area_level_3",
            "political"
          ]
        },
        {
          "long_name": "Sangamon County",
          "short_name": "Sangamon County",
          "types": [
            "administrative_area_level_2",
            "political"
          ]
        },
        {
          "long_name": "Illinois",
          "short_name": "IL",
          "types": [
            "administrative_area_level_1",
            "political"
          ]
        },
        {
          "long_name": "United States",
          "short_name": "US",
          "types": [
            "country",
            "political"
          ]
        }
      ],
      "formatted_address": "Cartwright Township, IL, USA",
      "geometry": {
        "bounds": {
          "northeast": {
            "lat": 39.902157,
            "lng": -89.824011
          },
          "southwest": {
            "lat": 39.7853289,
            "lng": -89.994524
          }
        },
        "location": {
          "lat": 39.8578579,
          "lng": -89.8879304
        },
        "location_type": "APPROXIMATE",
        "viewport": {
          "northeast": {
            "lat": 39.902157,
            "lng": -89.824011
          },
          "southwest": {
            "lat": 39.7853289,
            "lng": -89.994524
          }
        }
      },
      "place_id": "ChIJN2UOjL5QdYgRWkyertoivcg",
      "types": [
        "administrative_area_level_3",
        "political"
      ]
    },
    {
      "address_components": [
        {
          "long_name": "62677",
          "short_name": "62677",
          "types": [
            "postal_code"
          ]
        },
        {
          "long_name": "Pleasant Plains",
          "short_name": "Pleasant Plains",
          "types": [
            "locality",
            "political"
          ]
        },
        {
          "long_name": "Illinois",
          "short_name": "IL",
          "types": [
            "administrative_area_level_1",
            "political"
          ]
        },
        {
          "long_name": "United States",
          "short_name": "US",
          "types": [
            "country",
            "political"
          ]
        }
      ],
      "formatted_address": "Pleasant Plains, IL 62677, USA",
      "geometry": {
        "bounds": {
          "northeast": {
            "lat": 39.9162089,
            "lng": -89.7340909
          },
          "southwest": {
            "lat": 39.744969,
            "lng": -89.99969999999999
          }
        },
        "location": {
          "lat": 39.8372962,
          "lng": -89.9066314
        },
        "location_type": "APPROXIMATE",
        "viewport": {
          "northeast": {
            "lat": 39.9162089,
            "lng": -89.7340909
          },
          "southwest": {
            "lat": 39.744969,
            "lng": -89.99969999999999
          }
        }
      },
      "place_id": "ChIJjSV_jVFQdYgR9LKeo-j5r7o",
      "postcode_localities": [
        "Farmingdale",
        "Pleasant Plains",
        "Richland",
        "Salisbury"
      ],
      "types": [
        "postal_code"
      ]
    },
    {
      "address_components": [
        {
          "long_name": "Sangamon County",
          "short_name": "Sangamon County",
          "types": [
            "administrative_area_level_2",
            "political"
          ]
        },
        {
          "long_name": "Illinois",
          "short_name": "IL",
          "types": [
            "administrative_area_level_1",
            "political"
          ]
        },
        {
          "long_name": "United States",
          "short_name": "US",
          "types": [
            "country",
            "political"
          ]
        }
      ],
      "formatted_address": "Sangamon County, IL, USA",
      "geometry": {
        "bounds": {
          "northeast": {
            "lat": 39.9767359,
            "lng": -89.2173739
          },
          "southwest": {
            "lat": 39.522052,
            "lng": -89.994524
          }
        },
        "location": {
          "lat": 39.7337353,
          "lng": -89.62516459999999
        },
        "location_type": "APPROXIMATE",
        "viewport": {
          "northeast": {
            "lat": 39.9767359,
            "lng": -89.2173739
          },
          "southwest": {
            "lat": 39.522052,
            "lng": -89.994524
          }
        }
      },
      "place_id": "ChIJjQBm7XBqdYgRe4_c2pUEMSQ",
      "types": [
        "administrative_area_level_2",
        "political"
      ]
    },
    {
      "address_components": [
        {
          "long_name": "Springfield",
          "short_name": "Springfield",
          "types": [
            "political"
          ]
        },
        {
          "long_name": "Illinois",
          "short_name": "IL",
          "types": [
            "administrative_area_level_1",
            "political"
          ]
        },
        {
          "long_name": "United States",
          "short_name": "US",
          "types": [
            "country",
            "political"
          ]
        }
      ],
      "formatted_address": "Springfield, IL, USA",
      "geometry": {
        "bounds": {
          "northeast": {
            "lat": 40.1606629,
            "lng": -89.2173739
          },
          "southwest": {
            "lat": 39.520502,
            "lng": -89.9950279
          }
        },
        "location": {
          "lat": 39.898831,
          "lng": -89.77553379999999
        },
        "location_type": "APPROXIMATE",
        "viewport": {
          "northeast": {
            "lat": 40.1606629,
            "lng": -89.2173739
          },
          "southwest": {
            "lat": 39.520502,
            "lng": -89.9950279
          }
        }
      },
      "place_id": "ChIJqR95n-M3dYgRcyivJOibk30",
      "types": [
        "political"
      ]
    },
    {
      "address_components": [
        {
          "long_name": "Illinois",
          "short_name": "IL",
          "types": [
            "administrative_area_level_1",
            "political"
          ]
        },
        {
          "long_name": "United States",
          "short_name": "US",
          "types": [
            "country",
            "political"
          ]
        }
      ],
      "formatted_address": "Illinois, USA",
      "geometry": {
        "bounds": {
          "northeast": {
            "lat": 42.5083379,
            "lng": -87.4951991
          },
          "southwest": {
            "lat": 36.970298,
            "lng": -91.5130789
          }
        },
        "location": {
          "lat": 40.6331249,
          "lng": -89.3985283
        },
        "location_type": "APPROXIMATE",
        "viewport": {
          "northeast": {
            "lat": 42.5083379,
            "lng": -87.4951991
          },
          "southwest": {
            "lat": 36.970298,
            "lng": -91.5130789
          }
        }
      },
      "place_id": "ChIJGSZubzgtC4gRVlkRZFCCFX8",
      "types": [
        "administrative_area_level_1",
        "political"
      ]
    },
    {
      "address_components": [
        {
          "long_name": "United States",
          "short_name": "US",
          "types": [
            "country",
            "political"
          ]
        }
      ],
      "formatted_address": "United States",
      "geometry": {
        "bounds": {
          "northeast": {
            "lat": 71.3867745,
            "lng": -66.9502861
          },
          "southwest": {
            "lat": 18.9106768,
            "lng": 172.4458955
          }
        },
        "location": {
          "lat": 37.09024,
          "lng": -95.712891
        },
        "location_type": "APPROXIMATE",
        "viewport": {
          "northeast": {
            "lat": 49.38,
            "lng": -66.94
          },
          "southwest": {
            "lat": 25.82,
            "lng": -124.39
          }
        }
      },
      "place_id": "ChIJCzYy5IS16lQRQrfeQ5K5Oxw",
      "types": [
        "country",
        "political"
      ]
    }
  ],
  "status": "OK"
}
