{
  "results": [
    {
      "address_components": [
        {
          "long_name": "Church Driveway",
          "short_name": "Church Driveway",
          "types": [
            "route"
          ]
        },
        {
          "long_name": "Orviston",
          "short_name": "Orviston",
          "types": [
            "locality",
            "political"
          ]
        },
        {
          "long_name": "Curtin Township",
          "short_name": "Curtin Township",
          "types": [
            "administrative_area_level_3",
            "political"
          ]
        },
        {
          "long_name": "Centre County",
          "short_name": "Centre County",
          "types": [
            "administrative_area_level_2",
            "political"
          ]
        },
        {
          "long_name": "Pennsylvania",
          "short_name": "PA",
          "types": [
            "administrative_area_level_1",
            "political"
          ]
        },
        {
          "long_name": "United States",
          "short_name": "US",
          "types": [
            "country",
            "political"
          ]
        },
        {
          "long_name": "16864",
          "short_name": "16864",
          "types": [
            "postal_code"
          ]
        }
      ],
      "formatted_address": "Church Driveway, Orviston, PA 16864, USA",
      "geometry": {
        "bounds": {
          "northeast": {
            "lat": 41.10695,
            "lng": -77.752833
          },
          "southwest": {
            "lat": 41.1063041,
            "lng": -77.753181
          }
        },
        "location": {
          "lat": 41.1066653,
          "lng": -77.7528355
        },
        "location_type": "GEOMETRIC_CENTER",
        "viewport": {
          "northeast": {
            "lat": 41.1079760302915,
            "lng": -77.75165801970849
          },
          "southwest": {
            "lat": 41.1052780697085,
            "lng": -77.75435598029149
          }
        }
      },
      "place_id": "ChIJYdrtMVOFzokRMBPQdQCcGJM",
      "types": [
        "route"
      ]
    },
    {
      "address_components": [
        {
          "long_name": "Orviston",
          "short_name": "Orviston",
          "types": [
            "locality",
            "political"
          ]
        },
        {
          "long_name": "Curtin Township",
          "short_name": "Curtin Township",
          "types": [
            "administrative_area_level_3",
            "political"
          ]
        },
        {
          "long_name": "Centre County",
          "short_name": "Centre County",
          "types": [
            "administrative_area_level_2",
            "political"
          ]
        },
        {
          "long_name": "Pennsylvania",
          "short_name": "PA",
          "types": [
            "administrative_area_level_1",
            "political"
          ]
        },
        {
          "long_name": "United States",
          "short_name": "US",
          "types": [
            "country",
            "political"
          ]
        }
      ],
      "formatted_address": "Orviston, PA, USA",
      "geometry": {
        "bounds": {
          "northeast": {
            "lat": 41.112023,
            "lng": -77.7484181
          },
          "southwest": {
            "lat": 41.104627,
            "lng": -77.757718
          }
        },
        "location": {
          "lat": 41.1063561,
          "lng": -77.75294219999999
        },
        "location_type": "APPROXIMATE",
        "viewport": {
          "northeast": {
            "lat": 41.112023,
            "lng": -77.7484181
          },
          "southwest": {
            "lat": 41.104627,
            "lng": -77.757718
          }
        }
      },
      "place_id": "ChIJHxB9D1OFzokRTIsZ1yqoexQ",
      "types": [
        "locality",
        "political"
      ]
    },
    {
      "address_components": [
        {
          "long_name": "16864",
          "short_name": "16864",
          "types": [
            "postal_code"
          ]
        },
        {
          "long_name": "Orviston",
          "short_name": "Orviston",
          "types": [
            "locality",
            "political"
          ]
        },
        {
          "long_name": "Pennsylvania",
          "short_name": "PA",
          "types": [
            "administrative_area_level_1",
            "political"
          ]
        },
        {
          "long_name": "United States",
          "short_name": "US",
          "types": [
            "country",
            "political"
          ]
        }
      ],
      "formatted_address": "Orviston, PA 16864, USA",
      "geometry": {
        "bounds": {
          "northeast": {
            "lat": 41.1927011,
            "lng": -77.702711
          },
          "southwest": {
            "lat": 41.103642,
            "lng": -77.813526
          }
        },
        "location": {
          "lat": 41.1364263,
          "lng": -77.7566523
        },
        "location_type": "APPROXIMATE",
        "viewport": {
          "northeast": {
            "lat": 41.1927011,
            "lng": -77.702711
          },
          "southwest": {
            "lat": 41.103642,
            "lng": -77.813526
          }
        }
      },
      "place_id": "ChIJ_WPUyr6PzokR8vASRfjWXI8",
      "types": [
        "postal_code"
      ]
    },
    {
      "address_components": [
        {
          "long_name": "Curtin Township",
          "short_name": "Curtin Township",
          "types": [
            "administrative_area_level_3",
            "political"
          ]
        },
        {
          "long_name": "Centre County",
          "short_name": "Centre County",
          "types": [
            "administrative_area_level_2",
            "political"
          ]
        },
        {
          "long_name": "Pennsylvania",
          "short_name": "PA",
          "types": [
            "administrative_area_level_1",
            "political"
          ]
        },
        {
          "long_name": "United States",
          "short_name": "US",
          "types": [
            "country",
            "political"
          ]
        }
      ],
      "formatted_address": "Curtin Township, PA, USA",
      "geometry": {
        "bounds": {
          "northeast": {
            "lat": 41.182342,
            "lng": -77.6710729
          },
          "southwest": {
            "lat": 41.02140989999999,
            "lng": -77.8632839
          }
        },
        "location": {
          "lat": 41.09673859999999,
          "lng": -77.7566523
        },
        "location_type": "APPROXIMATE",
        "viewport": {
          "northeast": {
            "lat": 41.182342,
            "lng": -77.6710729
          },
          "southwest": {
            "lat": 41.02140989999999,
            "lng": -77.8632839
          }
        }
      },
      "place_id": "ChIJczPRFraazokR0hDGU-2YyQE",
      "types": [
        "administrative_area_level_3",
        "political"
      ]
    },
    {
      "address_components": [
        {
          "long_name": "Centre County",
          "short_name": "Centre County",
          "types": [
            "administrative_area_level_2",
            "political"
          ]
        },
        {
          "long_name": "Pennsylvania",
          "short_name": "PA",
          "types": [
            "administrative_area_level_1",
            "political"
          ]
        },
        {
          "long_name": "United States",
          "short_name": "US",
          "types": [
            "country",
            "political"
          ]
        }
      ],
      "formatted_address": "Centre County, PA, USA",
      "geometry": {
        "bounds": {
          "northeast": {
            "lat": 41.2527521,
            "lng": -77.1438039
          },
          "southwest": {
            "lat": 40.69155809999999,
            "lng": -78.376674
          }
        },
        "location": {
          "lat": 40.8765649,
          "lng": -77.8367282
        },
        "location_type": "APPROXIMATE",
        "viewport": {
          "northeast": {
            "lat": 41.2527521,
            "lng": -77.1438039
          },
          "southwest": {
            "lat": 40.69155809999999,
            "lng": -78.376674
          }
        }
      },
      "place_id": "ChIJGag74PqazokRAZZDKnhbMOk",
      "types": [
        "administrative_area_level_2",
        "political"
      ]
    },
    {
      "address_components": [
        {
          "long_name": "State College",
          "short_name": "State College",
          "types": [
            "political"
          ]
        },
        {
          "long_name": "Pennsylvania",
          "short_name": "PA",
          "types": [
            "administrative_area_level_1",
            "political"
          ]
        },
        {
          "long_name": "United States",
          "short_name": "US",
          "types": [
            "country",
            "political"
          ]
        }
      ],
      "formatted_address": "State College, PA, USA",
      "geometry": {
        "bounds": {
          "northeast": {
            "lat": 41.252868,
            "lng": -77.143667
          },
          "southwest": {
            "lat": 40.691591,
            "lng": -78.376678
          }
        },
        "location": {
          "lat": 40.8765649,
          "lng": -77.8367282
        },
        "location_type": "APPROXIMATE",
        "viewport": {
          "northeast": {
            "lat": 41.252868,
            "lng": -77.143667
          },
          "southwest": {
            "lat": 40.691591,
            "lng": -78.376678
          }
        }
      },
      "place_id": "ChIJZ-tZ-DOizokRDxWcxSBdBvQ",
      "types": [
        "political"
      ]
    },
    {
      "address_components": [
        {
          "long_name": "Pennsylvania",
          "short_name": "PA",
          "types": [
            "administrative_area_level_1",
            "political"
          ]
        },
        {
          "long_name": "United States",
          "short_name": "US",
          "types": [
            "country",
            "political"
          ]
        }
      ],
      "formatted_address": "Pennsylvania, USA",
      "geometry": {
        "bounds": {
          "northeast": {
            "lat": 42.2693866,
            "lng": -74.6895018
          },
          "southwest": {
            "lat": 39.7197989,
            "lng": -80.51989499999999
          }
        },
        "location": {
          "lat": 41.2033216,
          "lng": -77.1945247
        },
        "location_type": "APPROXIMATE",
        "viewport": {
          "northeast": {
            "lat": 42.2693866,
            "lng": -74.6895018
          },
          "southwest": {
            "lat": 39.7197989,
            "lng": -80.51989499999999
          }
        }
      },
      "place_id": "ChIJieUyHiaALYgRPbQiUEchRsI",
      "types": [
        "administrative_area_level_1",
        "political"
      ]
    },
    {
      "address_components": [
        {
          "long_name": "United States",
          "short_name": "US",
          "types": [
            "country",
            "political"
          ]
        }
      ],
      "formatted_address": "United States",
      "geometry": {
        "bounds": {
          "northeast": {
            "lat": 71.3867745,
            "lng": -66.9502861
          },
          "southwest": {
            "lat": 18.9106768,
            "lng": 172.4458955
          }
        },
        "location": {
          "lat": 37.09024,
          "lng": -95.712891
        },
        "location_type": "APPROXIMATE",
        "viewport": {
          "northeast": {
            "lat": 49.38,
            "lng": -66.94
          },
          "southwest": {
            "lat": 25.82,
            "lng": -124.39
          }
        }
      },
      "place_id": "ChIJCzYy5IS16lQRQrfeQ5K5Oxw",
      "types": [
        "country",
        "political"
      ]
    }
  ],
  "status": "OK"
}
