{
  "results": [
    {
      "address_components": [
        {
          "long_name": "2-98",
          "short_name": "2-98",
          "types": [
            "street_number"
          ]
        },
        {
          "long_name": "Costa Lane",
          "short_name": "Costa Ln",
          "types": [
            "route"
          ]
        },
        {
          "long_name": "Westport",
          "short_name": "Westport",
          "types": [
            "locality",
            "political"
          ]
        },
        {
          "long_name": "Bristol County",
          "short_name": "Bristol County",
          "types": [
            "administrative_area_level_2",
            "political"
          ]
        },
        {
          "long_name": "Massachusetts",
          "short_name": "MA",
          "types": [
            "administrative_area_level_1",
            "political"
          ]
        },
        {
          "long_name": "United States",
          "short_name": "US",
          "types": [
            "country",
            "political"
          ]
        },
        {
          "long_name": "02790",
          "short_name": "02790",
          "types": [
            "postal_code"
          ]
        },
        {
          "long_name": "4045",
          "short_name": "4045",
          "types": [
            "postal_code_suffix"
          ]
        }
      ],
      "formatted_address": "2-98 Costa Ln, Westport, MA 02790, USA",
      "geometry": {
        "bounds": {
          "northeast": {
            "lat": 41.65500369999999,
            "lng": -71.09351819999999
          },
          "southwest": {
            "lat": 41.6528583,
            "lng": -71.09440339999999
          }
        },
        "location": {
          "lat": 41.65374080000001,
          "lng": -71.0940074
        },
        "location_type": "RANGE_INTERPOLATED",
        "viewport": {
          "northeast": {
            "lat": 41.6552799802915,
            "lng": -71.0926118197085
          },
          "southwest": {
            "lat": 41.6525820197085,
            "lng": -71.0953097802915
          }
        }
      },
      "place_id": "EiYyLTk4IENvc3RhIExuLCBXZXN0cG9ydCwgTUEgMDI3OTAsIFVTQQ",
      "types": [
        "street_address"
      ]
    },
    {
      "address_components": [
        {
          "long_name": "Westport",
          "short_name": "Westport",
          "types": [
            "locality",
            "political"
          ]
        },
        {
          "long_name": "Bristol County",
          "short_name": "Bristol County",
          "types": [
            "administrative_area_level_2",
            "political"
          ]
        },
        {
          "long_name": "Massachusetts",
          "short_name": "MA",
          "types": [
            "administrative_area_level_1",
            "political"
          ]
        },
        {
          "long_name": "United States",
          "short_name": "US",
          "types": [
            "country",
            "political"
          ]
        }
      ],
      "formatted_address": "Westport, MA, USA",
      "geometry": {
        "bounds": {
          "northeast": {
            "lat": 41.692752,
            "lng": -71.02233609999999
          },
          "southwest": {
            "lat": 41.481308,
            "lng": -71.13846389999999
          }
        },
        "location": {
          "lat": 41.5700183,
          "lng": -71.0735476
        },
        "location_type": "APPROXIMATE",
        "viewport": {
          "northeast": {
            "lat": 41.692752,
            "lng": -71.02233609999999
          },
          "southwest": {
            "lat": 41.481308,
            "lng": -71.13846389999999
          }
        }
      },
      "place_id": "ChIJ44Nq4rD95IkRaNR49O2fUiY",
      "types": [
        "locality",
        "political"
      ]
    },
    {
      "address_components": [
        {
          "long_name": "02790",
          "short_name": "02790",
          "types": [
            "postal_code"
          ]
        },
        {
          "long_name": "Westport",
          "short_name": "Westport",
          "types": [
            "locality",
            "political"
          ]
        },
        {
          "long_name": "Massachusetts",
          "short_name": "MA",
          "types": [
            "administrative_area_level_1",
            "political"
          ]
        },
        {
          "long_name": "United States",
          "short_name": "US",
          "types": [
            "country",
            "political"
          ]
        }
      ],
      "formatted_address": "Westport, MA 02790, USA",
      "geometry": {
        "bounds": {
          "northeast": {
            "lat": 41.7574929,
            "lng": -71.0028751
          },
          "southwest": {
            "lat": 41.480332,
            "lng": -71.13846389999999
          }
        },
        "location": {
          "lat": 41.6085693,
          "lng": -71.0735476
        },
        "location_type": "APPROXIMATE",
        "viewport": {
          "northeast": {
            "lat": 41.7574929,
            "lng": -71.0028751
          },
          "southwest": {
            "lat": 41.480332,
            "lng": -71.13846389999999
          }
        }
      },
      "place_id": "ChIJS1e3XML95IkREEIuh8-HERw",
      "types": [
        "postal_code"
      ]
    },
    {
      "address_components": [
        {
          "long_name": "Bristol County",
          "short_name": "Bristol County",
          "types": [
            "administrative_area_level_2",
            "political"
          ]
        },
        {
          "long_name": "Massachusetts",
          "short_name": "MA",
          "types": [
            "administrative_area_level_1",
            "political"
          ]
        },
        {
          "long_name": "United States",
          "short_name": "US",
          "types": [
            "country",
            "political"
          ]
        }
      ],
      "formatted_address": "Bristol County, MA, USA",
      "geometry": {
        "bounds": {
          "northeast": {
            "lat": 42.0956989,
            "lng": -70.8158182
          },
          "southwest": {
            "lat": 41.481308,
            "lng": -71.3816999
          }
        },
        "location": {
          "lat": 41.7938406,
          "lng": -71.1448516
        },
        "location_type": "APPROXIMATE",
        "viewport": {
          "northeast": {
            "lat": 42.0956989,
            "lng": -70.8158182
          },
          "southwest": {
            "lat": 41.481308,
            "lng": -71.3816999
          }
        }
      },
      "place_id": "ChIJhYThEwkS5IkRYeaL-tf7h5M",
      "types": [
        "administrative_area_level_2",
        "political"
      ]
    },
    {
      "address_components": [
        {
          "long_name": "Massachusetts",
          "short_name": "MA",
          "types": [
            "administrative_area_level_1",
            "political"
          ]
        },
        {
          "long_name": "United States",
          "short_name": "US",
          "types": [
            "country",
            "political"
          ]
        }
      ],
      "formatted_address": "Massachusetts, USA",
      "geometry": {
        "bounds": {
          "northeast": {
            "lat": 42.88679,
            "lng": -69.92855109999999
          },
          "southwest": {
            "lat": 41.2390448,
            "lng": -73.5081419
          }
        },
        "location": {
          "lat": 42.4072107,
          "lng": -71.3824374
        },
        "location_type": "APPROXIMATE",
        "viewport": {
          "northeast": {
            "lat": 42.88679,
            "lng": -69.92855109999999
          },
          "southwest": {
            "lat": 41.2390737,
            "lng": -73.5081419
          }
        }
      },
      "place_id": "ChIJ_b9z6W1l44kRHA2DVTbQxkU",
      "types": [
        "administrative_area_level_1",
        "political"
      ]
    },
    {
      "address_components": [
        {
          "long_name": "United States",
          "short_name": "US",
          "types": [
            "country",
            "political"
          ]
        }
      ],
      "formatted_address": "United States",
      "geometry": {
        "bounds": {
          "northeast": {
            "lat": 71.3867745,
            "lng": -66.9502861
          },
          "southwest": {
            "lat": 18.9106768,
            "lng": 172.4458955
          }
        },
        "location": {
          "lat": 37.09024,
          "lng": -95.712891
        },
        "location_type": "APPROXIMATE",
        "viewport": {
          "northeast": {
            "lat": 49.38,
            "lng": -66.94
          },
          "southwest": {
            "lat": 25.82,
            "lng": -124.39
          }
        }
      },
      "place_id": "ChIJCzYy5IS16lQRQrfeQ5K5Oxw",
      "types": [
        "country",
        "political"
      ]
    }
  ],
  "status": "OK"
}
