{
  "results": [
    {
      "address_components": [
        {
          "long_name": "1-99",
          "short_name": "1-99",
          "types": [
            "street_number"
          ]
        },
        {
          "long_name": "North McClain Street",
          "short_name": "N McClain St",
          "types": [
            "route"
          ]
        },
        {
          "long_name": "Swayzee",
          "short_name": "Swayzee",
          "types": [
            "locality",
            "political"
          ]
        },
        {
          "long_name": "Sims Township",
          "short_name": "Sims Township",
          "types": [
            "administrative_area_level_3",
            "political"
          ]
        },
        {
          "long_name": "Grant County",
          "short_name": "Grant County",
          "types": [
            "administrative_area_level_2",
            "political"
          ]
        },
        {
          "long_name": "Indiana",
          "short_name": "IN",
          "types": [
            "administrative_area_level_1",
            "political"
          ]
        },
        {
          "long_name": "United States",
          "short_name": "US",
          "types": [
            "country",
            "political"
          ]
        },
        {
          "long_name": "46986",
          "short_name": "46986",
          "types": [
            "postal_code"
          ]
        }
      ],
      "formatted_address": "1-99 N McClain St, Swayzee, IN 46986, USA",
      "geometry": {
        "bounds": {
          "northeast": {
            "lat": 40.50149649999999,
            "lng": -85.8538853
          },
          "southwest": {
            "lat": 40.5005969,
            "lng": -85.8541654
          }
        },
        "location": {
          "lat": 40.5006512,
          "lng": -85.85390459999999
        },
        "location_type": "RANGE_INTERPOLATED",
        "viewport": {
          "northeast": {
            "lat": 40.5023956802915,
            "lng": -85.8526763697085
          },
          "southwest": {
            "lat": 40.4996977197085,
            "lng": -85.85537433029151
          }
        }
      },
      "place_id": "EikxLTk5IE4gTWNDbGFpbiBTdCwgU3dheXplZSwgSU4gNDY5ODYsIFVTQQ",
      "types": [
        "street_address"
      ]
    },
    {
      "address_components": [
        {
          "long_name": "Sims Township",
          "short_name": "Sims Township",
          "types": [
            "administrative_area_level_3",
            "political"
          ]
        },
        {
          "long_name": "Grant County",
          "short_name": "Grant County",
          "types": [
            "administrative_area_level_2",
            "political"
          ]
        },
        {
          "long_name": "Indiana",
          "short_name": "IN",
          "types": [
            "administrative_area_level_1",
            "political"
          ]
        },
        {
          "long_name": "United States",
          "short_name": "US",
          "types": [
            "country",
            "political"
          ]
        }
      ],
      "formatted_address": "Sims Township, IN, USA",
      "geometry": {
        "bounds": {
          "northeast": {
            "lat": 40.5664911,
            "lng": -85.7870109
          },
          "southwest": {
            "lat": 40.478728,
            "lng": -85.8643309
          }
        },
        "location": {
          "lat": 40.5392705,
          "lng": -85.8281458
        },
        "location_type": "APPROXIMATE",
        "viewport": {
          "northeast": {
            "lat": 40.5664911,
            "lng": -85.7870109
          },
          "southwest": {
            "lat": 40.478728,
            "lng": -85.8643309
          }
        }
      },
      "place_id": "ChIJlUnAX172FIgR_ycMcMsXRvE",
      "types": [
        "administrative_area_level_3",
        "political"
      ]
    },
    {
      "address_components": [
        {
          "long_name": "46986",
          "short_name": "46986",
          "types": [
            "postal_code"
          ]
        },
        {
          "long_name": "Swayzee",
          "short_name": "Swayzee",
          "types": [
            "locality",
            "political"
          ]
        },
        {
          "long_name": "Indiana",
          "short_name": "IN",
          "types": [
            "administrative_area_level_1",
            "political"
          ]
        },
        {
          "long_name": "United States",
          "short_name": "US",
          "types": [
            "country",
            "political"
          ]
        }
      ],
      "formatted_address": "Swayzee, IN 46986, USA",
      "geometry": {
        "bounds": {
          "northeast": {
            "lat": 40.57445389999999,
            "lng": -85.7579109
          },
          "southwest": {
            "lat": 40.42138509999999,
            "lng": -85.873266
          }
        },
        "location": {
          "lat": 40.4986444,
          "lng": -85.8281458
        },
        "location_type": "APPROXIMATE",
        "viewport": {
          "northeast": {
            "lat": 40.57445389999999,
            "lng": -85.7579109
          },
          "southwest": {
            "lat": 40.42138509999999,
            "lng": -85.873266
          }
        }
      },
      "place_id": "ChIJ365DTML2FIgR7mn8rvqMIfI",
      "postcode_localities": [
        "Sims",
        "Swayzee"
      ],
      "types": [
        "postal_code"
      ]
    },
    {
      "address_components": [
        {
          "long_name": "Grant County",
          "short_name": "Grant County",
          "types": [
            "administrative_area_level_2",
            "political"
          ]
        },
        {
          "long_name": "Indiana",
          "short_name": "IN",
          "types": [
            "administrative_area_level_1",
            "political"
          ]
        },
        {
          "long_name": "United States",
          "short_name": "US",
          "types": [
            "country",
            "political"
          ]
        }
      ],
      "formatted_address": "Grant County, IN, USA",
      "geometry": {
        "bounds": {
          "northeast": {
            "lat": 40.65366710000001,
            "lng": -85.4443299
          },
          "southwest": {
            "lat": 40.3783671,
            "lng": -85.86479109999999
          }
        },
        "location": {
          "lat": 40.4730605,
          "lng": -85.684578
        },
        "location_type": "APPROXIMATE",
        "viewport": {
          "northeast": {
            "lat": 40.65366710000001,
            "lng": -85.4443299
          },
          "southwest": {
            "lat": 40.3783671,
            "lng": -85.86479109999999
          }
        }
      },
      "place_id": "ChIJxZVZICz_FIgR0_8n-ftQTi0",
      "types": [
        "administrative_area_level_2",
        "political"
      ]
    },
    {
      "address_components": [
        {
          "long_name": "Marion",
          "short_name": "Marion",
          "types": [
            "political"
          ]
        },
        {
          "long_name": "Indiana",
          "short_name": "IN",
          "types": [
            "administrative_area_level_1",
            "political"
          ]
        },
        {
          "long_name": "United States",
          "short_name": "US",
          "types": [
            "country",
            "political"
          ]
        }
      ],
      "formatted_address": "Marion, IN, USA",
      "geometry": {
        "bounds": {
          "northeast": {
            "lat": 40.653607,
            "lng": -85.4443301
          },
          "southwest": {
            "lat": 40.378374,
            "lng": -85.8648649
          }
        },
        "location": {
          "lat": 40.4730605,
          "lng": -85.684578
        },
        "location_type": "APPROXIMATE",
        "viewport": {
          "northeast": {
            "lat": 40.653607,
            "lng": -85.4443301
          },
          "southwest": {
            "lat": 40.378374,
            "lng": -85.8648649
          }
        }
      },
      "place_id": "ChIJjcZMwxz_FIgRN5M1DOv6V4I",
      "types": [
        "political"
      ]
    },
    {
      "address_components": [
        {
          "long_name": "Indiana",
          "short_name": "IN",
          "types": [
            "administrative_area_level_1",
            "political"
          ]
        },
        {
          "long_name": "United States",
          "short_name": "US",
          "types": [
            "country",
            "political"
          ]
        }
      ],
      "formatted_address": "Indiana, USA",
      "geometry": {
        "bounds": {
          "northeast": {
            "lat": 41.7606971,
            "lng": -84.784662
          },
          "southwest": {
            "lat": 37.7717419,
            "lng": -88.097892
          }
        },
        "location": {
          "lat": 40.2671941,
          "lng": -86.1349019
        },
        "location_type": "APPROXIMATE",
        "viewport": {
          "northeast": {
            "lat": 41.7606971,
            "lng": -84.784662
          },
          "southwest": {
            "lat": 37.7717419,
            "lng": -88.097892
          }
        }
      },
      "place_id": "ChIJHRv42bxQa4gRcuwyy84vEH4",
      "types": [
        "administrative_area_level_1",
        "political"
      ]
    },
    {
      "address_components": [
        {
          "long_name": "United States",
          "short_name": "US",
          "types": [
            "country",
            "political"
          ]
        }
      ],
      "formatted_address": "United States",
      "geometry": {
        "bounds": {
          "northeast": {
            "lat": 71.3867745,
            "lng": -66.9502861
          },
          "southwest": {
            "lat": 18.9106768,
            "lng": 172.4458955
          }
        },
        "location": {
          "lat": 37.09024,
          "lng": -95.712891
        },
        "location_type": "APPROXIMATE",
        "viewport": {
          "northeast": {
            "lat": 49.38,
            "lng": -66.94
          },
          "southwest": {
            "lat": 25.82,
            "lng": -124.39
          }
        }
      },
      "place_id": "ChIJCzYy5IS16lQRQrfeQ5K5Oxw",
      "types": [
        "country",
        "political"
      ]
    }
  ],
  "status": "OK"
}
