{
  "results": [
    {
      "address_components": [
        {
          "long_name": "612",
          "short_name": "612",
          "types": [
            "street_number"
          ]
        },
        {
          "long_name": "Oak Street",
          "short_name": "Oak St",
          "types": [
            "route"
          ]
        },
        {
          "long_name": "North Aurora",
          "short_name": "North Aurora",
          "types": [
            "locality",
            "political"
          ]
        },
        {
          "long_name": "Aurora Township",
          "short_name": "Aurora Township",
          "types": [
            "administrative_area_level_3",
            "political"
          ]
        },
        {
          "long_name": "Kane County",
          "short_name": "Kane County",
          "types": [
            "administrative_area_level_2",
            "political"
          ]
        },
        {
          "long_name": "Illinois",
          "short_name": "IL",
          "types": [
            "administrative_area_level_1",
            "political"
          ]
        },
        {
          "long_name": "United States",
          "short_name": "US",
          "types": [
            "country",
            "political"
          ]
        },
        {
          "long_name": "60542",
          "short_name": "60542",
          "types": [
            "postal_code"
          ]
        },
        {
          "long_name": "1056",
          "short_name": "1056",
          "types": [
            "postal_code_suffix"
          ]
        }
      ],
      "formatted_address": "612 Oak St, North Aurora, IL 60542, USA",
      "geometry": {
        "location": {
          "lat": 41.807486,
          "lng": -88.341323
        },
        "location_type": "ROOFTOP",
        "viewport": {
          "northeast": {
            "lat": 41.80883498029149,
            "lng": -88.33997401970849
          },
          "southwest": {
            "lat": 41.8061370197085,
            "lng": -88.34267198029151
          }
        }
      },
      "place_id": "ChIJWcsjZMDkDogRws2tSwbkyK4",
      "types": [
        "street_address"
      ]
    },
    {
      "address_components": [
        {
          "long_name": "North Aurora",
          "short_name": "North Aurora",
          "types": [
            "locality",
            "political"
          ]
        },
        {
          "long_name": "Kane County",
          "short_name": "Kane County",
          "types": [
            "administrative_area_level_2",
            "political"
          ]
        },
        {
          "long_name": "Illinois",
          "short_name": "IL",
          "types": [
            "administrative_area_level_1",
            "political"
          ]
        },
        {
          "long_name": "United States",
          "short_name": "US",
          "types": [
            "country",
            "political"
          ]
        }
      ],
      "formatted_address": "North Aurora, IL, USA",
      "geometry": {
        "bounds": {
          "northeast": {
            "lat": 41.825906,
            "lng": -88.2987449
          },
          "southwest": {
            "lat": 41.788791,
            "lng": -88.40080379999999
          }
        },
        "location": {
          "lat": 41.8061399,
          "lng": -88.3272952
        },
        "location_type": "APPROXIMATE",
        "viewport": {
          "northeast": {
            "lat": 41.825906,
            "lng": -88.2987449
          },
          "southwest": {
            "lat": 41.788791,
            "lng": -88.40080379999999
          }
        }
      },
      "place_id": "ChIJ340JBYPiDogRgnlvbRWjg8w",
      "types": [
        "locality",
        "political"
      ]
    },
    {
      "address_components": [
        {
          "long_name": "60542",
          "short_name": "60542",
          "types": [
            "postal_code"
          ]
        },
        {
          "long_name": "North Aurora",
          "short_name": "North Aurora",
          "types": [
            "locality",
            "political"
          ]
        },
        {
          "long_name": "Kane County",
          "short_name": "Kane County",
          "types": [
            "administrative_area_level_2",
            "political"
          ]
        },
        {
          "long_name": "Illinois",
          "short_name": "IL",
          "types": [
            "administrative_area_level_1",
            "political"
          ]
        },
        {
          "long_name": "United States",
          "short_name": "US",
          "types": [
            "country",
            "political"
          ]
        }
      ],
      "formatted_address": "North Aurora, IL 60542, USA",
      "geometry": {
        "bounds": {
          "northeast": {
            "lat": 41.832333,
            "lng": -88.29875299999999
          },
          "southwest": {
            "lat": 41.7820959,
            "lng": -88.402906
          }
        },
        "location": {
          "lat": 41.8133244,
          "lng": -88.3385053
        },
        "location_type": "APPROXIMATE",
        "viewport": {
          "northeast": {
            "lat": 41.832333,
            "lng": -88.29875299999999
          },
          "southwest": {
            "lat": 41.7820959,
            "lng": -88.402906
          }
        }
      },
      "place_id": "ChIJHab1UerkDogRI1uDh1E_iss",
      "types": [
        "postal_code"
      ]
    },
    {
      "address_components": [
        {
          "long_name": "Aurora Township",
          "short_name": "Aurora Township",
          "types": [
            "administrative_area_level_3",
            "political"
          ]
        },
        {
          "long_name": "Kane County",
          "short_name": "Kane County",
          "types": [
            "administrative_area_level_2",
            "political"
          ]
        },
        {
          "long_name": "Illinois",
          "short_name": "IL",
          "types": [
            "administrative_area_level_1",
            "political"
          ]
        },
        {
          "long_name": "United States",
          "short_name": "US",
          "types": [
            "country",
            "political"
          ]
        }
      ],
      "formatted_address": "Aurora Township, IL, USA",
      "geometry": {
        "bounds": {
          "northeast": {
            "lat": 41.812667,
            "lng": -88.26191709999999
          },
          "southwest": {
            "lat": 41.722642,
            "lng": -88.3761239
          }
        },
        "location": {
          "lat": 41.7680818,
          "lng": -88.3044908
        },
        "location_type": "APPROXIMATE",
        "viewport": {
          "northeast": {
            "lat": 41.812667,
            "lng": -88.26191709999999
          },
          "southwest": {
            "lat": 41.722642,
            "lng": -88.3761239
          }
        }
      },
      "place_id": "ChIJV2DxVL_6DogRpCvJZAeKvyM",
      "types": [
        "administrative_area_level_3",
        "political"
      ]
    },
    {
      "address_components": [
        {
          "long_name": "Kane County",
          "short_name": "Kane County",
          "types": [
            "administrative_area_level_2",
            "political"
          ]
        },
        {
          "long_name": "Illinois",
          "short_name": "IL",
          "types": [
            "administrative_area_level_1",
            "political"
          ]
        },
        {
          "long_name": "United States",
          "short_name": "US",
          "types": [
            "country",
            "political"
          ]
        }
      ],
      "formatted_address": "Kane County, IL, USA",
      "geometry": {
        "bounds": {
          "northeast": {
            "lat": 42.1543481,
            "lng": -88.23787809999999
          },
          "southwest": {
            "lat": 41.719563,
            "lng": -88.60257200000001
          }
        },
        "location": {
          "lat": 41.987884,
          "lng": -88.4016041
        },
        "location_type": "APPROXIMATE",
        "viewport": {
          "northeast": {
            "lat": 42.1543481,
            "lng": -88.23787809999999
          },
          "southwest": {
            "lat": 41.719563,
            "lng": -88.60257200000001
          }
        }
      },
      "place_id": "ChIJnfjNX8UcD4gR2rRf04RfHSw",
      "types": [
        "administrative_area_level_2",
        "political"
      ]
    },
    {
      "address_components": [
        {
          "long_name": "Chicago Metropolitan Area",
          "short_name": "Chicago Metropolitan Area",
          "types": [
            "political"
          ]
        },
        {
          "long_name": "United States",
          "short_name": "US",
          "types": [
            "country",
            "political"
          ]
        }
      ],
      "formatted_address": "Chicago Metropolitan Area, USA",
      "geometry": {
        "bounds": {
          "northeast": {
            "lat": 42.670123,
            "lng": -86.92925699999999
          },
          "southwest": {
            "lat": 40.7364641,
            "lng": -88.942292
          }
        },
        "location": {
          "lat": 41.7435073,
          "lng": -88.0118473
        },
        "location_type": "APPROXIMATE",
        "viewport": {
          "northeast": {
            "lat": 42.670123,
            "lng": -86.92925699999999
          },
          "southwest": {
            "lat": 40.7364641,
            "lng": -88.942292
          }
        }
      },
      "place_id": "ChIJg-CZjExEDogRNJNXmgqEe9o",
      "types": [
        "political"
      ]
    },
    {
      "address_components": [
        {
          "long_name": "Illinois",
          "short_name": "IL",
          "types": [
            "administrative_area_level_1",
            "political"
          ]
        },
        {
          "long_name": "United States",
          "short_name": "US",
          "types": [
            "country",
            "political"
          ]
        }
      ],
      "formatted_address": "Illinois, USA",
      "geometry": {
        "bounds": {
          "northeast": {
            "lat": 42.5083379,
            "lng": -87.4951991
          },
          "southwest": {
            "lat": 36.970298,
            "lng": -91.5130789
          }
        },
        "location": {
          "lat": 40.6331249,
          "lng": -89.3985283
        },
        "location_type": "APPROXIMATE",
        "viewport": {
          "northeast": {
            "lat": 42.5083379,
            "lng": -87.4951991
          },
          "southwest": {
            "lat": 36.970298,
            "lng": -91.5130789
          }
        }
      },
      "place_id": "ChIJGSZubzgtC4gRVlkRZFCCFX8",
      "types": [
        "administrative_area_level_1",
        "political"
      ]
    },
    {
      "address_components": [
        {
          "long_name": "United States",
          "short_name": "US",
          "types": [
            "country",
            "political"
          ]
        }
      ],
      "formatted_address": "United States",
      "geometry": {
        "bounds": {
          "northeast": {
            "lat": 71.3867745,
            "lng": -66.9502861
          },
          "southwest": {
            "lat": 18.9106768,
            "lng": 172.4458955
          }
        },
        "location": {
          "lat": 37.09024,
          "lng": -95.712891
        },
        "location_type": "APPROXIMATE",
        "viewport": {
          "northeast": {
            "lat": 49.38,
            "lng": -66.94
          },
          "southwest": {
            "lat": 25.82,
            "lng": -124.39
          }
        }
      },
      "place_id": "ChIJCzYy5IS16lQRQrfeQ5K5Oxw",
      "types": [
        "country",
        "political"
      ]
    }
  ],
  "status": "OK"
}
