{
  "results": [
    {
      "address_components": [
        {
          "long_name": "153-165",
          "short_name": "153-165",
          "types": [
            "street_number"
          ]
        },
        {
          "long_name": "South Park Drive",
          "short_name": "S Park Dr",
          "types": [
            "route"
          ]
        },
        {
          "long_name": "Woodbridge",
          "short_name": "Woodbridge",
          "types": [
            "neighborhood",
            "political"
          ]
        },
        {
          "long_name": "Woodbridge Township",
          "short_name": "Woodbridge Township",
          "types": [
            "locality",
            "political"
          ]
        },
        {
          "long_name": "Middlesex County",
          "short_name": "Middlesex County",
          "types": [
            "administrative_area_level_2",
            "political"
          ]
        },
        {
          "long_name": "New Jersey",
          "short_name": "NJ",
          "types": [
            "administrative_area_level_1",
            "political"
          ]
        },
        {
          "long_name": "United States",
          "short_name": "US",
          "types": [
            "country",
            "political"
          ]
        },
        {
          "long_name": "07095",
          "short_name": "07095",
          "types": [
            "postal_code"
          ]
        },
        {
          "long_name": "2125",
          "short_name": "2125",
          "types": [
            "postal_code_suffix"
          ]
        }
      ],
      "formatted_address": "153-165 S Park Dr, Woodbridge, NJ 07095, USA",
      "geometry": {
        "bounds": {
          "northeast": {
            "lat": 40.5554912,
            "lng": -74.28437009999999
          },
          "southwest": {
            "lat": 40.55509319999999,
            "lng": -74.2857875
          }
        },
        "location": {
          "lat": 40.5554222,
          "lng": -74.284939
        },
        "location_type": "RANGE_INTERPOLATED",
        "viewport": {
          "northeast": {
            "lat": 40.5566411802915,
            "lng": -74.2837298197085
          },
          "southwest": {
            "lat": 40.5539432197085,
            "lng": -74.2864277802915
          }
        }
      },
      "place_id": "EiwxNTMtMTY1IFMgUGFyayBEciwgV29vZGJyaWRnZSwgTkogMDcwOTUsIFVTQQ",
      "types": [
        "street_address"
      ]
    },
    {
      "address_components": [
        {
          "long_name": "Woodbridge",
          "short_name": "Woodbridge",
          "types": [
            "neighborhood",
            "political"
          ]
        },
        {
          "long_name": "Woodbridge Township",
          "short_name": "Woodbridge Township",
          "types": [
            "locality",
            "political"
          ]
        },
        {
          "long_name": "Middlesex County",
          "short_name": "Middlesex County",
          "types": [
            "administrative_area_level_2",
            "political"
          ]
        },
        {
          "long_name": "New Jersey",
          "short_name": "NJ",
          "types": [
            "administrative_area_level_1",
            "political"
          ]
        },
        {
          "long_name": "United States",
          "short_name": "US",
          "types": [
            "country",
            "political"
          ]
        }
      ],
      "formatted_address": "Woodbridge, Woodbridge Township, NJ, USA",
      "geometry": {
        "bounds": {
          "northeast": {
            "lat": 40.572547,
            "lng": -74.2600059
          },
          "southwest": {
            "lat": 40.536091,
            "lng": -74.308582
          }
        },
        "location": {
          "lat": 40.5576044,
          "lng": -74.2845911
        },
        "location_type": "APPROXIMATE",
        "viewport": {
          "northeast": {
            "lat": 40.572547,
            "lng": -74.2600059
          },
          "southwest": {
            "lat": 40.536091,
            "lng": -74.308582
          }
        }
      },
      "place_id": "ChIJOekkrbC1w4kREWiMbnuyHv8",
      "types": [
        "neighborhood",
        "political"
      ]
    },
    {
      "address_components": [
        {
          "long_name": "Woodbridge Township",
          "short_name": "Woodbridge Township",
          "types": [
            "locality",
            "political"
          ]
        },
        {
          "long_name": "Middlesex County",
          "short_name": "Middlesex County",
          "types": [
            "administrative_area_level_2",
            "political"
          ]
        },
        {
          "long_name": "New Jersey",
          "short_name": "NJ",
          "types": [
            "administrative_area_level_1",
            "political"
          ]
        },
        {
          "long_name": "United States",
          "short_name": "US",
          "types": [
            "country",
            "political"
          ]
        }
      ],
      "formatted_address": "Woodbridge Township, NJ, USA",
      "geometry": {
        "bounds": {
          "northeast": {
            "lat": 40.608903,
            "lng": -74.228289
          },
          "southwest": {
            "lat": 40.4908049,
            "lng": -74.338493
          }
        },
        "location": {
          "lat": 40.5575986,
          "lng": -74.2846022
        },
        "location_type": "APPROXIMATE",
        "viewport": {
          "northeast": {
            "lat": 40.608903,
            "lng": -74.228289
          },
          "southwest": {
            "lat": 40.4908049,
            "lng": -74.338493
          }
        }
      },
      "place_id": "ChIJmzTGWLe1w4kR2ng6nmUOjJM",
      "types": [
        "locality",
        "political"
      ]
    },
    {
      "address_components": [
        {
          "long_name": "07095",
          "short_name": "07095",
          "types": [
            "postal_code"
          ]
        },
        {
          "long_name": "Woodbridge",
          "short_name": "Woodbridge",
          "types": [
            "neighborhood",
            "political"
          ]
        },
        {
          "long_name": "Middlesex County",
          "short_name": "Middlesex County",
          "types": [
            "administrative_area_level_2",
            "political"
          ]
        },
        {
          "long_name": "New Jersey",
          "short_name": "NJ",
          "types": [
            "administrative_area_level_1",
            "political"
          ]
        },
        {
          "long_name": "United States",
          "short_name": "US",
          "types": [
            "country",
            "political"
          ]
        }
      ],
      "formatted_address": "Woodbridge, NJ 07095, USA",
      "geometry": {
        "bounds": {
          "northeast": {
            "lat": 40.573834,
            "lng": -74.2600059
          },
          "southwest": {
            "lat": 40.5345019,
            "lng": -74.3129281
          }
        },
        "location": {
          "lat": 40.5545823,
          "lng": -74.2824862
        },
        "location_type": "APPROXIMATE",
        "viewport": {
          "northeast": {
            "lat": 40.573834,
            "lng": -74.2600059
          },
          "southwest": {
            "lat": 40.5345019,
            "lng": -74.3129281
          }
        }
      },
      "place_id": "ChIJk6AaJTG0w4kR1nxUYrfIH6M",
      "types": [
        "postal_code"
      ]
    },
    {
      "address_components": [
        {
          "long_name": "Middlesex County",
          "short_name": "Middlesex County",
          "types": [
            "administrative_area_level_2",
            "political"
          ]
        },
        {
          "long_name": "New Jersey",
          "short_name": "NJ",
          "types": [
            "administrative_area_level_1",
            "political"
          ]
        },
        {
          "long_name": "United States",
          "short_name": "US",
          "types": [
            "country",
            "political"
          ]
        }
      ],
      "formatted_address": "Middlesex County, NJ, USA",
      "geometry": {
        "bounds": {
          "northeast": {
            "lat": 40.608903,
            "lng": -74.20615649999999
          },
          "southwest": {
            "lat": 40.2511219,
            "lng": -74.6301009
          }
        },
        "location": {
          "lat": 40.4111363,
          "lng": -74.35874729999999
        },
        "location_type": "APPROXIMATE",
        "viewport": {
          "northeast": {
            "lat": 40.608903,
            "lng": -74.20615649999999
          },
          "southwest": {
            "lat": 40.2511219,
            "lng": -74.6301009
          }
        }
      },
      "place_id": "ChIJ4blltancw4kR0ZwQkSoA__s",
      "types": [
        "administrative_area_level_2",
        "political"
      ]
    },
    {
      "address_components": [
        {
          "long_name": "New Jersey",
          "short_name": "NJ",
          "types": [
            "administrative_area_level_1",
            "political"
          ]
        },
        {
          "long_name": "United States",
          "short_name": "US",
          "types": [
            "country",
            "political"
          ]
        }
      ],
      "formatted_address": "New Jersey, USA",
      "geometry": {
        "bounds": {
          "northeast": {
            "lat": 41.357423,
            "lng": -73.9024391
          },
          "southwest": {
            "lat": 38.9285589,
            "lng": -75.5597921
          }
        },
        "location": {
          "lat": 40.0583238,
          "lng": -74.4056612
        },
        "location_type": "APPROXIMATE",
        "viewport": {
          "northeast": {
            "lat": 41.357423,
            "lng": -73.9024391
          },
          "southwest": {
            "lat": 38.9286032,
            "lng": -75.5597921
          }
        }
      },
      "place_id": "ChIJn0AAnpX7wIkRjW0_-Ad70iw",
      "types": [
        "administrative_area_level_1",
        "political"
      ]
    },
    {
      "address_components": [
        {
          "long_name": "United States",
          "short_name": "US",
          "types": [
            "country",
            "political"
          ]
        }
      ],
      "formatted_address": "United States",
      "geometry": {
        "bounds": {
          "northeast": {
            "lat": 71.3867745,
            "lng": -66.9502861
          },
          "southwest": {
            "lat": 18.9106768,
            "lng": 172.4458955
          }
        },
        "location": {
          "lat": 37.09024,
          "lng": -95.712891
        },
        "location_type": "APPROXIMATE",
        "viewport": {
          "northeast": {
            "lat": 49.38,
            "lng": -66.94
          },
          "southwest": {
            "lat": 25.82,
            "lng": -124.39
          }
        }
      },
      "place_id": "ChIJCzYy5IS16lQRQrfeQ5K5Oxw",
      "types": [
        "country",
        "political"
      ]
    }
  ],
  "status": "OK"
}
