{
  "results": [
    {
      "address_components": [
        {
          "long_name": "111",
          "short_name": "111",
          "types": [
            "street_number"
          ]
        },
        {
          "long_name": "County Road 12",
          "short_name": "Co Rd 12",
          "types": [
            "route"
          ]
        },
        {
          "long_name": "Palmyra",
          "short_name": "Palmyra",
          "types": [
            "locality",
            "political"
          ]
        },
        {
          "long_name": "North Palmyra Township",
          "short_name": "North Palmyra Township",
          "types": [
            "administrative_area_level_3",
            "political"
          ]
        },
        {
          "long_name": "Macoupin County",
          "short_name": "Macoupin County",
          "types": [
            "administrative_area_level_2",
            "political"
          ]
        },
        {
          "long_name": "Illinois",
          "short_name": "IL",
          "types": [
            "administrative_area_level_1",
            "political"
          ]
        },
        {
          "long_name": "United States",
          "short_name": "US",
          "types": [
            "country",
            "political"
          ]
        },
        {
          "long_name": "62674",
          "short_name": "62674",
          "types": [
            "postal_code"
          ]
        }
      ],
      "formatted_address": "111 Co Rd 12, Palmyra, IL 62674, USA",
      "geometry": {
        "location": {
          "lat": 39.4345424,
          "lng": -89.9949353
        },
        "location_type": "ROOFTOP",
        "viewport": {
          "northeast": {
            "lat": 39.43589138029149,
            "lng": -89.99358631970848
          },
          "southwest": {
            "lat": 39.43319341970849,
            "lng": -89.99628428029149
          }
        }
      },
      "place_id": "ChIJwXZQVo99dYgRPpkdRxwvmKc",
      "types": [
        "street_address"
      ]
    },
    {
      "address_components": [
        {
          "long_name": "Palmyra",
          "short_name": "Palmyra",
          "types": [
            "locality",
            "political"
          ]
        },
        {
          "long_name": "Macoupin County",
          "short_name": "Macoupin County",
          "types": [
            "administrative_area_level_2",
            "political"
          ]
        },
        {
          "long_name": "Illinois",
          "short_name": "IL",
          "types": [
            "administrative_area_level_1",
            "political"
          ]
        },
        {
          "long_name": "United States",
          "short_name": "US",
          "types": [
            "country",
            "political"
          ]
        }
      ],
      "formatted_address": "Palmyra, IL, USA",
      "geometry": {
        "bounds": {
          "northeast": {
            "lat": 39.442519,
            "lng": -89.98627309999999
          },
          "southwest": {
            "lat": 39.427136,
            "lng": -90.005471
          }
        },
        "location": {
          "lat": 39.4347699,
          "lng": -89.9959401
        },
        "location_type": "APPROXIMATE",
        "viewport": {
          "northeast": {
            "lat": 39.442519,
            "lng": -89.98627309999999
          },
          "southwest": {
            "lat": 39.427136,
            "lng": -90.005471
          }
        }
      },
      "place_id": "ChIJE-6GYGCb34cRzifMk5PHXOM",
      "types": [
        "locality",
        "political"
      ]
    },
    {
      "address_components": [
        {
          "long_name": "North Palmyra Township",
          "short_name": "North Palmyra Township",
          "types": [
            "administrative_area_level_3",
            "political"
          ]
        },
        {
          "long_name": "Macoupin County",
          "short_name": "Macoupin County",
          "types": [
            "administrative_area_level_2",
            "political"
          ]
        },
        {
          "long_name": "Illinois",
          "short_name": "IL",
          "types": [
            "administrative_area_level_1",
            "political"
          ]
        },
        {
          "long_name": "United States",
          "short_name": "US",
          "types": [
            "country",
            "political"
          ]
        }
      ],
      "formatted_address": "North Palmyra Township, IL, USA",
      "geometry": {
        "bounds": {
          "northeast": {
            "lat": 39.5221099,
            "lng": -89.9253399
          },
          "southwest": {
            "lat": 39.434134,
            "lng": -90.038932
          }
        },
        "location": {
          "lat": 39.4657365,
          "lng": -89.9813445
        },
        "location_type": "APPROXIMATE",
        "viewport": {
          "northeast": {
            "lat": 39.5221099,
            "lng": -89.9253399
          },
          "southwest": {
            "lat": 39.434134,
            "lng": -90.038932
          }
        }
      },
      "place_id": "ChIJ8fw9N0h9dYgRzw1cV9K-B8o",
      "types": [
        "administrative_area_level_3",
        "political"
      ]
    },
    {
      "address_components": [
        {
          "long_name": "62674",
          "short_name": "62674",
          "types": [
            "postal_code"
          ]
        },
        {
          "long_name": "Palmyra",
          "short_name": "Palmyra",
          "types": [
            "locality",
            "political"
          ]
        },
        {
          "long_name": "Illinois",
          "short_name": "IL",
          "types": [
            "administrative_area_level_1",
            "political"
          ]
        },
        {
          "long_name": "United States",
          "short_name": "US",
          "types": [
            "country",
            "political"
          ]
        }
      ],
      "formatted_address": "Palmyra, IL 62674, USA",
      "geometry": {
        "bounds": {
          "northeast": {
            "lat": 39.52104190000001,
            "lng": -89.8900961
          },
          "southwest": {
            "lat": 39.360473,
            "lng": -90.20270400000001
          }
        },
        "location": {
          "lat": 39.4656648,
          "lng": -90.13077969999999
        },
        "location_type": "APPROXIMATE",
        "viewport": {
          "northeast": {
            "lat": 39.52104190000001,
            "lng": -89.8900961
          },
          "southwest": {
            "lat": 39.360473,
            "lng": -90.20270400000001
          }
        }
      },
      "place_id": "ChIJjdpj6uOG34cREW8is6LFuYA",
      "postcode_localities": [
        "Barr",
        "Palmyra",
        "Scottville"
      ],
      "types": [
        "postal_code"
      ]
    },
    {
      "address_components": [
        {
          "long_name": "Macoupin County",
          "short_name": "Macoupin County",
          "types": [
            "administrative_area_level_2",
            "political"
          ]
        },
        {
          "long_name": "Illinois",
          "short_name": "IL",
          "types": [
            "administrative_area_level_1",
            "political"
          ]
        },
        {
          "long_name": "United States",
          "short_name": "US",
          "types": [
            "country",
            "political"
          ]
        }
      ],
      "formatted_address": "Macoupin County, IL, USA",
      "geometry": {
        "bounds": {
          "northeast": {
            "lat": 39.5233688,
            "lng": -89.6983829
          },
          "southwest": {
            "lat": 38.998349,
            "lng": -90.1537499
          }
        },
        "location": {
          "lat": 39.2375268,
          "lng": -89.9253233
        },
        "location_type": "APPROXIMATE",
        "viewport": {
          "northeast": {
            "lat": 39.5233688,
            "lng": -89.6983829
          },
          "southwest": {
            "lat": 38.998349,
            "lng": -90.1537499
          }
        }
      },
      "place_id": "ChIJL1_AUVCDdYgRcdRWuts_TzI",
      "types": [
        "administrative_area_level_2",
        "political"
      ]
    },
    {
      "address_components": [
        {
          "long_name": "St. Louis",
          "short_name": "St. Louis",
          "types": [
            "political"
          ]
        },
        {
          "long_name": "United States",
          "short_name": "US",
          "types": [
            "country",
            "political"
          ]
        }
      ],
      "formatted_address": "St. Louis, USA",
      "geometry": {
        "bounds": {
          "northeast": {
            "lat": 39.5233661,
            "lng": -89.138356
          },
          "southwest": {
            "lat": 37.7341961,
            "lng": -91.4186371
          }
        },
        "location": {
          "lat": 38.8196814,
          "lng": -90.4502368
        },
        "location_type": "APPROXIMATE",
        "viewport": {
          "northeast": {
            "lat": 39.5233661,
            "lng": -89.138356
          },
          "southwest": {
            "lat": 37.7341961,
            "lng": -91.4186371
          }
        }
      },
      "place_id": "ChIJneBzzj4z34cRFGg2ez6q57o",
      "types": [
        "political"
      ]
    },
    {
      "address_components": [
        {
          "long_name": "Illinois",
          "short_name": "IL",
          "types": [
            "administrative_area_level_1",
            "political"
          ]
        },
        {
          "long_name": "United States",
          "short_name": "US",
          "types": [
            "country",
            "political"
          ]
        }
      ],
      "formatted_address": "Illinois, USA",
      "geometry": {
        "bounds": {
          "northeast": {
            "lat": 42.5083379,
            "lng": -87.4951991
          },
          "southwest": {
            "lat": 36.970298,
            "lng": -91.5130789
          }
        },
        "location": {
          "lat": 40.6331249,
          "lng": -89.3985283
        },
        "location_type": "APPROXIMATE",
        "viewport": {
          "northeast": {
            "lat": 42.5083379,
            "lng": -87.4951991
          },
          "southwest": {
            "lat": 36.970298,
            "lng": -91.5130789
          }
        }
      },
      "place_id": "ChIJGSZubzgtC4gRVlkRZFCCFX8",
      "types": [
        "administrative_area_level_1",
        "political"
      ]
    },
    {
      "address_components": [
        {
          "long_name": "United States",
          "short_name": "US",
          "types": [
            "country",
            "political"
          ]
        }
      ],
      "formatted_address": "United States",
      "geometry": {
        "bounds": {
          "northeast": {
            "lat": 71.3867745,
            "lng": -66.9502861
          },
          "southwest": {
            "lat": 18.9106768,
            "lng": 172.4458955
          }
        },
        "location": {
          "lat": 37.09024,
          "lng": -95.712891
        },
        "location_type": "APPROXIMATE",
        "viewport": {
          "northeast": {
            "lat": 49.38,
            "lng": -66.94
          },
          "southwest": {
            "lat": 25.82,
            "lng": -124.39
          }
        }
      },
      "place_id": "ChIJCzYy5IS16lQRQrfeQ5K5Oxw",
      "types": [
        "country",
        "political"
      ]
    }
  ],
  "status": "OK"
}
