{
  "results": [
    {
      "address_components": [
        {
          "long_name": "485-547",
          "short_name": "485-547",
          "types": [
            "street_number"
          ]
        },
        {
          "long_name": "Hublersburg Road",
          "short_name": "Hublersburg Rd",
          "types": [
            "route"
          ]
        },
        {
          "long_name": "Howard",
          "short_name": "Howard",
          "types": [
            "locality",
            "political"
          ]
        },
        {
          "long_name": "Walker Township",
          "short_name": "Walker Township",
          "types": [
            "administrative_area_level_3",
            "political"
          ]
        },
        {
          "long_name": "Centre County",
          "short_name": "Centre County",
          "types": [
            "administrative_area_level_2",
            "political"
          ]
        },
        {
          "long_name": "Pennsylvania",
          "short_name": "PA",
          "types": [
            "administrative_area_level_1",
            "political"
          ]
        },
        {
          "long_name": "United States",
          "short_name": "US",
          "types": [
            "country",
            "political"
          ]
        },
        {
          "long_name": "16841",
          "short_name": "16841",
          "types": [
            "postal_code"
          ]
        },
        {
          "long_name": "3905",
          "short_name": "3905",
          "types": [
            "postal_code_suffix"
          ]
        }
      ],
      "formatted_address": "485-547 Hublersburg Rd, Howard, PA 16841, USA",
      "geometry": {
        "bounds": {
          "northeast": {
            "lat": 40.964005,
            "lng": -77.605384
          },
          "southwest": {
            "lat": 40.9622137,
            "lng": -77.6079948
          }
        },
        "location": {
          "lat": 40.96254580000001,
          "lng": -77.60754709999999
        },
        "location_type": "RANGE_INTERPOLATED",
        "viewport": {
          "northeast": {
            "lat": 40.9644583302915,
            "lng": -77.6053404197085
          },
          "southwest": {
            "lat": 40.9617603697085,
            "lng": -77.6080383802915
          }
        }
      },
      "place_id": "Ei00ODUtNTQ3IEh1YmxlcnNidXJnIFJkLCBIb3dhcmQsIFBBIDE2ODQxLCBVU0E",
      "types": [
        "street_address"
      ]
    },
    {
      "address_components": [
        {
          "long_name": "Walker Township",
          "short_name": "Walker Township",
          "types": [
            "administrative_area_level_3",
            "political"
          ]
        },
        {
          "long_name": "Centre County",
          "short_name": "Centre County",
          "types": [
            "administrative_area_level_2",
            "political"
          ]
        },
        {
          "long_name": "Pennsylvania",
          "short_name": "PA",
          "types": [
            "administrative_area_level_1",
            "political"
          ]
        },
        {
          "long_name": "United States",
          "short_name": "US",
          "types": [
            "country",
            "political"
          ]
        }
      ],
      "formatted_address": "Walker Township, PA, USA",
      "geometry": {
        "bounds": {
          "northeast": {
            "lat": 41.02167499999999,
            "lng": -77.50869709999999
          },
          "southwest": {
            "lat": 40.8749389,
            "lng": -77.709696
          }
        },
        "location": {
          "lat": 40.9427674,
          "lng": -77.6192447
        },
        "location_type": "APPROXIMATE",
        "viewport": {
          "northeast": {
            "lat": 41.02167499999999,
            "lng": -77.50869709999999
          },
          "southwest": {
            "lat": 40.8749389,
            "lng": -77.709696
          }
        }
      },
      "place_id": "ChIJAYqbOJ6VzokRuVYkutF0gvw",
      "types": [
        "administrative_area_level_3",
        "political"
      ]
    },
    {
      "address_components": [
        {
          "long_name": "16823",
          "short_name": "16823",
          "types": [
            "postal_code"
          ]
        },
        {
          "long_name": "Bellefonte",
          "short_name": "Bellefonte",
          "types": [
            "locality",
            "political"
          ]
        },
        {
          "long_name": "Centre County",
          "short_name": "Centre County",
          "types": [
            "administrative_area_level_2",
            "political"
          ]
        },
        {
          "long_name": "Pennsylvania",
          "short_name": "PA",
          "types": [
            "administrative_area_level_1",
            "political"
          ]
        },
        {
          "long_name": "United States",
          "short_name": "US",
          "types": [
            "country",
            "political"
          ]
        }
      ],
      "formatted_address": "Bellefonte, PA 16823, USA",
      "geometry": {
        "bounds": {
          "northeast": {
            "lat": 41.0434989,
            "lng": -77.5154088
          },
          "southwest": {
            "lat": 40.8214339,
            "lng": -77.9284749
          }
        },
        "location": {
          "lat": 40.9240628,
          "lng": -77.7223162
        },
        "location_type": "APPROXIMATE",
        "viewport": {
          "northeast": {
            "lat": 41.0434989,
            "lng": -77.6022459
          },
          "southwest": {
            "lat": 40.8214339,
            "lng": -77.9284749
          }
        }
      },
      "place_id": "ChIJ93yhaKSizokRxXjdSsKwxAY",
      "postcode_localities": [
        "Bellefonte",
        "Hublersburg",
        "Pleasant Gap",
        "Wingate"
      ],
      "types": [
        "postal_code"
      ]
    },
    {
      "address_components": [
        {
          "long_name": "Centre County",
          "short_name": "Centre County",
          "types": [
            "administrative_area_level_2",
            "political"
          ]
        },
        {
          "long_name": "Pennsylvania",
          "short_name": "PA",
          "types": [
            "administrative_area_level_1",
            "political"
          ]
        },
        {
          "long_name": "United States",
          "short_name": "US",
          "types": [
            "country",
            "political"
          ]
        }
      ],
      "formatted_address": "Centre County, PA, USA",
      "geometry": {
        "bounds": {
          "northeast": {
            "lat": 41.2527521,
            "lng": -77.1438039
          },
          "southwest": {
            "lat": 40.69155809999999,
            "lng": -78.376674
          }
        },
        "location": {
          "lat": 40.8765649,
          "lng": -77.8367282
        },
        "location_type": "APPROXIMATE",
        "viewport": {
          "northeast": {
            "lat": 41.2527521,
            "lng": -77.1438039
          },
          "southwest": {
            "lat": 40.69155809999999,
            "lng": -78.376674
          }
        }
      },
      "place_id": "ChIJGag74PqazokRAZZDKnhbMOk",
      "types": [
        "administrative_area_level_2",
        "political"
      ]
    },
    {
      "address_components": [
        {
          "long_name": "State College",
          "short_name": "State College",
          "types": [
            "political"
          ]
        },
        {
          "long_name": "Pennsylvania",
          "short_name": "PA",
          "types": [
            "administrative_area_level_1",
            "political"
          ]
        },
        {
          "long_name": "United States",
          "short_name": "US",
          "types": [
            "country",
            "political"
          ]
        }
      ],
      "formatted_address": "State College, PA, USA",
      "geometry": {
        "bounds": {
          "northeast": {
            "lat": 41.252868,
            "lng": -77.143667
          },
          "southwest": {
            "lat": 40.691591,
            "lng": -78.376678
          }
        },
        "location": {
          "lat": 40.8765649,
          "lng": -77.8367282
        },
        "location_type": "APPROXIMATE",
        "viewport": {
          "northeast": {
            "lat": 41.252868,
            "lng": -77.143667
          },
          "southwest": {
            "lat": 40.691591,
            "lng": -78.376678
          }
        }
      },
      "place_id": "ChIJZ-tZ-DOizokRDxWcxSBdBvQ",
      "types": [
        "political"
      ]
    },
    {
      "address_components": [
        {
          "long_name": "Pennsylvania",
          "short_name": "PA",
          "types": [
            "administrative_area_level_1",
            "political"
          ]
        },
        {
          "long_name": "United States",
          "short_name": "US",
          "types": [
            "country",
            "political"
          ]
        }
      ],
      "formatted_address": "Pennsylvania, USA",
      "geometry": {
        "bounds": {
          "northeast": {
            "lat": 42.2693866,
            "lng": -74.6895018
          },
          "southwest": {
            "lat": 39.7197989,
            "lng": -80.51989499999999
          }
        },
        "location": {
          "lat": 41.2033216,
          "lng": -77.1945247
        },
        "location_type": "APPROXIMATE",
        "viewport": {
          "northeast": {
            "lat": 42.2693866,
            "lng": -74.6895018
          },
          "southwest": {
            "lat": 39.7197989,
            "lng": -80.51989499999999
          }
        }
      },
      "place_id": "ChIJieUyHiaALYgRPbQiUEchRsI",
      "types": [
        "administrative_area_level_1",
        "political"
      ]
    },
    {
      "address_components": [
        {
          "long_name": "United States",
          "short_name": "US",
          "types": [
            "country",
            "political"
          ]
        }
      ],
      "formatted_address": "United States",
      "geometry": {
        "bounds": {
          "northeast": {
            "lat": 71.3867745,
            "lng": -66.9502861
          },
          "southwest": {
            "lat": 18.9106768,
            "lng": 172.4458955
          }
        },
        "location": {
          "lat": 37.09024,
          "lng": -95.712891
        },
        "location_type": "APPROXIMATE",
        "viewport": {
          "northeast": {
            "lat": 49.38,
            "lng": -66.94
          },
          "southwest": {
            "lat": 25.82,
            "lng": -124.39
          }
        }
      },
      "place_id": "ChIJCzYy5IS16lQRQrfeQ5K5Oxw",
      "types": [
        "country",
        "political"
      ]
    }
  ],
  "status": "OK"
}
