{
  "results": [
    {
      "address_components": [
        {
          "long_name": "Market Street",
          "short_name": "Market St",
          "types": [
            "route"
          ]
        },
        {
          "long_name": "Elliott",
          "short_name": "Elliott",
          "types": [
            "locality",
            "political"
          ]
        },
        {
          "long_name": "Dix Township",
          "short_name": "Dix Township",
          "types": [
            "administrative_area_level_3",
            "political"
          ]
        },
        {
          "long_name": "Ford County",
          "short_name": "Ford County",
          "types": [
            "administrative_area_level_2",
            "political"
          ]
        },
        {
          "long_name": "Illinois",
          "short_name": "IL",
          "types": [
            "administrative_area_level_1",
            "political"
          ]
        },
        {
          "long_name": "United States",
          "short_name": "US",
          "types": [
            "country",
            "political"
          ]
        },
        {
          "long_name": "60933",
          "short_name": "60933",
          "types": [
            "postal_code"
          ]
        }
      ],
      "formatted_address": "Market St, Elliott, IL 60933, USA",
      "geometry": {
        "bounds": {
          "northeast": {
            "lat": 40.4641729,
            "lng": -88.2735719
          },
          "southwest": {
            "lat": 40.4641268,
            "lng": -88.2743528
          }
        },
        "location": {
          "lat": 40.4641668,
          "lng": -88.2739837
        },
        "location_type": "GEOMETRIC_CENTER",
        "viewport": {
          "northeast": {
            "lat": 40.4654988302915,
            "lng": -88.2726133697085
          },
          "southwest": {
            "lat": 40.4628008697085,
            "lng": -88.2753113302915
          }
        }
      },
      "place_id": "ChIJRYleIDL7DIgRo3225cvZvfo",
      "types": [
        "route"
      ]
    },
    {
      "address_components": [
        {
          "long_name": "Elliott",
          "short_name": "Elliott",
          "types": [
            "locality",
            "political"
          ]
        },
        {
          "long_name": "Dix Township",
          "short_name": "Dix Township",
          "types": [
            "administrative_area_level_3",
            "political"
          ]
        },
        {
          "long_name": "Ford County",
          "short_name": "Ford County",
          "types": [
            "administrative_area_level_2",
            "political"
          ]
        },
        {
          "long_name": "Illinois",
          "short_name": "IL",
          "types": [
            "administrative_area_level_1",
            "political"
          ]
        },
        {
          "long_name": "United States",
          "short_name": "US",
          "types": [
            "country",
            "political"
          ]
        }
      ],
      "formatted_address": "Elliott, IL, USA",
      "geometry": {
        "bounds": {
          "northeast": {
            "lat": 40.471224,
            "lng": -88.2670419
          },
          "southwest": {
            "lat": 40.459544,
            "lng": -88.288094
          }
        },
        "location": {
          "lat": 40.4647561,
          "lng": -88.2722728
        },
        "location_type": "APPROXIMATE",
        "viewport": {
          "northeast": {
            "lat": 40.471224,
            "lng": -88.2670419
          },
          "southwest": {
            "lat": 40.459544,
            "lng": -88.288094
          }
        }
      },
      "place_id": "ChIJ-b4DYS77DIgRxw6o_peagiA",
      "types": [
        "locality",
        "political"
      ]
    },
    {
      "address_components": [
        {
          "long_name": "60933",
          "short_name": "60933",
          "types": [
            "postal_code"
          ]
        },
        {
          "long_name": "Elliott",
          "short_name": "Elliott",
          "types": [
            "locality",
            "political"
          ]
        },
        {
          "long_name": "Dix Township",
          "short_name": "Dix Township",
          "types": [
            "administrative_area_level_3",
            "political"
          ]
        },
        {
          "long_name": "Ford County",
          "short_name": "Ford County",
          "types": [
            "administrative_area_level_2",
            "political"
          ]
        },
        {
          "long_name": "Illinois",
          "short_name": "IL",
          "types": [
            "administrative_area_level_1",
            "political"
          ]
        },
        {
          "long_name": "United States",
          "short_name": "US",
          "types": [
            "country",
            "political"
          ]
        }
      ],
      "formatted_address": "Elliott, IL 60933, USA",
      "geometry": {
        "bounds": {
          "northeast": {
            "lat": 40.472049,
            "lng": -88.27046
          },
          "southwest": {
            "lat": 40.457356,
            "lng": -88.2910061
          }
        },
        "location": {
          "lat": 40.4643445,
          "lng": -88.2801785
        },
        "location_type": "APPROXIMATE",
        "viewport": {
          "northeast": {
            "lat": 40.472049,
            "lng": -88.27046
          },
          "southwest": {
            "lat": 40.457356,
            "lng": -88.2910061
          }
        }
      },
      "place_id": "ChIJwVQVRzH7DIgRND7rVd9IH6k",
      "types": [
        "postal_code"
      ]
    },
    {
      "address_components": [
        {
          "long_name": "Dix Township",
          "short_name": "Dix Township",
          "types": [
            "administrative_area_level_3",
            "political"
          ]
        },
        {
          "long_name": "Ford County",
          "short_name": "Ford County",
          "types": [
            "administrative_area_level_2",
            "political"
          ]
        },
        {
          "long_name": "Illinois",
          "short_name": "IL",
          "types": [
            "administrative_area_level_1",
            "political"
          ]
        },
        {
          "long_name": "United States",
          "short_name": "US",
          "types": [
            "country",
            "political"
          ]
        }
      ],
      "formatted_address": "Dix Township, IL, USA",
      "geometry": {
        "bounds": {
          "northeast": {
            "lat": 40.5306031,
            "lng": -88.23370489999999
          },
          "southwest": {
            "lat": 40.3985849,
            "lng": -88.3470249
          }
        },
        "location": {
          "lat": 40.4799709,
          "lng": -88.3044908
        },
        "location_type": "APPROXIMATE",
        "viewport": {
          "northeast": {
            "lat": 40.5306031,
            "lng": -88.23370489999999
          },
          "southwest": {
            "lat": 40.3985849,
            "lng": -88.3470249
          }
        }
      },
      "place_id": "ChIJ963yYtH6DIgRDMyX2RyBQZM",
      "types": [
        "administrative_area_level_3",
        "political"
      ]
    },
    {
      "address_components": [
        {
          "long_name": "Ford County",
          "short_name": "Ford County",
          "types": [
            "administrative_area_level_2",
            "political"
          ]
        },
        {
          "long_name": "Illinois",
          "short_name": "IL",
          "types": [
            "administrative_area_level_1",
            "political"
          ]
        },
        {
          "long_name": "United States",
          "short_name": "US",
          "types": [
            "country",
            "political"
          ]
        }
      ],
      "formatted_address": "Ford County, IL, USA",
      "geometry": {
        "bounds": {
          "northeast": {
            "lat": 40.9977609,
            "lng": -87.931631
          },
          "southwest": {
            "lat": 40.3984779,
            "lng": -88.459957
          }
        },
        "location": {
          "lat": 40.4988592,
          "lng": -88.2071598
        },
        "location_type": "APPROXIMATE",
        "viewport": {
          "northeast": {
            "lat": 40.9977609,
            "lng": -87.931631
          },
          "southwest": {
            "lat": 40.3984779,
            "lng": -88.459957
          }
        }
      },
      "place_id": "ChIJxROAa08CDYgRaejlJlqk4vs",
      "types": [
        "administrative_area_level_2",
        "political"
      ]
    },
    {
      "address_components": [
        {
          "long_name": "Illinois",
          "short_name": "IL",
          "types": [
            "administrative_area_level_1",
            "political"
          ]
        },
        {
          "long_name": "United States",
          "short_name": "US",
          "types": [
            "country",
            "political"
          ]
        }
      ],
      "formatted_address": "Illinois, USA",
      "geometry": {
        "bounds": {
          "northeast": {
            "lat": 42.5083379,
            "lng": -87.4951991
          },
          "southwest": {
            "lat": 36.970298,
            "lng": -91.5130789
          }
        },
        "location": {
          "lat": 40.6331249,
          "lng": -89.3985283
        },
        "location_type": "APPROXIMATE",
        "viewport": {
          "northeast": {
            "lat": 42.5083379,
            "lng": -87.4951991
          },
          "southwest": {
            "lat": 36.970298,
            "lng": -91.5130789
          }
        }
      },
      "place_id": "ChIJGSZubzgtC4gRVlkRZFCCFX8",
      "types": [
        "administrative_area_level_1",
        "political"
      ]
    },
    {
      "address_components": [
        {
          "long_name": "United States",
          "short_name": "US",
          "types": [
            "country",
            "political"
          ]
        }
      ],
      "formatted_address": "United States",
      "geometry": {
        "bounds": {
          "northeast": {
            "lat": 71.3867745,
            "lng": -66.9502861
          },
          "southwest": {
            "lat": 18.9106768,
            "lng": 172.4458955
          }
        },
        "location": {
          "lat": 37.09024,
          "lng": -95.712891
        },
        "location_type": "APPROXIMATE",
        "viewport": {
          "northeast": {
            "lat": 49.38,
            "lng": -66.94
          },
          "southwest": {
            "lat": 25.82,
            "lng": -124.39
          }
        }
      },
      "place_id": "ChIJCzYy5IS16lQRQrfeQ5K5Oxw",
      "types": [
        "country",
        "political"
      ]
    }
  ],
  "status": "OK"
}
