{
  "results": [
    {
      "address_components": [
        {
          "long_name": "Market Street",
          "short_name": "Market St",
          "types": [
            "route"
          ]
        },
        {
          "long_name": "Dahlgren",
          "short_name": "Dahlgren",
          "types": [
            "locality",
            "political"
          ]
        },
        {
          "long_name": "Crouch Township",
          "short_name": "Crouch Township",
          "types": [
            "administrative_area_level_3",
            "political"
          ]
        },
        {
          "long_name": "Hamilton County",
          "short_name": "Hamilton County",
          "types": [
            "administrative_area_level_2",
            "political"
          ]
        },
        {
          "long_name": "Illinois",
          "short_name": "IL",
          "types": [
            "administrative_area_level_1",
            "political"
          ]
        },
        {
          "long_name": "United States",
          "short_name": "US",
          "types": [
            "country",
            "political"
          ]
        },
        {
          "long_name": "62828",
          "short_name": "62828",
          "types": [
            "postal_code"
          ]
        }
      ],
      "formatted_address": "Market St, Dahlgren, IL 62828, USA",
      "geometry": {
        "bounds": {
          "northeast": {
            "lat": 38.2241078,
            "lng": -88.55554339999999
          },
          "southwest": {
            "lat": 38.2233388,
            "lng": -88.5597075
          }
        },
        "location": {
          "lat": 38.2240072,
          "lng": -88.5574075
        },
        "location_type": "GEOMETRIC_CENTER",
        "viewport": {
          "northeast": {
            "lat": 38.22507228029149,
            "lng": -88.55554339999999
          },
          "southwest": {
            "lat": 38.2223743197085,
            "lng": -88.5597075
          }
        }
      },
      "place_id": "ChIJz1jXXVU5cYgRE-kxMIrf4vc",
      "types": [
        "route"
      ]
    },
    {
      "address_components": [
        {
          "long_name": "Belle Prairie City",
          "short_name": "Belle Prairie City",
          "types": [
            "locality",
            "political"
          ]
        },
        {
          "long_name": "Crouch Township",
          "short_name": "Crouch Township",
          "types": [
            "administrative_area_level_3",
            "political"
          ]
        },
        {
          "long_name": "Hamilton County",
          "short_name": "Hamilton County",
          "types": [
            "administrative_area_level_2",
            "political"
          ]
        },
        {
          "long_name": "Illinois",
          "short_name": "IL",
          "types": [
            "administrative_area_level_1",
            "political"
          ]
        },
        {
          "long_name": "United States",
          "short_name": "US",
          "types": [
            "country",
            "political"
          ]
        },
        {
          "long_name": "62828",
          "short_name": "62828",
          "types": [
            "postal_code"
          ]
        }
      ],
      "formatted_address": "Belle Prairie City, IL 62828, USA",
      "geometry": {
        "bounds": {
          "northeast": {
            "lat": 38.2269299,
            "lng": -88.547209
          },
          "southwest": {
            "lat": 38.219533,
            "lng": -88.565632
          }
        },
        "location": {
          "lat": 38.2225481,
          "lng": -88.5553307
        },
        "location_type": "APPROXIMATE",
        "viewport": {
          "northeast": {
            "lat": 38.2269299,
            "lng": -88.547209
          },
          "southwest": {
            "lat": 38.219533,
            "lng": -88.565632
          }
        }
      },
      "place_id": "ChIJhTlEAAA8cYgRAcWbHw40el0",
      "types": [
        "locality",
        "political"
      ]
    },
    {
      "address_components": [
        {
          "long_name": "Crouch Township",
          "short_name": "Crouch Township",
          "types": [
            "administrative_area_level_3",
            "political"
          ]
        },
        {
          "long_name": "Hamilton County",
          "short_name": "Hamilton County",
          "types": [
            "administrative_area_level_2",
            "political"
          ]
        },
        {
          "long_name": "Illinois",
          "short_name": "IL",
          "types": [
            "administrative_area_level_1",
            "political"
          ]
        },
        {
          "long_name": "United States",
          "short_name": "US",
          "types": [
            "country",
            "political"
          ]
        }
      ],
      "formatted_address": "Crouch Township, IL, USA",
      "geometry": {
        "bounds": {
          "northeast": {
            "lat": 38.256454,
            "lng": -88.370288
          },
          "southwest": {
            "lat": 38.1615109,
            "lng": -88.59358010000001
          }
        },
        "location": {
          "lat": 38.2333123,
          "lng": -88.50817649999999
        },
        "location_type": "APPROXIMATE",
        "viewport": {
          "northeast": {
            "lat": 38.256454,
            "lng": -88.370288
          },
          "southwest": {
            "lat": 38.1615109,
            "lng": -88.59358010000001
          }
        }
      },
      "place_id": "ChIJOW-2o-89cYgRs1bohxIFQkc",
      "types": [
        "administrative_area_level_3",
        "political"
      ]
    },
    {
      "address_components": [
        {
          "long_name": "62828",
          "short_name": "62828",
          "types": [
            "postal_code"
          ]
        },
        {
          "long_name": "Dahlgren",
          "short_name": "Dahlgren",
          "types": [
            "locality",
            "political"
          ]
        },
        {
          "long_name": "Illinois",
          "short_name": "IL",
          "types": [
            "administrative_area_level_1",
            "political"
          ]
        },
        {
          "long_name": "United States",
          "short_name": "US",
          "types": [
            "country",
            "political"
          ]
        }
      ],
      "formatted_address": "Dahlgren, IL 62828, USA",
      "geometry": {
        "bounds": {
          "northeast": {
            "lat": 38.2564431,
            "lng": -88.41122089999999
          },
          "southwest": {
            "lat": 38.110018,
            "lng": -88.6937669
          }
        },
        "location": {
          "lat": 38.2131618,
          "lng": -88.58551729999999
        },
        "location_type": "APPROXIMATE",
        "viewport": {
          "northeast": {
            "lat": 38.2564431,
            "lng": -88.41122089999999
          },
          "southwest": {
            "lat": 38.110018,
            "lng": -88.6937669
          }
        }
      },
      "place_id": "ChIJoyYn2UI6cYgRYf447ByBH10",
      "types": [
        "postal_code"
      ]
    },
    {
      "address_components": [
        {
          "long_name": "Hamilton County",
          "short_name": "Hamilton County",
          "types": [
            "administrative_area_level_2",
            "political"
          ]
        },
        {
          "long_name": "Illinois",
          "short_name": "IL",
          "types": [
            "administrative_area_level_1",
            "political"
          ]
        },
        {
          "long_name": "United States",
          "short_name": "US",
          "types": [
            "country",
            "political"
          ]
        }
      ],
      "formatted_address": "Hamilton County, IL, USA",
      "geometry": {
        "bounds": {
          "northeast": {
            "lat": 38.256661,
            "lng": -88.370288
          },
          "southwest": {
            "lat": 37.906428,
            "lng": -88.70663979999999
          }
        },
        "location": {
          "lat": 38.0543187,
          "lng": -88.55653099999999
        },
        "location_type": "APPROXIMATE",
        "viewport": {
          "northeast": {
            "lat": 38.256661,
            "lng": -88.370288
          },
          "southwest": {
            "lat": 37.906428,
            "lng": -88.70663979999999
          }
        }
      },
      "place_id": "ChIJxTTYW50jcYgRkTdceUpDl3w",
      "types": [
        "administrative_area_level_2",
        "political"
      ]
    },
    {
      "address_components": [
        {
          "long_name": "Mount Vernon",
          "short_name": "Mount Vernon",
          "types": [
            "political"
          ]
        },
        {
          "long_name": "Illinois",
          "short_name": "IL",
          "types": [
            "administrative_area_level_1",
            "political"
          ]
        },
        {
          "long_name": "United States",
          "short_name": "US",
          "types": [
            "country",
            "political"
          ]
        }
      ],
      "formatted_address": "Mount Vernon, IL, USA",
      "geometry": {
        "bounds": {
          "northeast": {
            "lat": 38.477015,
            "lng": -88.37048209999999
          },
          "southwest": {
            "lat": 37.906532,
            "lng": -89.149739
          }
        },
        "location": {
          "lat": 38.2267348,
          "lng": -88.86469799999999
        },
        "location_type": "APPROXIMATE",
        "viewport": {
          "northeast": {
            "lat": 38.477015,
            "lng": -88.37048209999999
          },
          "southwest": {
            "lat": 37.906532,
            "lng": -89.149739
          }
        }
      },
      "place_id": "ChIJQ33ifm0zcYgR3LciVP17trQ",
      "types": [
        "political"
      ]
    },
    {
      "address_components": [
        {
          "long_name": "Illinois",
          "short_name": "IL",
          "types": [
            "administrative_area_level_1",
            "political"
          ]
        },
        {
          "long_name": "United States",
          "short_name": "US",
          "types": [
            "country",
            "political"
          ]
        }
      ],
      "formatted_address": "Illinois, USA",
      "geometry": {
        "bounds": {
          "northeast": {
            "lat": 42.5083379,
            "lng": -87.4951991
          },
          "southwest": {
            "lat": 36.970298,
            "lng": -91.5130789
          }
        },
        "location": {
          "lat": 40.6331249,
          "lng": -89.3985283
        },
        "location_type": "APPROXIMATE",
        "viewport": {
          "northeast": {
            "lat": 42.5083379,
            "lng": -87.4951991
          },
          "southwest": {
            "lat": 36.970298,
            "lng": -91.5130789
          }
        }
      },
      "place_id": "ChIJGSZubzgtC4gRVlkRZFCCFX8",
      "types": [
        "administrative_area_level_1",
        "political"
      ]
    },
    {
      "address_components": [
        {
          "long_name": "United States",
          "short_name": "US",
          "types": [
            "country",
            "political"
          ]
        }
      ],
      "formatted_address": "United States",
      "geometry": {
        "bounds": {
          "northeast": {
            "lat": 71.3867745,
            "lng": -66.9502861
          },
          "southwest": {
            "lat": 18.9106768,
            "lng": 172.4458955
          }
        },
        "location": {
          "lat": 37.09024,
          "lng": -95.712891
        },
        "location_type": "APPROXIMATE",
        "viewport": {
          "northeast": {
            "lat": 49.38,
            "lng": -66.94
          },
          "southwest": {
            "lat": 25.82,
            "lng": -124.39
          }
        }
      },
      "place_id": "ChIJCzYy5IS16lQRQrfeQ5K5Oxw",
      "types": [
        "country",
        "political"
      ]
    }
  ],
  "status": "OK"
}
