{
  "results": [
    {
      "address_components": [
        {
          "long_name": "146-198",
          "short_name": "146-198",
          "types": [
            "street_number"
          ]
        },
        {
          "long_name": "Primrose Road",
          "short_name": "Primrose Rd",
          "types": [
            "route"
          ]
        },
        {
          "long_name": "McDonald",
          "short_name": "McDonald",
          "types": [
            "locality",
            "political"
          ]
        },
        {
          "long_name": "Mount Pleasant Township",
          "short_name": "Mt Pleasant Township",
          "types": [
            "administrative_area_level_3",
            "political"
          ]
        },
        {
          "long_name": "Washington County",
          "short_name": "Washington County",
          "types": [
            "administrative_area_level_2",
            "political"
          ]
        },
        {
          "long_name": "Pennsylvania",
          "short_name": "PA",
          "types": [
            "administrative_area_level_1",
            "political"
          ]
        },
        {
          "long_name": "United States",
          "short_name": "US",
          "types": [
            "country",
            "political"
          ]
        },
        {
          "long_name": "15057",
          "short_name": "15057",
          "types": [
            "postal_code"
          ]
        },
        {
          "long_name": "2809",
          "short_name": "2809",
          "types": [
            "postal_code_suffix"
          ]
        }
      ],
      "formatted_address": "146-198 Primrose Rd, McDonald, PA 15057, USA",
      "geometry": {
        "bounds": {
          "northeast": {
            "lat": 40.33433,
            "lng": -80.2563268
          },
          "southwest": {
            "lat": 40.3312911,
            "lng": -80.2567675
          }
        },
        "location": {
          "lat": 40.3320202,
          "lng": -80.2563515
        },
        "location_type": "RANGE_INTERPOLATED",
        "viewport": {
          "northeast": {
            "lat": 40.33433,
            "lng": -80.25519816970849
          },
          "southwest": {
            "lat": 40.3312911,
            "lng": -80.25789613029151
          }
        }
      },
      "place_id": "EiwxNDYtMTk4IFByaW1yb3NlIFJkLCBNY0RvbmFsZCwgUEEgMTUwNTcsIFVTQQ",
      "types": [
        "street_address"
      ]
    },
    {
      "address_components": [
        {
          "long_name": "Mount Pleasant Township",
          "short_name": "Mt Pleasant Township",
          "types": [
            "administrative_area_level_3",
            "political"
          ]
        },
        {
          "long_name": "Washington County",
          "short_name": "Washington County",
          "types": [
            "administrative_area_level_2",
            "political"
          ]
        },
        {
          "long_name": "Pennsylvania",
          "short_name": "PA",
          "types": [
            "administrative_area_level_1",
            "political"
          ]
        },
        {
          "long_name": "United States",
          "short_name": "US",
          "types": [
            "country",
            "political"
          ]
        }
      ],
      "formatted_address": "Mt Pleasant Township, PA, USA",
      "geometry": {
        "bounds": {
          "northeast": {
            "lat": 40.3641511,
            "lng": -80.240141
          },
          "southwest": {
            "lat": 40.23816600000001,
            "lng": -80.36238600000001
          }
        },
        "location": {
          "lat": 40.3285383,
          "lng": -80.2990246
        },
        "location_type": "APPROXIMATE",
        "viewport": {
          "northeast": {
            "lat": 40.3641511,
            "lng": -80.240141
          },
          "southwest": {
            "lat": 40.23816600000001,
            "lng": -80.36238600000001
          }
        }
      },
      "place_id": "ChIJl-_bqN1NNIgRruSvdJgKczE",
      "types": [
        "administrative_area_level_3",
        "political"
      ]
    },
    {
      "address_components": [
        {
          "long_name": "15057",
          "short_name": "15057",
          "types": [
            "postal_code"
          ]
        },
        {
          "long_name": "McDonald",
          "short_name": "McDonald",
          "types": [
            "locality",
            "political"
          ]
        },
        {
          "long_name": "Pennsylvania",
          "short_name": "PA",
          "types": [
            "administrative_area_level_1",
            "political"
          ]
        },
        {
          "long_name": "United States",
          "short_name": "US",
          "types": [
            "country",
            "political"
          ]
        }
      ],
      "formatted_address": "McDonald, PA 15057, USA",
      "geometry": {
        "bounds": {
          "northeast": {
            "lat": 40.42693209999999,
            "lng": -80.1330785
          },
          "southwest": {
            "lat": 40.2891149,
            "lng": -80.34509109999999
          }
        },
        "location": {
          "lat": 40.3652067,
          "lng": -80.254435
        },
        "location_type": "APPROXIMATE",
        "viewport": {
          "northeast": {
            "lat": 40.42693209999999,
            "lng": -80.1330785
          },
          "southwest": {
            "lat": 40.2891149,
            "lng": -80.34509109999999
          }
        }
      },
      "place_id": "ChIJDWScP0hQNIgR8_8_boNOSmg",
      "types": [
        "postal_code"
      ]
    },
    {
      "address_components": [
        {
          "long_name": "Washington County",
          "short_name": "Washington County",
          "types": [
            "administrative_area_level_2",
            "political"
          ]
        },
        {
          "long_name": "Pennsylvania",
          "short_name": "PA",
          "types": [
            "administrative_area_level_1",
            "political"
          ]
        },
        {
          "long_name": "United States",
          "short_name": "US",
          "types": [
            "country",
            "political"
          ]
        }
      ],
      "formatted_address": "Washington County, PA, USA",
      "geometry": {
        "bounds": {
          "northeast": {
            "lat": 40.477789,
            "lng": -79.838999
          },
          "southwest": {
            "lat": 39.9520799,
            "lng": -80.51928
          }
        },
        "location": {
          "lat": 40.1367719,
          "lng": -80.1875065
        },
        "location_type": "APPROXIMATE",
        "viewport": {
          "northeast": {
            "lat": 40.477789,
            "lng": -79.838999
          },
          "southwest": {
            "lat": 39.9520799,
            "lng": -80.51928
          }
        }
      },
      "place_id": "ChIJ77mzXIhUNIgRLeIAh52V2HI",
      "types": [
        "administrative_area_level_2",
        "political"
      ]
    },
    {
      "address_components": [
        {
          "long_name": "Pittsburgh",
          "short_name": "Pittsburgh",
          "types": [
            "political"
          ]
        },
        {
          "long_name": "United States",
          "short_name": "US",
          "types": [
            "country",
            "political"
          ]
        }
      ],
      "formatted_address": "Pittsburgh, USA",
      "geometry": {
        "bounds": {
          "northeast": {
            "lat": 41.1731849,
            "lng": -78.974649
          },
          "southwest": {
            "lat": 39.7207129,
            "lng": -80.5192179
          }
        },
        "location": {
          "lat": 40.3565093,
          "lng": -79.9192702
        },
        "location_type": "APPROXIMATE",
        "viewport": {
          "northeast": {
            "lat": 41.1731849,
            "lng": -78.974649
          },
          "southwest": {
            "lat": 39.7207129,
            "lng": -80.5192179
          }
        }
      },
      "place_id": "ChIJiWjZkAfsNIgRSXopSLGQlS4",
      "types": [
        "political"
      ]
    },
    {
      "address_components": [
        {
          "long_name": "Pennsylvania",
          "short_name": "PA",
          "types": [
            "administrative_area_level_1",
            "political"
          ]
        },
        {
          "long_name": "United States",
          "short_name": "US",
          "types": [
            "country",
            "political"
          ]
        }
      ],
      "formatted_address": "Pennsylvania, USA",
      "geometry": {
        "bounds": {
          "northeast": {
            "lat": 42.2693866,
            "lng": -74.6895018
          },
          "southwest": {
            "lat": 39.7197989,
            "lng": -80.51989499999999
          }
        },
        "location": {
          "lat": 41.2033216,
          "lng": -77.1945247
        },
        "location_type": "APPROXIMATE",
        "viewport": {
          "northeast": {
            "lat": 42.2693866,
            "lng": -74.6895018
          },
          "southwest": {
            "lat": 39.7197989,
            "lng": -80.51989499999999
          }
        }
      },
      "place_id": "ChIJieUyHiaALYgRPbQiUEchRsI",
      "types": [
        "administrative_area_level_1",
        "political"
      ]
    },
    {
      "address_components": [
        {
          "long_name": "United States",
          "short_name": "US",
          "types": [
            "country",
            "political"
          ]
        }
      ],
      "formatted_address": "United States",
      "geometry": {
        "bounds": {
          "northeast": {
            "lat": 71.3867745,
            "lng": -66.9502861
          },
          "southwest": {
            "lat": 18.9106768,
            "lng": 172.4458955
          }
        },
        "location": {
          "lat": 37.09024,
          "lng": -95.712891
        },
        "location_type": "APPROXIMATE",
        "viewport": {
          "northeast": {
            "lat": 49.38,
            "lng": -66.94
          },
          "southwest": {
            "lat": 25.82,
            "lng": -124.39
          }
        }
      },
      "place_id": "ChIJCzYy5IS16lQRQrfeQ5K5Oxw",
      "types": [
        "country",
        "political"
      ]
    }
  ],
  "status": "OK"
}
