{
  "results": [
    {
      "address_components": [
        {
          "long_name": "State Street",
          "short_name": "State St",
          "types": [
            "route"
          ]
        },
        {
          "long_name": "Glenwood",
          "short_name": "Glenwood",
          "types": [
            "locality",
            "political"
          ]
        },
        {
          "long_name": "Bloom Township",
          "short_name": "Bloom Township",
          "types": [
            "administrative_area_level_3",
            "political"
          ]
        },
        {
          "long_name": "Cook County",
          "short_name": "Cook County",
          "types": [
            "administrative_area_level_2",
            "political"
          ]
        },
        {
          "long_name": "Illinois",
          "short_name": "IL",
          "types": [
            "administrative_area_level_1",
            "political"
          ]
        },
        {
          "long_name": "United States",
          "short_name": "US",
          "types": [
            "country",
            "political"
          ]
        },
        {
          "long_name": "60425",
          "short_name": "60425",
          "types": [
            "postal_code"
          ]
        }
      ],
      "formatted_address": "State St, Glenwood, IL 60425, USA",
      "geometry": {
        "bounds": {
          "northeast": {
            "lat": 41.5421103,
            "lng": -87.6115301
          },
          "southwest": {
            "lat": 41.5386034,
            "lng": -87.6120993
          }
        },
        "location": {
          "lat": 41.54033990000001,
          "lng": -87.61163390000002
        },
        "location_type": "GEOMETRIC_CENTER",
        "viewport": {
          "northeast": {
            "lat": 41.5421103,
            "lng": -87.6104657197085
          },
          "southwest": {
            "lat": 41.5386034,
            "lng": -87.6131636802915
          }
        }
      },
      "place_id": "ChIJ0XIhIykfDogRh5dEyQoypqc",
      "types": [
        "route"
      ]
    },
    {
      "address_components": [
        {
          "long_name": "60425",
          "short_name": "60425",
          "types": [
            "postal_code"
          ]
        },
        {
          "long_name": "Glenwood",
          "short_name": "Glenwood",
          "types": [
            "locality",
            "political"
          ]
        },
        {
          "long_name": "Cook County",
          "short_name": "Cook County",
          "types": [
            "administrative_area_level_2",
            "political"
          ]
        },
        {
          "long_name": "Illinois",
          "short_name": "IL",
          "types": [
            "administrative_area_level_1",
            "political"
          ]
        },
        {
          "long_name": "United States",
          "short_name": "US",
          "types": [
            "country",
            "political"
          ]
        }
      ],
      "formatted_address": "Glenwood, IL 60425, USA",
      "geometry": {
        "bounds": {
          "northeast": {
            "lat": 41.5607419,
            "lng": -87.581845
          },
          "southwest": {
            "lat": 41.5208241,
            "lng": -87.640979
          }
        },
        "location": {
          "lat": 41.5415621,
          "lng": -87.6137011
        },
        "location_type": "APPROXIMATE",
        "viewport": {
          "northeast": {
            "lat": 41.5607419,
            "lng": -87.581845
          },
          "southwest": {
            "lat": 41.5208241,
            "lng": -87.640979
          }
        }
      },
      "place_id": "ChIJQYWygS4fDogR6tVkn85Q-Tw",
      "types": [
        "postal_code"
      ]
    },
    {
      "address_components": [
        {
          "long_name": "Bloom Township",
          "short_name": "Bloom Township",
          "types": [
            "administrative_area_level_3",
            "political"
          ]
        },
        {
          "long_name": "Cook County",
          "short_name": "Cook County",
          "types": [
            "administrative_area_level_2",
            "political"
          ]
        },
        {
          "long_name": "Illinois",
          "short_name": "IL",
          "types": [
            "administrative_area_level_1",
            "political"
          ]
        },
        {
          "long_name": "United States",
          "short_name": "US",
          "types": [
            "country",
            "political"
          ]
        }
      ],
      "formatted_address": "Bloom Township, IL, USA",
      "geometry": {
        "bounds": {
          "northeast": {
            "lat": 41.5577351,
            "lng": -87.525027
          },
          "southwest": {
            "lat": 41.46953389999999,
            "lng": -87.674746
          }
        },
        "location": {
          "lat": 41.5162829,
          "lng": -87.5988876
        },
        "location_type": "APPROXIMATE",
        "viewport": {
          "northeast": {
            "lat": 41.5577352,
            "lng": -87.525027
          },
          "southwest": {
            "lat": 41.46953389999999,
            "lng": -87.674746
          }
        }
      },
      "place_id": "ChIJC17EB5MeDogRiXV3wMtAvto",
      "types": [
        "administrative_area_level_3",
        "political"
      ]
    },
    {
      "address_components": [
        {
          "long_name": "Cook County",
          "short_name": "Cook County",
          "types": [
            "administrative_area_level_2",
            "political"
          ]
        },
        {
          "long_name": "Illinois",
          "short_name": "IL",
          "types": [
            "administrative_area_level_1",
            "political"
          ]
        },
        {
          "long_name": "United States",
          "short_name": "US",
          "types": [
            "country",
            "political"
          ]
        }
      ],
      "formatted_address": "Cook County, IL, USA",
      "geometry": {
        "bounds": {
          "northeast": {
            "lat": 42.1543239,
            "lng": -87.52404399999999
          },
          "southwest": {
            "lat": 41.46953389999999,
            "lng": -88.2634779
          }
        },
        "location": {
          "lat": 41.7376587,
          "lng": -87.697554
        },
        "location_type": "APPROXIMATE",
        "viewport": {
          "northeast": {
            "lat": 42.1543239,
            "lng": -87.52404399999999
          },
          "southwest": {
            "lat": 41.46953389999999,
            "lng": -88.2634779
          }
        }
      },
      "place_id": "ChIJdRNDZqqxD4gRPOAOIwnX2Yo",
      "types": [
        "administrative_area_level_2",
        "political"
      ]
    },
    {
      "address_components": [
        {
          "long_name": "Chicago Metropolitan Area",
          "short_name": "Chicago Metropolitan Area",
          "types": [
            "political"
          ]
        },
        {
          "long_name": "United States",
          "short_name": "US",
          "types": [
            "country",
            "political"
          ]
        }
      ],
      "formatted_address": "Chicago Metropolitan Area, USA",
      "geometry": {
        "bounds": {
          "northeast": {
            "lat": 42.670123,
            "lng": -86.92925699999999
          },
          "southwest": {
            "lat": 40.7364641,
            "lng": -88.942292
          }
        },
        "location": {
          "lat": 41.7435073,
          "lng": -88.0118473
        },
        "location_type": "APPROXIMATE",
        "viewport": {
          "northeast": {
            "lat": 42.670123,
            "lng": -86.92925699999999
          },
          "southwest": {
            "lat": 40.7364641,
            "lng": -88.942292
          }
        }
      },
      "place_id": "ChIJg-CZjExEDogRNJNXmgqEe9o",
      "types": [
        "political"
      ]
    },
    {
      "address_components": [
        {
          "long_name": "Illinois",
          "short_name": "IL",
          "types": [
            "administrative_area_level_1",
            "political"
          ]
        },
        {
          "long_name": "United States",
          "short_name": "US",
          "types": [
            "country",
            "political"
          ]
        }
      ],
      "formatted_address": "Illinois, USA",
      "geometry": {
        "bounds": {
          "northeast": {
            "lat": 42.5083379,
            "lng": -87.4951991
          },
          "southwest": {
            "lat": 36.970298,
            "lng": -91.5130789
          }
        },
        "location": {
          "lat": 40.6331249,
          "lng": -89.3985283
        },
        "location_type": "APPROXIMATE",
        "viewport": {
          "northeast": {
            "lat": 42.5083379,
            "lng": -87.4951991
          },
          "southwest": {
            "lat": 36.970298,
            "lng": -91.5130789
          }
        }
      },
      "place_id": "ChIJGSZubzgtC4gRVlkRZFCCFX8",
      "types": [
        "administrative_area_level_1",
        "political"
      ]
    },
    {
      "address_components": [
        {
          "long_name": "United States",
          "short_name": "US",
          "types": [
            "country",
            "political"
          ]
        }
      ],
      "formatted_address": "United States",
      "geometry": {
        "bounds": {
          "northeast": {
            "lat": 71.3867745,
            "lng": -66.9502861
          },
          "southwest": {
            "lat": 18.9106768,
            "lng": 172.4458955
          }
        },
        "location": {
          "lat": 37.09024,
          "lng": -95.712891
        },
        "location_type": "APPROXIMATE",
        "viewport": {
          "northeast": {
            "lat": 49.38,
            "lng": -66.94
          },
          "southwest": {
            "lat": 25.82,
            "lng": -124.39
          }
        }
      },
      "place_id": "ChIJCzYy5IS16lQRQrfeQ5K5Oxw",
      "types": [
        "country",
        "political"
      ]
    }
  ],
  "status": "OK"
}
