{
  "results": [
    {
      "address_components": [
        {
          "long_name": "251",
          "short_name": "251",
          "types": [
            "street_number"
          ]
        },
        {
          "long_name": "Valley Run Drive",
          "short_name": "Valley Run Dr",
          "types": [
            "route"
          ]
        },
        {
          "long_name": "Erlton-Ellisburg",
          "short_name": "Erlton-Ellisburg",
          "types": [
            "neighborhood",
            "political"
          ]
        },
        {
          "long_name": "Cherry Hill",
          "short_name": "Cherry Hill",
          "types": [
            "locality",
            "political"
          ]
        },
        {
          "long_name": "Camden County",
          "short_name": "Camden County",
          "types": [
            "administrative_area_level_2",
            "political"
          ]
        },
        {
          "long_name": "New Jersey",
          "short_name": "NJ",
          "types": [
            "administrative_area_level_1",
            "political"
          ]
        },
        {
          "long_name": "United States",
          "short_name": "US",
          "types": [
            "country",
            "political"
          ]
        },
        {
          "long_name": "08002",
          "short_name": "08002",
          "types": [
            "postal_code"
          ]
        },
        {
          "long_name": "3028",
          "short_name": "3028",
          "types": [
            "postal_code_suffix"
          ]
        }
      ],
      "formatted_address": "251 Valley Run Dr, Cherry Hill, NJ 08002, USA",
      "geometry": {
        "location": {
          "lat": 39.9198901,
          "lng": -75.0094127
        },
        "location_type": "ROOFTOP",
        "viewport": {
          "northeast": {
            "lat": 39.9212390802915,
            "lng": -75.0080637197085
          },
          "southwest": {
            "lat": 39.9185411197085,
            "lng": -75.01076168029151
          }
        }
      },
      "place_id": "ChIJXa58QwvLxokRn-gIiJXVId4",
      "types": [
        "street_address"
      ]
    },
    {
      "address_components": [
        {
          "long_name": "Erlton-Ellisburg",
          "short_name": "Erlton-Ellisburg",
          "types": [
            "neighborhood",
            "political"
          ]
        },
        {
          "long_name": "Cherry Hill",
          "short_name": "Cherry Hill",
          "types": [
            "locality",
            "political"
          ]
        },
        {
          "long_name": "Camden County",
          "short_name": "Camden County",
          "types": [
            "administrative_area_level_2",
            "political"
          ]
        },
        {
          "long_name": "New Jersey",
          "short_name": "NJ",
          "types": [
            "administrative_area_level_1",
            "political"
          ]
        },
        {
          "long_name": "United States",
          "short_name": "US",
          "types": [
            "country",
            "political"
          ]
        }
      ],
      "formatted_address": "Erlton-Ellisburg, Cherry Hill, NJ, USA",
      "geometry": {
        "bounds": {
          "northeast": {
            "lat": 39.928334,
            "lng": -74.9979649
          },
          "southwest": {
            "lat": 39.897304,
            "lng": -75.03478989999999
          }
        },
        "location": {
          "lat": 39.9166855,
          "lng": -75.0114612
        },
        "location_type": "APPROXIMATE",
        "viewport": {
          "northeast": {
            "lat": 39.928334,
            "lng": -74.9979649
          },
          "southwest": {
            "lat": 39.897304,
            "lng": -75.03478989999999
          }
        }
      },
      "place_id": "ChIJDSKdr53LxokRAciaYR0Kyi0",
      "types": [
        "neighborhood",
        "political"
      ]
    },
    {
      "address_components": [
        {
          "long_name": "Cherry Hill",
          "short_name": "Cherry Hill",
          "types": [
            "locality",
            "political"
          ]
        },
        {
          "long_name": "Camden County",
          "short_name": "Camden County",
          "types": [
            "administrative_area_level_2",
            "political"
          ]
        },
        {
          "long_name": "New Jersey",
          "short_name": "NJ",
          "types": [
            "administrative_area_level_1",
            "political"
          ]
        },
        {
          "long_name": "United States",
          "short_name": "US",
          "types": [
            "country",
            "political"
          ]
        }
      ],
      "formatted_address": "Cherry Hill, NJ, USA",
      "geometry": {
        "bounds": {
          "northeast": {
            "lat": 39.9541879,
            "lng": -74.926935
          },
          "southwest": {
            "lat": 39.8593501,
            "lng": -75.0648188
          }
        },
        "location": {
          "lat": 39.926813,
          "lng": -75.0246312
        },
        "location_type": "APPROXIMATE",
        "viewport": {
          "northeast": {
            "lat": 39.9541879,
            "lng": -74.926935
          },
          "southwest": {
            "lat": 39.8593501,
            "lng": -75.0648188
          }
        }
      },
      "place_id": "ChIJlT7iC2bLxokRwL2t2OwJ2zU",
      "types": [
        "locality",
        "political"
      ]
    },
    {
      "address_components": [
        {
          "long_name": "08002",
          "short_name": "08002",
          "types": [
            "postal_code"
          ]
        },
        {
          "long_name": "Cherry Hill",
          "short_name": "Cherry Hill",
          "types": [
            "locality",
            "political"
          ]
        },
        {
          "long_name": "New Jersey",
          "short_name": "NJ",
          "types": [
            "administrative_area_level_1",
            "political"
          ]
        },
        {
          "long_name": "United States",
          "short_name": "US",
          "types": [
            "country",
            "political"
          ]
        }
      ],
      "formatted_address": "Cherry Hill, NJ 08002, USA",
      "geometry": {
        "bounds": {
          "northeast": {
            "lat": 39.9541879,
            "lng": -74.982503
          },
          "southwest": {
            "lat": 39.9033379,
            "lng": -75.064199
          }
        },
        "location": {
          "lat": 39.9311729,
          "lng": -75.0260667
        },
        "location_type": "APPROXIMATE",
        "viewport": {
          "northeast": {
            "lat": 39.9541879,
            "lng": -74.982503
          },
          "southwest": {
            "lat": 39.9033379,
            "lng": -75.064199
          }
        }
      },
      "place_id": "ChIJ8e5qEKXLxokR-jVCpRwz6YA",
      "types": [
        "postal_code"
      ]
    },
    {
      "address_components": [
        {
          "long_name": "Camden County",
          "short_name": "Camden County",
          "types": [
            "administrative_area_level_2",
            "political"
          ]
        },
        {
          "long_name": "New Jersey",
          "short_name": "NJ",
          "types": [
            "administrative_area_level_1",
            "political"
          ]
        },
        {
          "long_name": "United States",
          "short_name": "US",
          "types": [
            "country",
            "political"
          ]
        }
      ],
      "formatted_address": "Camden County, NJ, USA",
      "geometry": {
        "bounds": {
          "northeast": {
            "lat": 39.9960808,
            "lng": -74.73630899999999
          },
          "southwest": {
            "lat": 39.608288,
            "lng": -75.1344021
          }
        },
        "location": {
          "lat": 39.8592439,
          "lng": -75.0143824
        },
        "location_type": "APPROXIMATE",
        "viewport": {
          "northeast": {
            "lat": 39.9960808,
            "lng": -74.73630899999999
          },
          "southwest": {
            "lat": 39.608288,
            "lng": -75.1344021
          }
        }
      },
      "place_id": "ChIJ7VrEU68wwYkRrv6SNMgvyrk",
      "types": [
        "administrative_area_level_2",
        "political"
      ]
    },
    {
      "address_components": [
        {
          "long_name": "New Jersey",
          "short_name": "NJ",
          "types": [
            "administrative_area_level_1",
            "political"
          ]
        },
        {
          "long_name": "United States",
          "short_name": "US",
          "types": [
            "country",
            "political"
          ]
        }
      ],
      "formatted_address": "New Jersey, USA",
      "geometry": {
        "bounds": {
          "northeast": {
            "lat": 41.357423,
            "lng": -73.9024391
          },
          "southwest": {
            "lat": 38.9285589,
            "lng": -75.5597921
          }
        },
        "location": {
          "lat": 40.0583238,
          "lng": -74.4056612
        },
        "location_type": "APPROXIMATE",
        "viewport": {
          "northeast": {
            "lat": 41.357423,
            "lng": -73.9024391
          },
          "southwest": {
            "lat": 38.9286032,
            "lng": -75.5597921
          }
        }
      },
      "place_id": "ChIJn0AAnpX7wIkRjW0_-Ad70iw",
      "types": [
        "administrative_area_level_1",
        "political"
      ]
    },
    {
      "address_components": [
        {
          "long_name": "United States",
          "short_name": "US",
          "types": [
            "country",
            "political"
          ]
        }
      ],
      "formatted_address": "United States",
      "geometry": {
        "bounds": {
          "northeast": {
            "lat": 71.3867745,
            "lng": -66.9502861
          },
          "southwest": {
            "lat": 18.9106768,
            "lng": 172.4458955
          }
        },
        "location": {
          "lat": 37.09024,
          "lng": -95.712891
        },
        "location_type": "APPROXIMATE",
        "viewport": {
          "northeast": {
            "lat": 49.38,
            "lng": -66.94
          },
          "southwest": {
            "lat": 25.82,
            "lng": -124.39
          }
        }
      },
      "place_id": "ChIJCzYy5IS16lQRQrfeQ5K5Oxw",
      "types": [
        "country",
        "political"
      ]
    }
  ],
  "status": "OK"
}
