{
  "results": [
    {
      "address_components": [
        {
          "long_name": "11",
          "short_name": "11",
          "types": [
            "street_number"
          ]
        },
        {
          "long_name": "Debra Drive",
          "short_name": "Debra Dr",
          "types": [
            "route"
          ]
        },
        {
          "long_name": "Carolina",
          "short_name": "Carolina",
          "types": [
            "neighborhood",
            "political"
          ]
        },
        {
          "long_name": "Richmond",
          "short_name": "Richmond",
          "types": [
            "locality",
            "political"
          ]
        },
        {
          "long_name": "Washington County",
          "short_name": "Washington County",
          "types": [
            "administrative_area_level_2",
            "political"
          ]
        },
        {
          "long_name": "Rhode Island",
          "short_name": "RI",
          "types": [
            "administrative_area_level_1",
            "political"
          ]
        },
        {
          "long_name": "United States",
          "short_name": "US",
          "types": [
            "country",
            "political"
          ]
        },
        {
          "long_name": "02812",
          "short_name": "02812",
          "types": [
            "postal_code"
          ]
        },
        {
          "long_name": "1007",
          "short_name": "1007",
          "types": [
            "postal_code_suffix"
          ]
        }
      ],
      "formatted_address": "11 Debra Dr, Richmond, RI 02812, USA",
      "geometry": {
        "location": {
          "lat": 41.462318,
          "lng": -71.658622
        },
        "location_type": "ROOFTOP",
        "viewport": {
          "northeast": {
            "lat": 41.46366698029149,
            "lng": -71.65727301970848
          },
          "southwest": {
            "lat": 41.4609690197085,
            "lng": -71.6599709802915
          }
        }
      },
      "place_id": "ChIJ1wEq-a7G5YkRbeBza8b5stU",
      "types": [
        "street_address"
      ]
    },
    {
      "address_components": [
        {
          "long_name": "Carolina",
          "short_name": "Carolina",
          "types": [
            "neighborhood",
            "political"
          ]
        },
        {
          "long_name": "Richmond",
          "short_name": "Richmond",
          "types": [
            "locality",
            "political"
          ]
        },
        {
          "long_name": "Washington County",
          "short_name": "Washington County",
          "types": [
            "administrative_area_level_2",
            "political"
          ]
        },
        {
          "long_name": "Rhode Island",
          "short_name": "RI",
          "types": [
            "administrative_area_level_1",
            "political"
          ]
        },
        {
          "long_name": "United States",
          "short_name": "US",
          "types": [
            "country",
            "political"
          ]
        }
      ],
      "formatted_address": "Carolina, Richmond, RI, USA",
      "geometry": {
        "bounds": {
          "northeast": {
            "lat": 41.4816404,
            "lng": -71.641776
          },
          "southwest": {
            "lat": 41.44491780000001,
            "lng": -71.6769611
          }
        },
        "location": {
          "lat": 41.46382970000001,
          "lng": -71.66137549999999
        },
        "location_type": "APPROXIMATE",
        "viewport": {
          "northeast": {
            "lat": 41.4816404,
            "lng": -71.641776
          },
          "southwest": {
            "lat": 41.44491780000001,
            "lng": -71.6769611
          }
        }
      },
      "place_id": "ChIJ4er2AKvG5YkRKlu0jQyTtPs",
      "types": [
        "neighborhood",
        "political"
      ]
    },
    {
      "address_components": [
        {
          "long_name": "Richmond",
          "short_name": "Richmond",
          "types": [
            "locality",
            "political"
          ]
        },
        {
          "long_name": "Washington County",
          "short_name": "Washington County",
          "types": [
            "administrative_area_level_2",
            "political"
          ]
        },
        {
          "long_name": "Rhode Island",
          "short_name": "RI",
          "types": [
            "administrative_area_level_1",
            "political"
          ]
        },
        {
          "long_name": "United States",
          "short_name": "US",
          "types": [
            "country",
            "political"
          ]
        }
      ],
      "formatted_address": "Richmond, RI, USA",
      "geometry": {
        "bounds": {
          "northeast": {
            "lat": 41.5641399,
            "lng": -71.596814
          },
          "southwest": {
            "lat": 41.4283239,
            "lng": -71.722554
          }
        },
        "location": {
          "lat": 41.4944764,
          "lng": -71.67083629999999
        },
        "location_type": "APPROXIMATE",
        "viewport": {
          "northeast": {
            "lat": 41.5641399,
            "lng": -71.596814
          },
          "southwest": {
            "lat": 41.4283239,
            "lng": -71.722554
          }
        }
      },
      "place_id": "ChIJcRnsPmPG5YkRk92qseMvsUE",
      "types": [
        "locality",
        "political"
      ]
    },
    {
      "address_components": [
        {
          "long_name": "02812",
          "short_name": "02812",
          "types": [
            "postal_code"
          ]
        },
        {
          "long_name": "Carolina",
          "short_name": "Carolina",
          "types": [
            "neighborhood",
            "political"
          ]
        },
        {
          "long_name": "Washington County",
          "short_name": "Washington County",
          "types": [
            "administrative_area_level_2",
            "political"
          ]
        },
        {
          "long_name": "Rhode Island",
          "short_name": "RI",
          "types": [
            "administrative_area_level_1",
            "political"
          ]
        },
        {
          "long_name": "United States",
          "short_name": "US",
          "types": [
            "country",
            "political"
          ]
        }
      ],
      "formatted_address": "Carolina, RI 02812, USA",
      "geometry": {
        "bounds": {
          "northeast": {
            "lat": 41.5022279,
            "lng": -71.6264039
          },
          "southwest": {
            "lat": 41.45525689999999,
            "lng": -71.690697
          }
        },
        "location": {
          "lat": 41.4780829,
          "lng": -71.649536
        },
        "location_type": "APPROXIMATE",
        "viewport": {
          "northeast": {
            "lat": 41.5022279,
            "lng": -71.6264039
          },
          "southwest": {
            "lat": 41.45525689999999,
            "lng": -71.690697
          }
        }
      },
      "place_id": "ChIJrXLBtCHE5YkR4RBy77Gxi0A",
      "types": [
        "postal_code"
      ]
    },
    {
      "address_components": [
        {
          "long_name": "Washington County",
          "short_name": "Washington County",
          "types": [
            "administrative_area_level_2",
            "political"
          ]
        },
        {
          "long_name": "Rhode Island",
          "short_name": "RI",
          "types": [
            "administrative_area_level_1",
            "political"
          ]
        },
        {
          "long_name": "United States",
          "short_name": "US",
          "types": [
            "country",
            "political"
          ]
        }
      ],
      "formatted_address": "Washington County, RI, USA",
      "geometry": {
        "bounds": {
          "northeast": {
            "lat": 41.6549521,
            "lng": -71.3805419
          },
          "southwest": {
            "lat": 41.1466984,
            "lng": -71.8923425
          }
        },
        "location": {
          "lat": 41.45681130000001,
          "lng": -71.6673352
        },
        "location_type": "APPROXIMATE",
        "viewport": {
          "northeast": {
            "lat": 41.6549521,
            "lng": -71.3805419
          },
          "southwest": {
            "lat": 41.3035019,
            "lng": -71.8923425
          }
        }
      },
      "place_id": "ChIJxbKLtNTB5YkR5UzSIqFkN_8",
      "types": [
        "administrative_area_level_2",
        "political"
      ]
    },
    {
      "address_components": [
        {
          "long_name": "Rhode Island",
          "short_name": "RI",
          "types": [
            "administrative_area_level_1",
            "political"
          ]
        },
        {
          "long_name": "United States",
          "short_name": "US",
          "types": [
            "country",
            "political"
          ]
        }
      ],
      "formatted_address": "Rhode Island, USA",
      "geometry": {
        "bounds": {
          "northeast": {
            "lat": 42.0188,
            "lng": -71.1205471
          },
          "southwest": {
            "lat": 41.1466984,
            "lng": -71.8923425
          }
        },
        "location": {
          "lat": 41.5800945,
          "lng": -71.4774291
        },
        "location_type": "APPROXIMATE",
        "viewport": {
          "northeast": {
            "lat": 42.0188,
            "lng": -71.1205471
          },
          "southwest": {
            "lat": 41.1466984,
            "lng": -71.8923425
          }
        }
      },
      "place_id": "ChIJD9cOYhQ15IkR5wbB57wYTh4",
      "types": [
        "administrative_area_level_1",
        "political"
      ]
    },
    {
      "address_components": [
        {
          "long_name": "United States",
          "short_name": "US",
          "types": [
            "country",
            "political"
          ]
        }
      ],
      "formatted_address": "United States",
      "geometry": {
        "bounds": {
          "northeast": {
            "lat": 71.3867745,
            "lng": -66.9502861
          },
          "southwest": {
            "lat": 18.9106768,
            "lng": 172.4458955
          }
        },
        "location": {
          "lat": 37.09024,
          "lng": -95.712891
        },
        "location_type": "APPROXIMATE",
        "viewport": {
          "northeast": {
            "lat": 49.38,
            "lng": -66.94
          },
          "southwest": {
            "lat": 25.82,
            "lng": -124.39
          }
        }
      },
      "place_id": "ChIJCzYy5IS16lQRQrfeQ5K5Oxw",
      "types": [
        "country",
        "political"
      ]
    }
  ],
  "status": "OK"
}
