{
  "results": [
    {
      "address_components": [
        {
          "long_name": "1520",
          "short_name": "1520",
          "types": [
            "street_number"
          ]
        },
        {
          "long_name": "Gedern Drive",
          "short_name": "Gedern Dr",
          "types": [
            "route"
          ]
        },
        {
          "long_name": "Columbia",
          "short_name": "Columbia",
          "types": [
            "locality",
            "political"
          ]
        },
        {
          "long_name": "Monroe County",
          "short_name": "Monroe County",
          "types": [
            "administrative_area_level_2",
            "political"
          ]
        },
        {
          "long_name": "Illinois",
          "short_name": "IL",
          "types": [
            "administrative_area_level_1",
            "political"
          ]
        },
        {
          "long_name": "United States",
          "short_name": "US",
          "types": [
            "country",
            "political"
          ]
        },
        {
          "long_name": "62236",
          "short_name": "62236",
          "types": [
            "postal_code"
          ]
        },
        {
          "long_name": "2601",
          "short_name": "2601",
          "types": [
            "postal_code_suffix"
          ]
        }
      ],
      "formatted_address": "1520 Gedern Dr, Columbia, IL 62236, USA",
      "geometry": {
        "location": {
          "lat": 38.458136,
          "lng": -90.215498
        },
        "location_type": "ROOFTOP",
        "viewport": {
          "northeast": {
            "lat": 38.45948498029149,
            "lng": -90.21414901970849
          },
          "southwest": {
            "lat": 38.45678701970849,
            "lng": -90.2168469802915
          }
        }
      },
      "place_id": "ChIJR4TariS62IcRx7bvgHbuHyo",
      "types": [
        "street_address"
      ]
    },
    {
      "address_components": [
        {
          "long_name": "Columbia",
          "short_name": "Columbia",
          "types": [
            "locality",
            "political"
          ]
        },
        {
          "long_name": "Monroe County",
          "short_name": "Monroe County",
          "types": [
            "administrative_area_level_2",
            "political"
          ]
        },
        {
          "long_name": "Illinois",
          "short_name": "IL",
          "types": [
            "administrative_area_level_1",
            "political"
          ]
        },
        {
          "long_name": "United States",
          "short_name": "US",
          "types": [
            "country",
            "political"
          ]
        }
      ],
      "formatted_address": "Columbia, IL, USA",
      "geometry": {
        "bounds": {
          "northeast": {
            "lat": 38.4875309,
            "lng": -90.1670639
          },
          "southwest": {
            "lat": 38.4199679,
            "lng": -90.269848
          }
        },
        "location": {
          "lat": 38.44366369999999,
          "lng": -90.2012239
        },
        "location_type": "APPROXIMATE",
        "viewport": {
          "northeast": {
            "lat": 38.4875309,
            "lng": -90.1670639
          },
          "southwest": {
            "lat": 38.4199679,
            "lng": -90.269848
          }
        }
      },
      "place_id": "ChIJcaN4lbiw2IcRtl8SGkqacds",
      "types": [
        "locality",
        "political"
      ]
    },
    {
      "address_components": [
        {
          "long_name": "62236",
          "short_name": "62236",
          "types": [
            "postal_code"
          ]
        },
        {
          "long_name": "Columbia",
          "short_name": "Columbia",
          "types": [
            "locality",
            "political"
          ]
        },
        {
          "long_name": "Illinois",
          "short_name": "IL",
          "types": [
            "administrative_area_level_1",
            "political"
          ]
        },
        {
          "long_name": "United States",
          "short_name": "US",
          "types": [
            "country",
            "political"
          ]
        }
      ],
      "formatted_address": "Columbia, IL 62236, USA",
      "geometry": {
        "bounds": {
          "northeast": {
            "lat": 38.5177609,
            "lng": -90.101113
          },
          "southwest": {
            "lat": 38.3610539,
            "lng": -90.330017
          }
        },
        "location": {
          "lat": 38.4217051,
          "lng": -90.20571079999999
        },
        "location_type": "APPROXIMATE",
        "viewport": {
          "northeast": {
            "lat": 38.5177609,
            "lng": -90.101113
          },
          "southwest": {
            "lat": 38.3610539,
            "lng": -90.330017
          }
        }
      },
      "place_id": "ChIJhfyt8ce72IcRtYYNDnv2iiE",
      "types": [
        "postal_code"
      ]
    },
    {
      "address_components": [
        {
          "long_name": "Monroe County",
          "short_name": "Monroe County",
          "types": [
            "administrative_area_level_2",
            "political"
          ]
        },
        {
          "long_name": "Illinois",
          "short_name": "IL",
          "types": [
            "administrative_area_level_1",
            "political"
          ]
        },
        {
          "long_name": "United States",
          "short_name": "US",
          "types": [
            "country",
            "political"
          ]
        }
      ],
      "formatted_address": "Monroe County, IL, USA",
      "geometry": {
        "bounds": {
          "northeast": {
            "lat": 38.5223271,
            "lng": -89.8971516
          },
          "southwest": {
            "lat": 38.0879691,
            "lng": -90.3740809
          }
        },
        "location": {
          "lat": 38.2742526,
          "lng": -90.1869644
        },
        "location_type": "APPROXIMATE",
        "viewport": {
          "northeast": {
            "lat": 38.5223271,
            "lng": -89.8971516
          },
          "southwest": {
            "lat": 38.0879691,
            "lng": -90.3740809
          }
        }
      },
      "place_id": "ChIJv0u1_T-m2IcR9-UTgfKc6Rs",
      "types": [
        "administrative_area_level_2",
        "political"
      ]
    },
    {
      "address_components": [
        {
          "long_name": "St. Louis",
          "short_name": "St. Louis",
          "types": [
            "political"
          ]
        },
        {
          "long_name": "United States",
          "short_name": "US",
          "types": [
            "country",
            "political"
          ]
        }
      ],
      "formatted_address": "St. Louis, USA",
      "geometry": {
        "bounds": {
          "northeast": {
            "lat": 39.5233661,
            "lng": -89.138356
          },
          "southwest": {
            "lat": 37.7341961,
            "lng": -91.4186371
          }
        },
        "location": {
          "lat": 38.8196814,
          "lng": -90.4502368
        },
        "location_type": "APPROXIMATE",
        "viewport": {
          "northeast": {
            "lat": 39.5233661,
            "lng": -89.138356
          },
          "southwest": {
            "lat": 37.7341961,
            "lng": -91.4186371
          }
        }
      },
      "place_id": "ChIJneBzzj4z34cRFGg2ez6q57o",
      "types": [
        "political"
      ]
    },
    {
      "address_components": [
        {
          "long_name": "Illinois",
          "short_name": "IL",
          "types": [
            "administrative_area_level_1",
            "political"
          ]
        },
        {
          "long_name": "United States",
          "short_name": "US",
          "types": [
            "country",
            "political"
          ]
        }
      ],
      "formatted_address": "Illinois, USA",
      "geometry": {
        "bounds": {
          "northeast": {
            "lat": 42.5083379,
            "lng": -87.4951991
          },
          "southwest": {
            "lat": 36.970298,
            "lng": -91.5130789
          }
        },
        "location": {
          "lat": 40.6331249,
          "lng": -89.3985283
        },
        "location_type": "APPROXIMATE",
        "viewport": {
          "northeast": {
            "lat": 42.5083379,
            "lng": -87.4951991
          },
          "southwest": {
            "lat": 36.970298,
            "lng": -91.5130789
          }
        }
      },
      "place_id": "ChIJGSZubzgtC4gRVlkRZFCCFX8",
      "types": [
        "administrative_area_level_1",
        "political"
      ]
    },
    {
      "address_components": [
        {
          "long_name": "United States",
          "short_name": "US",
          "types": [
            "country",
            "political"
          ]
        }
      ],
      "formatted_address": "United States",
      "geometry": {
        "bounds": {
          "northeast": {
            "lat": 71.3867745,
            "lng": -66.9502861
          },
          "southwest": {
            "lat": 18.9106768,
            "lng": 172.4458955
          }
        },
        "location": {
          "lat": 37.09024,
          "lng": -95.712891
        },
        "location_type": "APPROXIMATE",
        "viewport": {
          "northeast": {
            "lat": 49.38,
            "lng": -66.94
          },
          "southwest": {
            "lat": 25.82,
            "lng": -124.39
          }
        }
      },
      "place_id": "ChIJCzYy5IS16lQRQrfeQ5K5Oxw",
      "types": [
        "country",
        "political"
      ]
    }
  ],
  "status": "OK"
}
