{
  "results": [
    {
      "address_components": [
        {
          "long_name": "2602",
          "short_name": "2602",
          "types": [
            "street_number"
          ]
        },
        {
          "long_name": "Portland Street",
          "short_name": "Portland St",
          "types": [
            "route"
          ]
        },
        {
          "long_name": "Grapeville",
          "short_name": "Grapeville",
          "types": [
            "neighborhood",
            "political"
          ]
        },
        {
          "long_name": "Hempfield Township",
          "short_name": "Hempfield Township",
          "types": [
            "administrative_area_level_3",
            "political"
          ]
        },
        {
          "long_name": "Westmoreland County",
          "short_name": "Westmoreland County",
          "types": [
            "administrative_area_level_2",
            "political"
          ]
        },
        {
          "long_name": "Pennsylvania",
          "short_name": "PA",
          "types": [
            "administrative_area_level_1",
            "political"
          ]
        },
        {
          "long_name": "United States",
          "short_name": "US",
          "types": [
            "country",
            "political"
          ]
        },
        {
          "long_name": "15634",
          "short_name": "15634",
          "types": [
            "postal_code"
          ]
        },
        {
          "long_name": "1104",
          "short_name": "1104",
          "types": [
            "postal_code_suffix"
          ]
        }
      ],
      "formatted_address": "2602 Portland St, Grapeville, PA 15634, USA",
      "geometry": {
        "location": {
          "lat": 40.325192,
          "lng": -79.605865
        },
        "location_type": "ROOFTOP",
        "viewport": {
          "northeast": {
            "lat": 40.3265409802915,
            "lng": -79.60451601970848
          },
          "southwest": {
            "lat": 40.3238430197085,
            "lng": -79.6072139802915
          }
        }
      },
      "place_id": "ChIJoWm9cSrbNIgRpMi4LZKozPs",
      "types": [
        "street_address"
      ]
    },
    {
      "address_components": [
        {
          "long_name": "Grapeville",
          "short_name": "Grapeville",
          "types": [
            "neighborhood",
            "political"
          ]
        },
        {
          "long_name": "Hempfield Township",
          "short_name": "Hempfield Township",
          "types": [
            "administrative_area_level_3",
            "political"
          ]
        },
        {
          "long_name": "Westmoreland County",
          "short_name": "Westmoreland County",
          "types": [
            "administrative_area_level_2",
            "political"
          ]
        },
        {
          "long_name": "Pennsylvania",
          "short_name": "PA",
          "types": [
            "administrative_area_level_1",
            "political"
          ]
        },
        {
          "long_name": "United States",
          "short_name": "US",
          "types": [
            "country",
            "political"
          ]
        }
      ],
      "formatted_address": "Grapeville, Hempfield Township, PA, USA",
      "geometry": {
        "bounds": {
          "northeast": {
            "lat": 40.3283569,
            "lng": -79.6002109
          },
          "southwest": {
            "lat": 40.3214029,
            "lng": -79.6113319
          }
        },
        "location": {
          "lat": 40.3253469,
          "lng": -79.6055973
        },
        "location_type": "APPROXIMATE",
        "viewport": {
          "northeast": {
            "lat": 40.3283569,
            "lng": -79.6002109
          },
          "southwest": {
            "lat": 40.3214029,
            "lng": -79.6113319
          }
        }
      },
      "place_id": "ChIJCQLzidXaNIgR-hI4YdvKeuM",
      "types": [
        "neighborhood",
        "political"
      ]
    },
    {
      "address_components": [
        {
          "long_name": "15634",
          "short_name": "15634",
          "types": [
            "postal_code"
          ]
        },
        {
          "long_name": "Grapeville",
          "short_name": "Grapeville",
          "types": [
            "neighborhood",
            "political"
          ]
        },
        {
          "long_name": "Westmoreland County",
          "short_name": "Westmoreland County",
          "types": [
            "administrative_area_level_2",
            "political"
          ]
        },
        {
          "long_name": "Pennsylvania",
          "short_name": "PA",
          "types": [
            "administrative_area_level_1",
            "political"
          ]
        },
        {
          "long_name": "United States",
          "short_name": "US",
          "types": [
            "country",
            "political"
          ]
        }
      ],
      "formatted_address": "Grapeville, PA 15634, USA",
      "geometry": {
        "bounds": {
          "northeast": {
            "lat": 40.32931980000001,
            "lng": -79.60144
          },
          "southwest": {
            "lat": 40.3213771,
            "lng": -79.6115049
          }
        },
        "location": {
          "lat": 40.3254367,
          "lng": -79.60599049999999
        },
        "location_type": "APPROXIMATE",
        "viewport": {
          "northeast": {
            "lat": 40.32931980000001,
            "lng": -79.60144
          },
          "southwest": {
            "lat": 40.3213771,
            "lng": -79.6115049
          }
        }
      },
      "place_id": "ChIJCQLzidXaNIgRCRbENYf6q1k",
      "types": [
        "postal_code"
      ]
    },
    {
      "address_components": [
        {
          "long_name": "Hempfield Township",
          "short_name": "Hempfield Township",
          "types": [
            "administrative_area_level_3",
            "political"
          ]
        },
        {
          "long_name": "Westmoreland County",
          "short_name": "Westmoreland County",
          "types": [
            "administrative_area_level_2",
            "political"
          ]
        },
        {
          "long_name": "Pennsylvania",
          "short_name": "PA",
          "types": [
            "administrative_area_level_1",
            "political"
          ]
        },
        {
          "long_name": "United States",
          "short_name": "US",
          "types": [
            "country",
            "political"
          ]
        }
      ],
      "formatted_address": "Hempfield Township, PA, USA",
      "geometry": {
        "bounds": {
          "northeast": {
            "lat": 40.3755979,
            "lng": -79.462913
          },
          "southwest": {
            "lat": 40.1864549,
            "lng": -79.700451
          }
        },
        "location": {
          "lat": 40.2769944,
          "lng": -79.59405439999999
        },
        "location_type": "APPROXIMATE",
        "viewport": {
          "northeast": {
            "lat": 40.3755979,
            "lng": -79.462913
          },
          "southwest": {
            "lat": 40.1864549,
            "lng": -79.700451
          }
        }
      },
      "place_id": "ChIJLem1tGDaNIgRfyx_86sN74k",
      "types": [
        "administrative_area_level_3",
        "political"
      ]
    },
    {
      "address_components": [
        {
          "long_name": "Westmoreland County",
          "short_name": "Westmoreland County",
          "types": [
            "administrative_area_level_2",
            "political"
          ]
        },
        {
          "long_name": "Pennsylvania",
          "short_name": "PA",
          "types": [
            "administrative_area_level_1",
            "political"
          ]
        },
        {
          "long_name": "United States",
          "short_name": "US",
          "types": [
            "country",
            "political"
          ]
        }
      ],
      "formatted_address": "Westmoreland County, PA, USA",
      "geometry": {
        "bounds": {
          "northeast": {
            "lat": 40.6797414,
            "lng": -78.974649
          },
          "southwest": {
            "lat": 40.040397,
            "lng": -79.90495390000001
          }
        },
        "location": {
          "lat": 40.2353963,
          "lng": -79.4703885
        },
        "location_type": "APPROXIMATE",
        "viewport": {
          "northeast": {
            "lat": 40.6797414,
            "lng": -78.974649
          },
          "southwest": {
            "lat": 40.040397,
            "lng": -79.90495390000001
          }
        }
      },
      "place_id": "ChIJkyU4jg3JNIgRMgKKqj4XSz0",
      "types": [
        "administrative_area_level_2",
        "political"
      ]
    },
    {
      "address_components": [
        {
          "long_name": "Pittsburgh",
          "short_name": "Pittsburgh",
          "types": [
            "political"
          ]
        },
        {
          "long_name": "United States",
          "short_name": "US",
          "types": [
            "country",
            "political"
          ]
        }
      ],
      "formatted_address": "Pittsburgh, USA",
      "geometry": {
        "bounds": {
          "northeast": {
            "lat": 41.1731849,
            "lng": -78.974649
          },
          "southwest": {
            "lat": 39.7207129,
            "lng": -80.5192179
          }
        },
        "location": {
          "lat": 40.3565093,
          "lng": -79.9192702
        },
        "location_type": "APPROXIMATE",
        "viewport": {
          "northeast": {
            "lat": 41.1731849,
            "lng": -78.974649
          },
          "southwest": {
            "lat": 39.7207129,
            "lng": -80.5192179
          }
        }
      },
      "place_id": "ChIJiWjZkAfsNIgRSXopSLGQlS4",
      "types": [
        "political"
      ]
    },
    {
      "address_components": [
        {
          "long_name": "Pennsylvania",
          "short_name": "PA",
          "types": [
            "administrative_area_level_1",
            "political"
          ]
        },
        {
          "long_name": "United States",
          "short_name": "US",
          "types": [
            "country",
            "political"
          ]
        }
      ],
      "formatted_address": "Pennsylvania, USA",
      "geometry": {
        "bounds": {
          "northeast": {
            "lat": 42.2693866,
            "lng": -74.6895018
          },
          "southwest": {
            "lat": 39.7197989,
            "lng": -80.51989499999999
          }
        },
        "location": {
          "lat": 41.2033216,
          "lng": -77.1945247
        },
        "location_type": "APPROXIMATE",
        "viewport": {
          "northeast": {
            "lat": 42.2693866,
            "lng": -74.6895018
          },
          "southwest": {
            "lat": 39.7197989,
            "lng": -80.51989499999999
          }
        }
      },
      "place_id": "ChIJieUyHiaALYgRPbQiUEchRsI",
      "types": [
        "administrative_area_level_1",
        "political"
      ]
    },
    {
      "address_components": [
        {
          "long_name": "United States",
          "short_name": "US",
          "types": [
            "country",
            "political"
          ]
        }
      ],
      "formatted_address": "United States",
      "geometry": {
        "bounds": {
          "northeast": {
            "lat": 71.3867745,
            "lng": -66.9502861
          },
          "southwest": {
            "lat": 18.9106768,
            "lng": 172.4458955
          }
        },
        "location": {
          "lat": 37.09024,
          "lng": -95.712891
        },
        "location_type": "APPROXIMATE",
        "viewport": {
          "northeast": {
            "lat": 49.38,
            "lng": -66.94
          },
          "southwest": {
            "lat": 25.82,
            "lng": -124.39
          }
        }
      },
      "place_id": "ChIJCzYy5IS16lQRQrfeQ5K5Oxw",
      "types": [
        "country",
        "political"
      ]
    }
  ],
  "status": "OK"
}
