{
  "results": [
    {
      "address_components": [
        {
          "long_name": "1526",
          "short_name": "1526",
          "types": [
            "street_number"
          ]
        },
        {
          "long_name": "Sunset Drive",
          "short_name": "Sunset Dr",
          "types": [
            "route"
          ]
        },
        {
          "long_name": "Holiday Hills",
          "short_name": "Holiday Hills",
          "types": [
            "locality",
            "political"
          ]
        },
        {
          "long_name": "Nunda Township",
          "short_name": "Nunda Township",
          "types": [
            "administrative_area_level_3",
            "political"
          ]
        },
        {
          "long_name": "McHenry County",
          "short_name": "McHenry County",
          "types": [
            "administrative_area_level_2",
            "political"
          ]
        },
        {
          "long_name": "Illinois",
          "short_name": "IL",
          "types": [
            "administrative_area_level_1",
            "political"
          ]
        },
        {
          "long_name": "United States",
          "short_name": "US",
          "types": [
            "country",
            "political"
          ]
        },
        {
          "long_name": "60051",
          "short_name": "60051",
          "types": [
            "postal_code"
          ]
        },
        {
          "long_name": "9283",
          "short_name": "9283",
          "types": [
            "postal_code_suffix"
          ]
        }
      ],
      "formatted_address": "1526 Sunset Dr, Holiday Hills, IL 60051, USA",
      "geometry": {
        "location": {
          "lat": 42.295331,
          "lng": -88.22771499999999
        },
        "location_type": "ROOFTOP",
        "viewport": {
          "northeast": {
            "lat": 42.29667998029151,
            "lng": -88.2263660197085
          },
          "southwest": {
            "lat": 42.29398201970851,
            "lng": -88.2290639802915
          }
        }
      },
      "place_id": "ChIJxZPSvxh0D4gRARXzemcApp8",
      "types": [
        "street_address"
      ]
    },
    {
      "address_components": [
        {
          "long_name": "Holiday Hills",
          "short_name": "Holiday Hills",
          "types": [
            "locality",
            "political"
          ]
        },
        {
          "long_name": "Nunda Township",
          "short_name": "Nunda Township",
          "types": [
            "administrative_area_level_3",
            "political"
          ]
        },
        {
          "long_name": "McHenry County",
          "short_name": "McHenry County",
          "types": [
            "administrative_area_level_2",
            "political"
          ]
        },
        {
          "long_name": "Illinois",
          "short_name": "IL",
          "types": [
            "administrative_area_level_1",
            "political"
          ]
        },
        {
          "long_name": "United States",
          "short_name": "US",
          "types": [
            "country",
            "political"
          ]
        }
      ],
      "formatted_address": "Holiday Hills, IL, USA",
      "geometry": {
        "bounds": {
          "northeast": {
            "lat": 42.3073659,
            "lng": -88.217422
          },
          "southwest": {
            "lat": 42.2852539,
            "lng": -88.24282579999999
          }
        },
        "location": {
          "lat": 42.2900226,
          "lng": -88.22480639999999
        },
        "location_type": "APPROXIMATE",
        "viewport": {
          "northeast": {
            "lat": 42.3073659,
            "lng": -88.217422
          },
          "southwest": {
            "lat": 42.2852539,
            "lng": -88.24282579999999
          }
        }
      },
      "place_id": "ChIJOyXAKxd0D4gRp09nEKLvlQI",
      "types": [
        "locality",
        "political"
      ]
    },
    {
      "address_components": [
        {
          "long_name": "Nunda Township",
          "short_name": "Nunda Township",
          "types": [
            "administrative_area_level_3",
            "political"
          ]
        },
        {
          "long_name": "McHenry County",
          "short_name": "McHenry County",
          "types": [
            "administrative_area_level_2",
            "political"
          ]
        },
        {
          "long_name": "Illinois",
          "short_name": "IL",
          "types": [
            "administrative_area_level_1",
            "political"
          ]
        },
        {
          "long_name": "United States",
          "short_name": "US",
          "types": [
            "country",
            "political"
          ]
        }
      ],
      "formatted_address": "Nunda Township, IL, USA",
      "geometry": {
        "bounds": {
          "northeast": {
            "lat": 42.3288211,
            "lng": -88.1984289
          },
          "southwest": {
            "lat": 42.2404829,
            "lng": -88.355295
          }
        },
        "location": {
          "lat": 42.2823274,
          "lng": -88.2655845
        },
        "location_type": "APPROXIMATE",
        "viewport": {
          "northeast": {
            "lat": 42.3288211,
            "lng": -88.1984289
          },
          "southwest": {
            "lat": 42.2404829,
            "lng": -88.355295
          }
        }
      },
      "place_id": "ChIJPzwbAZ5xD4gR6VK1w9vjchg",
      "types": [
        "administrative_area_level_3",
        "political"
      ]
    },
    {
      "address_components": [
        {
          "long_name": "60051",
          "short_name": "60051",
          "types": [
            "postal_code"
          ]
        },
        {
          "long_name": "McHenry",
          "short_name": "McHenry",
          "types": [
            "locality",
            "political"
          ]
        },
        {
          "long_name": "Illinois",
          "short_name": "IL",
          "types": [
            "administrative_area_level_1",
            "political"
          ]
        },
        {
          "long_name": "United States",
          "short_name": "US",
          "types": [
            "country",
            "political"
          ]
        }
      ],
      "formatted_address": "McHenry, IL 60051, USA",
      "geometry": {
        "bounds": {
          "northeast": {
            "lat": 42.4309048,
            "lng": -88.1771529
          },
          "southwest": {
            "lat": 42.2505759,
            "lng": -88.290289
          }
        },
        "location": {
          "lat": 42.3508086,
          "lng": -88.2363819
        },
        "location_type": "APPROXIMATE",
        "viewport": {
          "northeast": {
            "lat": 42.4309048,
            "lng": -88.1771529
          },
          "southwest": {
            "lat": 42.2505759,
            "lng": -88.290289
          }
        }
      },
      "place_id": "ChIJM26xEqpxD4gRns7wJTcBbzI",
      "postcode_localities": [
        "Holiday Hills",
        "Johnsburg",
        "Lakemoor",
        "McHenry",
        "Volo"
      ],
      "types": [
        "postal_code"
      ]
    },
    {
      "address_components": [
        {
          "long_name": "McHenry County",
          "short_name": "McHenry County",
          "types": [
            "administrative_area_level_2",
            "political"
          ]
        },
        {
          "long_name": "Illinois",
          "short_name": "IL",
          "types": [
            "administrative_area_level_1",
            "political"
          ]
        },
        {
          "long_name": "United States",
          "short_name": "US",
          "types": [
            "country",
            "political"
          ]
        }
      ],
      "formatted_address": "McHenry County, IL, USA",
      "geometry": {
        "bounds": {
          "northeast": {
            "lat": 42.495967,
            "lng": -88.1984289
          },
          "southwest": {
            "lat": 42.15341,
            "lng": -88.7073779
          }
        },
        "location": {
          "lat": 42.3039993,
          "lng": -88.4016041
        },
        "location_type": "APPROXIMATE",
        "viewport": {
          "northeast": {
            "lat": 42.495967,
            "lng": -88.1984289
          },
          "southwest": {
            "lat": 42.15341,
            "lng": -88.7073779
          }
        }
      },
      "place_id": "ChIJx34ElHw-D4gRBCCaMuI0H2o",
      "types": [
        "administrative_area_level_2",
        "political"
      ]
    },
    {
      "address_components": [
        {
          "long_name": "Chicago Metropolitan Area",
          "short_name": "Chicago Metropolitan Area",
          "types": [
            "political"
          ]
        },
        {
          "long_name": "United States",
          "short_name": "US",
          "types": [
            "country",
            "political"
          ]
        }
      ],
      "formatted_address": "Chicago Metropolitan Area, USA",
      "geometry": {
        "bounds": {
          "northeast": {
            "lat": 42.670123,
            "lng": -86.92925699999999
          },
          "southwest": {
            "lat": 40.7364641,
            "lng": -88.942292
          }
        },
        "location": {
          "lat": 41.7435073,
          "lng": -88.0118473
        },
        "location_type": "APPROXIMATE",
        "viewport": {
          "northeast": {
            "lat": 42.670123,
            "lng": -86.92925699999999
          },
          "southwest": {
            "lat": 40.7364641,
            "lng": -88.942292
          }
        }
      },
      "place_id": "ChIJg-CZjExEDogRNJNXmgqEe9o",
      "types": [
        "political"
      ]
    },
    {
      "address_components": [
        {
          "long_name": "Illinois",
          "short_name": "IL",
          "types": [
            "administrative_area_level_1",
            "political"
          ]
        },
        {
          "long_name": "United States",
          "short_name": "US",
          "types": [
            "country",
            "political"
          ]
        }
      ],
      "formatted_address": "Illinois, USA",
      "geometry": {
        "bounds": {
          "northeast": {
            "lat": 42.5083379,
            "lng": -87.4951991
          },
          "southwest": {
            "lat": 36.970298,
            "lng": -91.5130789
          }
        },
        "location": {
          "lat": 40.6331249,
          "lng": -89.3985283
        },
        "location_type": "APPROXIMATE",
        "viewport": {
          "northeast": {
            "lat": 42.5083379,
            "lng": -87.4951991
          },
          "southwest": {
            "lat": 36.970298,
            "lng": -91.5130789
          }
        }
      },
      "place_id": "ChIJGSZubzgtC4gRVlkRZFCCFX8",
      "types": [
        "administrative_area_level_1",
        "political"
      ]
    },
    {
      "address_components": [
        {
          "long_name": "United States",
          "short_name": "US",
          "types": [
            "country",
            "political"
          ]
        }
      ],
      "formatted_address": "United States",
      "geometry": {
        "bounds": {
          "northeast": {
            "lat": 71.3867745,
            "lng": -66.9502861
          },
          "southwest": {
            "lat": 18.9106768,
            "lng": 172.4458955
          }
        },
        "location": {
          "lat": 37.09024,
          "lng": -95.712891
        },
        "location_type": "APPROXIMATE",
        "viewport": {
          "northeast": {
            "lat": 49.38,
            "lng": -66.94
          },
          "southwest": {
            "lat": 25.82,
            "lng": -124.39
          }
        }
      },
      "place_id": "ChIJCzYy5IS16lQRQrfeQ5K5Oxw",
      "types": [
        "country",
        "political"
      ]
    }
  ],
  "status": "OK"
}
