{
  "results": [
    {
      "address_components": [
        {
          "long_name": "274",
          "short_name": "274",
          "types": [
            "street_number"
          ]
        },
        {
          "long_name": "Bridge Avenue",
          "short_name": "Bridge Ave",
          "types": [
            "route"
          ]
        },
        {
          "long_name": "Allenwood",
          "short_name": "Allenwood",
          "types": [
            "locality",
            "political"
          ]
        },
        {
          "long_name": "Gregg Township",
          "short_name": "Gregg Township",
          "types": [
            "administrative_area_level_3",
            "political"
          ]
        },
        {
          "long_name": "Union County",
          "short_name": "Union County",
          "types": [
            "administrative_area_level_2",
            "political"
          ]
        },
        {
          "long_name": "Pennsylvania",
          "short_name": "PA",
          "types": [
            "administrative_area_level_1",
            "political"
          ]
        },
        {
          "long_name": "United States",
          "short_name": "US",
          "types": [
            "country",
            "political"
          ]
        },
        {
          "long_name": "17810",
          "short_name": "17810",
          "types": [
            "postal_code"
          ]
        },
        {
          "long_name": "9249",
          "short_name": "9249",
          "types": [
            "postal_code_suffix"
          ]
        }
      ],
      "formatted_address": "274 Bridge Ave, Allenwood, PA 17810, USA",
      "geometry": {
        "location": {
          "lat": 41.108156,
          "lng": -76.898291
        },
        "location_type": "ROOFTOP",
        "viewport": {
          "northeast": {
            "lat": 41.1095049802915,
            "lng": -76.89694201970849
          },
          "southwest": {
            "lat": 41.1068070197085,
            "lng": -76.89963998029151
          }
        }
      },
      "place_id": "ChIJr73hVuoLz4kRGtCnsxJ9aNo",
      "types": [
        "street_address"
      ]
    },
    {
      "address_components": [
        {
          "long_name": "Gregg Township",
          "short_name": "Gregg Township",
          "types": [
            "administrative_area_level_3",
            "political"
          ]
        },
        {
          "long_name": "Union County",
          "short_name": "Union County",
          "types": [
            "administrative_area_level_2",
            "political"
          ]
        },
        {
          "long_name": "Pennsylvania",
          "short_name": "PA",
          "types": [
            "administrative_area_level_1",
            "political"
          ]
        },
        {
          "long_name": "United States",
          "short_name": "US",
          "types": [
            "country",
            "political"
          ]
        }
      ],
      "formatted_address": "Gregg Township, PA, USA",
      "geometry": {
        "bounds": {
          "northeast": {
            "lat": 41.148801,
            "lng": -76.880788
          },
          "southwest": {
            "lat": 41.087883,
            "lng": -76.9779389
          }
        },
        "location": {
          "lat": 41.123696,
          "lng": -76.9297354
        },
        "location_type": "APPROXIMATE",
        "viewport": {
          "northeast": {
            "lat": 41.148801,
            "lng": -76.880788
          },
          "southwest": {
            "lat": 41.087883,
            "lng": -76.9779389
          }
        }
      },
      "place_id": "ChIJjzScZGUJz4kRlyge-jZ-rZ8",
      "types": [
        "administrative_area_level_3",
        "political"
      ]
    },
    {
      "address_components": [
        {
          "long_name": "17810",
          "short_name": "17810",
          "types": [
            "postal_code"
          ]
        },
        {
          "long_name": "Allenwood",
          "short_name": "Allenwood",
          "types": [
            "locality",
            "political"
          ]
        },
        {
          "long_name": "Pennsylvania",
          "short_name": "PA",
          "types": [
            "administrative_area_level_1",
            "political"
          ]
        },
        {
          "long_name": "United States",
          "short_name": "US",
          "types": [
            "country",
            "political"
          ]
        }
      ],
      "formatted_address": "Allenwood, PA 17810, USA",
      "geometry": {
        "bounds": {
          "northeast": {
            "lat": 41.1661001,
            "lng": -76.8780309
          },
          "southwest": {
            "lat": 41.047598,
            "lng": -77.1794499
          }
        },
        "location": {
          "lat": 41.1204061,
          "lng": -76.9873477
        },
        "location_type": "APPROXIMATE",
        "viewport": {
          "northeast": {
            "lat": 41.1661001,
            "lng": -76.8780309
          },
          "southwest": {
            "lat": 41.047598,
            "lng": -77.1794499
          }
        }
      },
      "place_id": "ChIJQ1pfKCoEz4kRx4agOc1E0BQ",
      "types": [
        "postal_code"
      ]
    },
    {
      "address_components": [
        {
          "long_name": "Lewisburg",
          "short_name": "Lewisburg",
          "types": [
            "political"
          ]
        },
        {
          "long_name": "Pennsylvania",
          "short_name": "PA",
          "types": [
            "administrative_area_level_1",
            "political"
          ]
        },
        {
          "long_name": "United States",
          "short_name": "US",
          "types": [
            "country",
            "political"
          ]
        }
      ],
      "formatted_address": "Lewisburg, PA, USA",
      "geometry": {
        "bounds": {
          "northeast": {
            "lat": 41.148784,
            "lng": -76.80018989999999
          },
          "southwest": {
            "lat": 40.8073339,
            "lng": -77.36349
          }
        },
        "location": {
          "lat": 40.9894888,
          "lng": -77.0564464
        },
        "location_type": "APPROXIMATE",
        "viewport": {
          "northeast": {
            "lat": 41.148784,
            "lng": -76.80018989999999
          },
          "southwest": {
            "lat": 40.8073339,
            "lng": -77.36349
          }
        }
      },
      "place_id": "ChIJp9NgKswbz4kR8sIxk0O2J3c",
      "types": [
        "political"
      ]
    },
    {
      "address_components": [
        {
          "long_name": "Union County",
          "short_name": "Union County",
          "types": [
            "administrative_area_level_2",
            "political"
          ]
        },
        {
          "long_name": "Pennsylvania",
          "short_name": "PA",
          "types": [
            "administrative_area_level_1",
            "political"
          ]
        },
        {
          "long_name": "United States",
          "short_name": "US",
          "types": [
            "country",
            "political"
          ]
        }
      ],
      "formatted_address": "Union County, PA, USA",
      "geometry": {
        "bounds": {
          "northeast": {
            "lat": 41.148801,
            "lng": -76.80024209999999
          },
          "southwest": {
            "lat": 40.8073339,
            "lng": -77.3641798
          }
        },
        "location": {
          "lat": 40.9894888,
          "lng": -77.0564464
        },
        "location_type": "APPROXIMATE",
        "viewport": {
          "northeast": {
            "lat": 41.148801,
            "lng": -76.80024209999999
          },
          "southwest": {
            "lat": 40.8073339,
            "lng": -77.3641798
          }
        }
      },
      "place_id": "ChIJhaFiTzz8zokR95mBSyWHYhk",
      "types": [
        "administrative_area_level_2",
        "political"
      ]
    },
    {
      "address_components": [
        {
          "long_name": "Pennsylvania",
          "short_name": "PA",
          "types": [
            "administrative_area_level_1",
            "political"
          ]
        },
        {
          "long_name": "United States",
          "short_name": "US",
          "types": [
            "country",
            "political"
          ]
        }
      ],
      "formatted_address": "Pennsylvania, USA",
      "geometry": {
        "bounds": {
          "northeast": {
            "lat": 42.2693866,
            "lng": -74.6895018
          },
          "southwest": {
            "lat": 39.7197989,
            "lng": -80.51989499999999
          }
        },
        "location": {
          "lat": 41.2033216,
          "lng": -77.1945247
        },
        "location_type": "APPROXIMATE",
        "viewport": {
          "northeast": {
            "lat": 42.2693866,
            "lng": -74.6895018
          },
          "southwest": {
            "lat": 39.7197989,
            "lng": -80.51989499999999
          }
        }
      },
      "place_id": "ChIJieUyHiaALYgRPbQiUEchRsI",
      "types": [
        "administrative_area_level_1",
        "political"
      ]
    },
    {
      "address_components": [
        {
          "long_name": "United States",
          "short_name": "US",
          "types": [
            "country",
            "political"
          ]
        }
      ],
      "formatted_address": "United States",
      "geometry": {
        "bounds": {
          "northeast": {
            "lat": 71.3867745,
            "lng": -66.9502861
          },
          "southwest": {
            "lat": 18.9106768,
            "lng": 172.4458955
          }
        },
        "location": {
          "lat": 37.09024,
          "lng": -95.712891
        },
        "location_type": "APPROXIMATE",
        "viewport": {
          "northeast": {
            "lat": 49.38,
            "lng": -66.94
          },
          "southwest": {
            "lat": 25.82,
            "lng": -124.39
          }
        }
      },
      "place_id": "ChIJCzYy5IS16lQRQrfeQ5K5Oxw",
      "types": [
        "country",
        "political"
      ]
    }
  ],
  "status": "OK"
}
