{
  "results": [
    {
      "address_components": [
        {
          "long_name": "27",
          "short_name": "27",
          "types": [
            "street_number"
          ]
        },
        {
          "long_name": "Nelson Street",
          "short_name": "Nelson St",
          "types": [
            "route"
          ]
        },
        {
          "long_name": "East Brooklyn",
          "short_name": "East Brooklyn",
          "types": [
            "neighborhood",
            "political"
          ]
        },
        {
          "long_name": "Brooklyn",
          "short_name": "Brooklyn",
          "types": [
            "locality",
            "political"
          ]
        },
        {
          "long_name": "Windham County",
          "short_name": "Windham County",
          "types": [
            "administrative_area_level_2",
            "political"
          ]
        },
        {
          "long_name": "Connecticut",
          "short_name": "CT",
          "types": [
            "administrative_area_level_1",
            "political"
          ]
        },
        {
          "long_name": "United States",
          "short_name": "US",
          "types": [
            "country",
            "political"
          ]
        },
        {
          "long_name": "06234",
          "short_name": "06234",
          "types": [
            "postal_code"
          ]
        },
        {
          "long_name": "3501",
          "short_name": "3501",
          "types": [
            "postal_code_suffix"
          ]
        }
      ],
      "formatted_address": "27 Nelson St, Brooklyn, CT 06234, USA",
      "geometry": {
        "location": {
          "lat": 41.794811,
          "lng": -71.899512
        },
        "location_type": "ROOFTOP",
        "viewport": {
          "northeast": {
            "lat": 41.7961599802915,
            "lng": -71.89816301970849
          },
          "southwest": {
            "lat": 41.7934620197085,
            "lng": -71.9008609802915
          }
        }
      },
      "place_id": "ChIJV-tFENIr5IkRzwgcPATuXfQ",
      "types": [
        "street_address"
      ]
    },
    {
      "address_components": [
        {
          "long_name": "East Brooklyn",
          "short_name": "East Brooklyn",
          "types": [
            "neighborhood",
            "political"
          ]
        },
        {
          "long_name": "Brooklyn",
          "short_name": "Brooklyn",
          "types": [
            "locality",
            "political"
          ]
        },
        {
          "long_name": "Windham County",
          "short_name": "Windham County",
          "types": [
            "administrative_area_level_2",
            "political"
          ]
        },
        {
          "long_name": "Connecticut",
          "short_name": "CT",
          "types": [
            "administrative_area_level_1",
            "political"
          ]
        },
        {
          "long_name": "United States",
          "short_name": "US",
          "types": [
            "country",
            "political"
          ]
        }
      ],
      "formatted_address": "East Brooklyn, Brooklyn, CT, USA",
      "geometry": {
        "bounds": {
          "northeast": {
            "lat": 41.8122639,
            "lng": -71.8861189
          },
          "southwest": {
            "lat": 41.7805891,
            "lng": -71.9191768
          }
        },
        "location": {
          "lat": 41.7967652,
          "lng": -71.8972946
        },
        "location_type": "APPROXIMATE",
        "viewport": {
          "northeast": {
            "lat": 41.8122639,
            "lng": -71.8861189
          },
          "southwest": {
            "lat": 41.7805891,
            "lng": -71.9191768
          }
        }
      },
      "place_id": "ChIJ4Qldys4r5IkREIfW-im-w9w",
      "types": [
        "neighborhood",
        "political"
      ]
    },
    {
      "address_components": [
        {
          "long_name": "Brooklyn",
          "short_name": "Brooklyn",
          "types": [
            "locality",
            "political"
          ]
        },
        {
          "long_name": "Windham County",
          "short_name": "Windham County",
          "types": [
            "administrative_area_level_2",
            "political"
          ]
        },
        {
          "long_name": "Connecticut",
          "short_name": "CT",
          "types": [
            "administrative_area_level_1",
            "political"
          ]
        },
        {
          "long_name": "United States",
          "short_name": "US",
          "types": [
            "country",
            "political"
          ]
        }
      ],
      "formatted_address": "Brooklyn, CT, USA",
      "geometry": {
        "bounds": {
          "northeast": {
            "lat": 41.8269779,
            "lng": -71.8861189
          },
          "southwest": {
            "lat": 41.742374,
            "lng": -72.022903
          }
        },
        "location": {
          "lat": 41.7881236,
          "lng": -71.9497216
        },
        "location_type": "APPROXIMATE",
        "viewport": {
          "northeast": {
            "lat": 41.8269779,
            "lng": -71.8861189
          },
          "southwest": {
            "lat": 41.742374,
            "lng": -72.022903
          }
        }
      },
      "place_id": "ChIJbSWSNtiB5okRaGGUvEqizo0",
      "types": [
        "locality",
        "political"
      ]
    },
    {
      "address_components": [
        {
          "long_name": "06234",
          "short_name": "06234",
          "types": [
            "postal_code"
          ]
        },
        {
          "long_name": "Brooklyn",
          "short_name": "Brooklyn",
          "types": [
            "locality",
            "political"
          ]
        },
        {
          "long_name": "Windham County",
          "short_name": "Windham County",
          "types": [
            "administrative_area_level_2",
            "political"
          ]
        },
        {
          "long_name": "Connecticut",
          "short_name": "CT",
          "types": [
            "administrative_area_level_1",
            "political"
          ]
        },
        {
          "long_name": "United States",
          "short_name": "US",
          "types": [
            "country",
            "political"
          ]
        }
      ],
      "formatted_address": "Brooklyn, CT 06234, USA",
      "geometry": {
        "bounds": {
          "northeast": {
            "lat": 41.849364,
            "lng": -71.88494299999999
          },
          "southwest": {
            "lat": 41.7399039,
            "lng": -72.022903
          }
        },
        "location": {
          "lat": 41.785272,
          "lng": -71.9638445
        },
        "location_type": "APPROXIMATE",
        "viewport": {
          "northeast": {
            "lat": 41.849364,
            "lng": -71.88494299999999
          },
          "southwest": {
            "lat": 41.7399039,
            "lng": -72.022903
          }
        }
      },
      "place_id": "ChIJe3A3S9iB5okR4JksqZtLFcc",
      "types": [
        "postal_code"
      ]
    },
    {
      "address_components": [
        {
          "long_name": "Danielson",
          "short_name": "Danielson",
          "types": [
            "political"
          ]
        },
        {
          "long_name": "United States",
          "short_name": "US",
          "types": [
            "country",
            "political"
          ]
        }
      ],
      "formatted_address": "Danielson, USA",
      "geometry": {
        "bounds": {
          "northeast": {
            "lat": 41.916853,
            "lng": -71.78699399999999
          },
          "southwest": {
            "lat": 41.634378,
            "lng": -72.044738
          }
        },
        "location": {
          "lat": 41.7814458,
          "lng": -71.8808499
        },
        "location_type": "APPROXIMATE",
        "viewport": {
          "northeast": {
            "lat": 41.916853,
            "lng": -71.78699399999999
          },
          "southwest": {
            "lat": 41.634378,
            "lng": -72.044738
          }
        }
      },
      "place_id": "ChIJ141GmLUr5IkRCeTJ1NoC54M",
      "types": [
        "political"
      ]
    },
    {
      "address_components": [
        {
          "long_name": "Windham County",
          "short_name": "Windham County",
          "types": [
            "administrative_area_level_2",
            "political"
          ]
        },
        {
          "long_name": "Connecticut",
          "short_name": "CT",
          "types": [
            "administrative_area_level_1",
            "political"
          ]
        },
        {
          "long_name": "United States",
          "short_name": "US",
          "types": [
            "country",
            "political"
          ]
        }
      ],
      "formatted_address": "Windham County, CT, USA",
      "geometry": {
        "bounds": {
          "northeast": {
            "lat": 42.028802,
            "lng": -71.787239
          },
          "southwest": {
            "lat": 41.6343279,
            "lng": -72.25328
          }
        },
        "location": {
          "lat": 41.8275622,
          "lng": -72.0468164
        },
        "location_type": "APPROXIMATE",
        "viewport": {
          "northeast": {
            "lat": 42.028802,
            "lng": -71.787239
          },
          "southwest": {
            "lat": 41.6343279,
            "lng": -72.25328
          }
        }
      },
      "place_id": "ChIJRWKqeLdi5okRLXWDlSEGeTY",
      "types": [
        "administrative_area_level_2",
        "political"
      ]
    },
    {
      "address_components": [
        {
          "long_name": "Willimantic",
          "short_name": "Willimantic",
          "types": [
            "political"
          ]
        },
        {
          "long_name": "United States",
          "short_name": "US",
          "types": [
            "country",
            "political"
          ]
        }
      ],
      "formatted_address": "Willimantic, USA",
      "geometry": {
        "bounds": {
          "northeast": {
            "lat": 42.0288996,
            "lng": -71.78699399999999
          },
          "southwest": {
            "lat": 41.634378,
            "lng": -72.252746
          }
        },
        "location": {
          "lat": 41.8275622,
          "lng": -72.0468164
        },
        "location_type": "APPROXIMATE",
        "viewport": {
          "northeast": {
            "lat": 42.0288996,
            "lng": -71.78699399999999
          },
          "southwest": {
            "lat": 41.634378,
            "lng": -72.252746
          }
        }
      },
      "place_id": "ChIJjxvcgTqC5okR5S1BWOk01vE",
      "types": [
        "political"
      ]
    },
    {
      "address_components": [
        {
          "long_name": "Connecticut",
          "short_name": "CT",
          "types": [
            "administrative_area_level_1",
            "political"
          ]
        },
        {
          "long_name": "United States",
          "short_name": "US",
          "types": [
            "country",
            "political"
          ]
        }
      ],
      "formatted_address": "Connecticut, USA",
      "geometry": {
        "bounds": {
          "northeast": {
            "lat": 42.050587,
            "lng": -71.787239
          },
          "southwest": {
            "lat": 40.9869801,
            "lng": -73.727775
          }
        },
        "location": {
          "lat": 41.6032207,
          "lng": -73.087749
        },
        "location_type": "APPROXIMATE",
        "viewport": {
          "northeast": {
            "lat": 42.050587,
            "lng": -71.787239
          },
          "southwest": {
            "lat": 40.9869801,
            "lng": -73.727775
          }
        }
      },
      "place_id": "ChIJpVER8hFT5okR5XBhBVttmq4",
      "types": [
        "administrative_area_level_1",
        "political"
      ]
    },
    {
      "address_components": [
        {
          "long_name": "United States",
          "short_name": "US",
          "types": [
            "country",
            "political"
          ]
        }
      ],
      "formatted_address": "United States",
      "geometry": {
        "bounds": {
          "northeast": {
            "lat": 71.3867745,
            "lng": -66.9502861
          },
          "southwest": {
            "lat": 18.9106768,
            "lng": 172.4458955
          }
        },
        "location": {
          "lat": 37.09024,
          "lng": -95.712891
        },
        "location_type": "APPROXIMATE",
        "viewport": {
          "northeast": {
            "lat": 49.38,
            "lng": -66.94
          },
          "southwest": {
            "lat": 25.82,
            "lng": -124.39
          }
        }
      },
      "place_id": "ChIJCzYy5IS16lQRQrfeQ5K5Oxw",
      "types": [
        "country",
        "political"
      ]
    }
  ],
  "status": "OK"
}
