{
  "results": [
    {
      "address_components": [
        {
          "long_name": "20831",
          "short_name": "20831",
          "types": [
            "street_number"
          ]
        },
        {
          "long_name": "North Wildrose Drive",
          "short_name": "N Wildrose Dr",
          "types": [
            "route"
          ]
        },
        {
          "long_name": "Deer Park",
          "short_name": "Deer Park",
          "types": [
            "locality",
            "political"
          ]
        },
        {
          "long_name": "Ela Township",
          "short_name": "Ela Township",
          "types": [
            "administrative_area_level_3",
            "political"
          ]
        },
        {
          "long_name": "Lake County",
          "short_name": "Lake County",
          "types": [
            "administrative_area_level_2",
            "political"
          ]
        },
        {
          "long_name": "Illinois",
          "short_name": "IL",
          "types": [
            "administrative_area_level_1",
            "political"
          ]
        },
        {
          "long_name": "United States",
          "short_name": "US",
          "types": [
            "country",
            "political"
          ]
        },
        {
          "long_name": "60010",
          "short_name": "60010",
          "types": [
            "postal_code"
          ]
        },
        {
          "long_name": "6706",
          "short_name": "6706",
          "types": [
            "postal_code_suffix"
          ]
        }
      ],
      "formatted_address": "20831 N Wildrose Dr, Deer Park, IL 60010, USA",
      "geometry": {
        "location": {
          "lat": 42.166069,
          "lng": -88.087103
        },
        "location_type": "ROOFTOP",
        "viewport": {
          "northeast": {
            "lat": 42.1674179802915,
            "lng": -88.08575401970849
          },
          "southwest": {
            "lat": 42.1647200197085,
            "lng": -88.08845198029151
          }
        }
      },
      "place_id": "ChIJubbK0t6jD4gRzbTu0W6Yx_I",
      "types": [
        "street_address"
      ]
    },
    {
      "address_components": [
        {
          "long_name": "Deer Park",
          "short_name": "Deer Park",
          "types": [
            "locality",
            "political"
          ]
        },
        {
          "long_name": "Ela Township",
          "short_name": "Ela Township",
          "types": [
            "administrative_area_level_3",
            "political"
          ]
        },
        {
          "long_name": "Lake County",
          "short_name": "Lake County",
          "types": [
            "administrative_area_level_2",
            "political"
          ]
        },
        {
          "long_name": "Illinois",
          "short_name": "IL",
          "types": [
            "administrative_area_level_1",
            "political"
          ]
        },
        {
          "long_name": "United States",
          "short_name": "US",
          "types": [
            "country",
            "political"
          ]
        }
      ],
      "formatted_address": "Deer Park, IL, USA",
      "geometry": {
        "bounds": {
          "northeast": {
            "lat": 42.1850139,
            "lng": -88.0387099
          },
          "southwest": {
            "lat": 42.152118,
            "lng": -88.12955
          }
        },
        "location": {
          "lat": 42.1608585,
          "lng": -88.0814651
        },
        "location_type": "APPROXIMATE",
        "viewport": {
          "northeast": {
            "lat": 42.1850139,
            "lng": -88.0387099
          },
          "southwest": {
            "lat": 42.152118,
            "lng": -88.12955
          }
        }
      },
      "place_id": "ChIJdXxv-tijD4gRjW-kIamdNz8",
      "types": [
        "locality",
        "political"
      ]
    },
    {
      "address_components": [
        {
          "long_name": "Ela Township",
          "short_name": "Ela Township",
          "types": [
            "administrative_area_level_3",
            "political"
          ]
        },
        {
          "long_name": "Lake County",
          "short_name": "Lake County",
          "types": [
            "administrative_area_level_2",
            "political"
          ]
        },
        {
          "long_name": "Illinois",
          "short_name": "IL",
          "types": [
            "administrative_area_level_1",
            "political"
          ]
        },
        {
          "long_name": "United States",
          "short_name": "US",
          "types": [
            "country",
            "political"
          ]
        }
      ],
      "formatted_address": "Ela Township, IL, USA",
      "geometry": {
        "bounds": {
          "northeast": {
            "lat": 42.241112,
            "lng": -88.003742
          },
          "southwest": {
            "lat": 42.15365800000001,
            "lng": -88.121788
          }
        },
        "location": {
          "lat": 42.2003412,
          "lng": -88.0705319
        },
        "location_type": "APPROXIMATE",
        "viewport": {
          "northeast": {
            "lat": 42.241112,
            "lng": -88.003742
          },
          "southwest": {
            "lat": 42.15365800000001,
            "lng": -88.121788
          }
        }
      },
      "place_id": "ChIJdz6iBUOiD4gRT7AVH-l8bTU",
      "types": [
        "administrative_area_level_3",
        "political"
      ]
    },
    {
      "address_components": [
        {
          "long_name": "60010",
          "short_name": "60010",
          "types": [
            "postal_code"
          ]
        },
        {
          "long_name": "Barrington",
          "short_name": "Barrington",
          "types": [
            "locality",
            "political"
          ]
        },
        {
          "long_name": "Illinois",
          "short_name": "IL",
          "types": [
            "administrative_area_level_1",
            "political"
          ]
        },
        {
          "long_name": "United States",
          "short_name": "US",
          "types": [
            "country",
            "political"
          ]
        }
      ],
      "formatted_address": "Barrington, IL 60010, USA",
      "geometry": {
        "bounds": {
          "northeast": {
            "lat": 42.2556419,
            "lng": -88.0505299
          },
          "southwest": {
            "lat": 42.0563379,
            "lng": -88.262743
          }
        },
        "location": {
          "lat": 42.1621397,
          "lng": -88.14865700000001
        },
        "location_type": "APPROXIMATE",
        "viewport": {
          "northeast": {
            "lat": 42.2556419,
            "lng": -88.0505299
          },
          "southwest": {
            "lat": 42.0563379,
            "lng": -88.262743
          }
        }
      },
      "place_id": "ChIJmdK54aigD4gRfYjsiHGFfgE",
      "postcode_localities": [
        "Barrington",
        "Deer Park",
        "FOX RV VLY GN",
        "HOFFMAN EST",
        "Hoffman Estates",
        "Inverness",
        "Kildeer",
        "Lake Barrington",
        "North Barrington",
        "Port Barrington"
      ],
      "types": [
        "postal_code"
      ]
    },
    {
      "address_components": [
        {
          "long_name": "Lake County",
          "short_name": "Lake County",
          "types": [
            "administrative_area_level_2",
            "political"
          ]
        },
        {
          "long_name": "Illinois",
          "short_name": "IL",
          "types": [
            "administrative_area_level_1",
            "political"
          ]
        },
        {
          "long_name": "United States",
          "short_name": "US",
          "types": [
            "country",
            "political"
          ]
        }
      ],
      "formatted_address": "Lake County, IL, USA",
      "geometry": {
        "bounds": {
          "northeast": {
            "lat": 42.49563699999999,
            "lng": -87.75900469999999
          },
          "southwest": {
            "lat": 42.152361,
            "lng": -88.1997628
          }
        },
        "location": {
          "lat": 42.3689363,
          "lng": -87.8271534
        },
        "location_type": "APPROXIMATE",
        "viewport": {
          "northeast": {
            "lat": 42.49563699999999,
            "lng": -87.75900469999999
          },
          "southwest": {
            "lat": 42.152361,
            "lng": -88.1997628
          }
        }
      },
      "place_id": "ChIJKdUvmscAD4gRZsVGNFFqkhs",
      "types": [
        "administrative_area_level_2",
        "political"
      ]
    },
    {
      "address_components": [
        {
          "long_name": "Chicago Metropolitan Area",
          "short_name": "Chicago Metropolitan Area",
          "types": [
            "political"
          ]
        },
        {
          "long_name": "United States",
          "short_name": "US",
          "types": [
            "country",
            "political"
          ]
        }
      ],
      "formatted_address": "Chicago Metropolitan Area, USA",
      "geometry": {
        "bounds": {
          "northeast": {
            "lat": 42.670123,
            "lng": -86.92925699999999
          },
          "southwest": {
            "lat": 40.7364641,
            "lng": -88.942292
          }
        },
        "location": {
          "lat": 41.7435073,
          "lng": -88.0118473
        },
        "location_type": "APPROXIMATE",
        "viewport": {
          "northeast": {
            "lat": 42.670123,
            "lng": -86.92925699999999
          },
          "southwest": {
            "lat": 40.7364641,
            "lng": -88.942292
          }
        }
      },
      "place_id": "ChIJg-CZjExEDogRNJNXmgqEe9o",
      "types": [
        "political"
      ]
    },
    {
      "address_components": [
        {
          "long_name": "Illinois",
          "short_name": "IL",
          "types": [
            "administrative_area_level_1",
            "political"
          ]
        },
        {
          "long_name": "United States",
          "short_name": "US",
          "types": [
            "country",
            "political"
          ]
        }
      ],
      "formatted_address": "Illinois, USA",
      "geometry": {
        "bounds": {
          "northeast": {
            "lat": 42.5083379,
            "lng": -87.4951991
          },
          "southwest": {
            "lat": 36.970298,
            "lng": -91.5130789
          }
        },
        "location": {
          "lat": 40.6331249,
          "lng": -89.3985283
        },
        "location_type": "APPROXIMATE",
        "viewport": {
          "northeast": {
            "lat": 42.5083379,
            "lng": -87.4951991
          },
          "southwest": {
            "lat": 36.970298,
            "lng": -91.5130789
          }
        }
      },
      "place_id": "ChIJGSZubzgtC4gRVlkRZFCCFX8",
      "types": [
        "administrative_area_level_1",
        "political"
      ]
    },
    {
      "address_components": [
        {
          "long_name": "United States",
          "short_name": "US",
          "types": [
            "country",
            "political"
          ]
        }
      ],
      "formatted_address": "United States",
      "geometry": {
        "bounds": {
          "northeast": {
            "lat": 71.3867745,
            "lng": -66.9502861
          },
          "southwest": {
            "lat": 18.9106768,
            "lng": 172.4458955
          }
        },
        "location": {
          "lat": 37.09024,
          "lng": -95.712891
        },
        "location_type": "APPROXIMATE",
        "viewport": {
          "northeast": {
            "lat": 49.38,
            "lng": -66.94
          },
          "southwest": {
            "lat": 25.82,
            "lng": -124.39
          }
        }
      },
      "place_id": "ChIJCzYy5IS16lQRQrfeQ5K5Oxw",
      "types": [
        "country",
        "political"
      ]
    }
  ],
  "status": "OK"
}
