{
  "results": [
    {
      "address_components": [
        {
          "long_name": "79",
          "short_name": "79",
          "types": [
            "street_number"
          ]
        },
        {
          "long_name": "Reservoir Road",
          "short_name": "Reservoir Rd",
          "types": [
            "route"
          ]
        },
        {
          "long_name": "Pascoag",
          "short_name": "Pascoag",
          "types": [
            "neighborhood",
            "political"
          ]
        },
        {
          "long_name": "Burrillville",
          "short_name": "Burrillville",
          "types": [
            "locality",
            "political"
          ]
        },
        {
          "long_name": "Providence County",
          "short_name": "Providence County",
          "types": [
            "administrative_area_level_2",
            "political"
          ]
        },
        {
          "long_name": "Rhode Island",
          "short_name": "RI",
          "types": [
            "administrative_area_level_1",
            "political"
          ]
        },
        {
          "long_name": "United States",
          "short_name": "US",
          "types": [
            "country",
            "political"
          ]
        },
        {
          "long_name": "02859",
          "short_name": "02859",
          "types": [
            "postal_code"
          ]
        },
        {
          "long_name": "3501",
          "short_name": "3501",
          "types": [
            "postal_code_suffix"
          ]
        }
      ],
      "formatted_address": "79 Reservoir Rd, Pascoag, RI 02859, USA",
      "geometry": {
        "location": {
          "lat": 41.951089,
          "lng": -71.703734
        },
        "location_type": "ROOFTOP",
        "viewport": {
          "northeast": {
            "lat": 41.9524379802915,
            "lng": -71.70238501970849
          },
          "southwest": {
            "lat": 41.9497400197085,
            "lng": -71.70508298029151
          }
        }
      },
      "place_id": "ChIJ81j2OVs85IkR5Ke87WC6uZA",
      "types": [
        "street_address"
      ]
    },
    {
      "address_components": [
        {
          "long_name": "Pascoag",
          "short_name": "Pascoag",
          "types": [
            "neighborhood",
            "political"
          ]
        },
        {
          "long_name": "Burrillville",
          "short_name": "Burrillville",
          "types": [
            "locality",
            "political"
          ]
        },
        {
          "long_name": "Providence County",
          "short_name": "Providence County",
          "types": [
            "administrative_area_level_2",
            "political"
          ]
        },
        {
          "long_name": "Rhode Island",
          "short_name": "RI",
          "types": [
            "administrative_area_level_1",
            "political"
          ]
        },
        {
          "long_name": "United States",
          "short_name": "US",
          "types": [
            "country",
            "political"
          ]
        }
      ],
      "formatted_address": "Pascoag, Burrillville, RI, USA",
      "geometry": {
        "bounds": {
          "northeast": {
            "lat": 41.977142,
            "lng": -71.6784899
          },
          "southwest": {
            "lat": 41.930491,
            "lng": -71.7312269
          }
        },
        "location": {
          "lat": 41.9556539,
          "lng": -71.70228990000001
        },
        "location_type": "APPROXIMATE",
        "viewport": {
          "northeast": {
            "lat": 41.977142,
            "lng": -71.6784899
          },
          "southwest": {
            "lat": 41.930491,
            "lng": -71.7312269
          }
        }
      },
      "place_id": "ChIJtwXnk1o85IkRsJLNQVi0FKI",
      "types": [
        "neighborhood",
        "political"
      ]
    },
    {
      "address_components": [
        {
          "long_name": "Burrillville",
          "short_name": "Burrillville",
          "types": [
            "locality",
            "political"
          ]
        },
        {
          "long_name": "Providence County",
          "short_name": "Providence County",
          "types": [
            "administrative_area_level_2",
            "political"
          ]
        },
        {
          "long_name": "Rhode Island",
          "short_name": "RI",
          "types": [
            "administrative_area_level_1",
            "political"
          ]
        },
        {
          "long_name": "United States",
          "short_name": "US",
          "types": [
            "country",
            "political"
          ]
        }
      ],
      "formatted_address": "Burrillville, RI, USA",
      "geometry": {
        "bounds": {
          "northeast": {
            "lat": 42.013371,
            "lng": -71.59010789999999
          },
          "southwest": {
            "lat": 41.928538,
            "lng": -71.79924199999999
          }
        },
        "location": {
          "lat": 41.9661165,
          "lng": -71.6847247
        },
        "location_type": "APPROXIMATE",
        "viewport": {
          "northeast": {
            "lat": 42.013371,
            "lng": -71.59010789999999
          },
          "southwest": {
            "lat": 41.928538,
            "lng": -71.79924199999999
          }
        }
      },
      "place_id": "ChIJ1xihKtA95IkRqe8QsgalUAw",
      "types": [
        "locality",
        "political"
      ]
    },
    {
      "address_components": [
        {
          "long_name": "02859",
          "short_name": "02859",
          "types": [
            "postal_code"
          ]
        },
        {
          "long_name": "Pascoag",
          "short_name": "Pascoag",
          "types": [
            "neighborhood",
            "political"
          ]
        },
        {
          "long_name": "Rhode Island",
          "short_name": "RI",
          "types": [
            "administrative_area_level_1",
            "political"
          ]
        },
        {
          "long_name": "United States",
          "short_name": "US",
          "types": [
            "country",
            "political"
          ]
        }
      ],
      "formatted_address": "Pascoag, RI 02859, USA",
      "geometry": {
        "bounds": {
          "northeast": {
            "lat": 42.01079610000001,
            "lng": -71.67308790000001
          },
          "southwest": {
            "lat": 41.929535,
            "lng": -71.79924199999999
          }
        },
        "location": {
          "lat": 41.9620556,
          "lng": -71.7503855
        },
        "location_type": "APPROXIMATE",
        "viewport": {
          "northeast": {
            "lat": 42.01079610000001,
            "lng": -71.67308790000001
          },
          "southwest": {
            "lat": 41.929535,
            "lng": -71.79924199999999
          }
        }
      },
      "place_id": "ChIJSS91it485IkRwagth_z8vV4",
      "types": [
        "postal_code"
      ]
    },
    {
      "address_components": [
        {
          "long_name": "Providence County",
          "short_name": "Providence County",
          "types": [
            "administrative_area_level_2",
            "political"
          ]
        },
        {
          "long_name": "Rhode Island",
          "short_name": "RI",
          "types": [
            "administrative_area_level_1",
            "political"
          ]
        },
        {
          "long_name": "United States",
          "short_name": "US",
          "types": [
            "country",
            "political"
          ]
        }
      ],
      "formatted_address": "Providence County, RI, USA",
      "geometry": {
        "bounds": {
          "northeast": {
            "lat": 42.0188,
            "lng": -71.31777
          },
          "southwest": {
            "lat": 41.7245628,
            "lng": -71.79924199999999
          }
        },
        "location": {
          "lat": 41.8881582,
          "lng": -71.4774291
        },
        "location_type": "APPROXIMATE",
        "viewport": {
          "northeast": {
            "lat": 42.0188,
            "lng": -71.31777
          },
          "southwest": {
            "lat": 41.7245628,
            "lng": -71.79924199999999
          }
        }
      },
      "place_id": "ChIJtUdvanpH5IkRYcTtx_6GVAo",
      "types": [
        "administrative_area_level_2",
        "political"
      ]
    },
    {
      "address_components": [
        {
          "long_name": "Rhode Island",
          "short_name": "RI",
          "types": [
            "administrative_area_level_1",
            "political"
          ]
        },
        {
          "long_name": "United States",
          "short_name": "US",
          "types": [
            "country",
            "political"
          ]
        }
      ],
      "formatted_address": "Rhode Island, USA",
      "geometry": {
        "bounds": {
          "northeast": {
            "lat": 42.0188,
            "lng": -71.1205471
          },
          "southwest": {
            "lat": 41.1466984,
            "lng": -71.8923425
          }
        },
        "location": {
          "lat": 41.5800945,
          "lng": -71.4774291
        },
        "location_type": "APPROXIMATE",
        "viewport": {
          "northeast": {
            "lat": 42.0188,
            "lng": -71.1205471
          },
          "southwest": {
            "lat": 41.1466984,
            "lng": -71.8923425
          }
        }
      },
      "place_id": "ChIJD9cOYhQ15IkR5wbB57wYTh4",
      "types": [
        "administrative_area_level_1",
        "political"
      ]
    },
    {
      "address_components": [
        {
          "long_name": "United States",
          "short_name": "US",
          "types": [
            "country",
            "political"
          ]
        }
      ],
      "formatted_address": "United States",
      "geometry": {
        "bounds": {
          "northeast": {
            "lat": 71.3867745,
            "lng": -66.9502861
          },
          "southwest": {
            "lat": 18.9106768,
            "lng": 172.4458955
          }
        },
        "location": {
          "lat": 37.09024,
          "lng": -95.712891
        },
        "location_type": "APPROXIMATE",
        "viewport": {
          "northeast": {
            "lat": 49.38,
            "lng": -66.94
          },
          "southwest": {
            "lat": 25.82,
            "lng": -124.39
          }
        }
      },
      "place_id": "ChIJCzYy5IS16lQRQrfeQ5K5Oxw",
      "types": [
        "country",
        "political"
      ]
    }
  ],
  "status": "OK"
}
