{
  "results": [
    {
      "address_components": [
        {
          "long_name": "131",
          "short_name": "131",
          "types": [
            "street_number"
          ]
        },
        {
          "long_name": "North Locust Lake Road",
          "short_name": "N Locust Lake Rd",
          "types": [
            "route"
          ]
        },
        {
          "long_name": "Blairstown",
          "short_name": "Blairstown",
          "types": [
            "locality",
            "political"
          ]
        },
        {
          "long_name": "Warren County",
          "short_name": "Warren County",
          "types": [
            "administrative_area_level_2",
            "political"
          ]
        },
        {
          "long_name": "New Jersey",
          "short_name": "NJ",
          "types": [
            "administrative_area_level_1",
            "political"
          ]
        },
        {
          "long_name": "United States",
          "short_name": "US",
          "types": [
            "country",
            "political"
          ]
        },
        {
          "long_name": "07825",
          "short_name": "07825",
          "types": [
            "postal_code"
          ]
        }
      ],
      "formatted_address": "131 N Locust Lake Rd, Blairstown, NJ 07825, USA",
      "geometry": {
        "location": {
          "lat": 40.926892,
          "lng": -74.992386
        },
        "location_type": "ROOFTOP",
        "viewport": {
          "northeast": {
            "lat": 40.92824098029149,
            "lng": -74.9910370197085
          },
          "southwest": {
            "lat": 40.92554301970849,
            "lng": -74.9937349802915
          }
        }
      },
      "place_id": "ChIJy5ifld1_xIkRBu8xcqTwTBs",
      "types": [
        "street_address"
      ]
    },
    {
      "address_components": [
        {
          "long_name": "Hope",
          "short_name": "Hope",
          "types": [
            "locality",
            "political"
          ]
        },
        {
          "long_name": "Warren County",
          "short_name": "Warren County",
          "types": [
            "administrative_area_level_2",
            "political"
          ]
        },
        {
          "long_name": "New Jersey",
          "short_name": "NJ",
          "types": [
            "administrative_area_level_1",
            "political"
          ]
        },
        {
          "long_name": "United States",
          "short_name": "US",
          "types": [
            "country",
            "political"
          ]
        }
      ],
      "formatted_address": "Hope, NJ, USA",
      "geometry": {
        "bounds": {
          "northeast": {
            "lat": 40.945889,
            "lng": -74.92786699999999
          },
          "southwest": {
            "lat": 40.8604008,
            "lng": -75.0359029
          }
        },
        "location": {
          "lat": 40.9111182,
          "lng": -74.9673626
        },
        "location_type": "APPROXIMATE",
        "viewport": {
          "northeast": {
            "lat": 40.945889,
            "lng": -74.92786699999999
          },
          "southwest": {
            "lat": 40.8604008,
            "lng": -75.0359029
          }
        }
      },
      "place_id": "ChIJ0yMVuH6Aw4kRgVQhsM_SNNw",
      "types": [
        "locality",
        "political"
      ]
    },
    {
      "address_components": [
        {
          "long_name": "07825",
          "short_name": "07825",
          "types": [
            "postal_code"
          ]
        },
        {
          "long_name": "Blairstown",
          "short_name": "Blairstown",
          "types": [
            "locality",
            "political"
          ]
        },
        {
          "long_name": "New Jersey",
          "short_name": "NJ",
          "types": [
            "administrative_area_level_1",
            "political"
          ]
        },
        {
          "long_name": "United States",
          "short_name": "US",
          "types": [
            "country",
            "political"
          ]
        }
      ],
      "formatted_address": "Blairstown, NJ 07825, USA",
      "geometry": {
        "bounds": {
          "northeast": {
            "lat": 41.0945199,
            "lng": -74.843045
          },
          "southwest": {
            "lat": 40.8651049,
            "lng": -75.0868859
          }
        },
        "location": {
          "lat": 40.9860816,
          "lng": -74.9442585
        },
        "location_type": "APPROXIMATE",
        "viewport": {
          "northeast": {
            "lat": 41.0945199,
            "lng": -74.843045
          },
          "southwest": {
            "lat": 40.8651049,
            "lng": -75.0868859
          }
        }
      },
      "place_id": "ChIJEYIgNi1-w4kRbuCVJNPj3Lc",
      "postcode_localities": [
        "Blairstown",
        "Hardwick"
      ],
      "types": [
        "postal_code"
      ]
    },
    {
      "address_components": [
        {
          "long_name": "Warren County",
          "short_name": "Warren County",
          "types": [
            "administrative_area_level_2",
            "political"
          ]
        },
        {
          "long_name": "New Jersey",
          "short_name": "NJ",
          "types": [
            "administrative_area_level_1",
            "political"
          ]
        },
        {
          "long_name": "United States",
          "short_name": "US",
          "types": [
            "country",
            "political"
          ]
        }
      ],
      "formatted_address": "Warren County, NJ, USA",
      "geometry": {
        "bounds": {
          "northeast": {
            "lat": 41.093629,
            "lng": -74.7678739
          },
          "southwest": {
            "lat": 40.59177589999999,
            "lng": -75.2039209
          }
        },
        "location": {
          "lat": 40.8841854,
          "lng": -74.92087719999999
        },
        "location_type": "APPROXIMATE",
        "viewport": {
          "northeast": {
            "lat": 41.093629,
            "lng": -74.7678739
          },
          "southwest": {
            "lat": 40.59177589999999,
            "lng": -75.2039209
          }
        }
      },
      "place_id": "ChIJBT-KStmCw4kRT-qWiF6ja1Q",
      "types": [
        "administrative_area_level_2",
        "political"
      ]
    },
    {
      "address_components": [
        {
          "long_name": "Αλεντάουν",
          "short_name": "Αλεντάουν",
          "types": [
            "political"
          ]
        },
        {
          "long_name": "United States",
          "short_name": "US",
          "types": [
            "country",
            "political"
          ]
        }
      ],
      "formatted_address": "Αλεντάουν, USA",
      "geometry": {
        "bounds": {
          "northeast": {
            "lat": 41.1339881,
            "lng": -74.7679091
          },
          "southwest": {
            "lat": 40.4184509,
            "lng": -75.9973481
          }
        },
        "location": {
          "lat": 40.7291847,
          "lng": -75.2479061
        },
        "location_type": "APPROXIMATE",
        "viewport": {
          "northeast": {
            "lat": 41.1339881,
            "lng": -74.7679091
          },
          "southwest": {
            "lat": 40.4184509,
            "lng": -75.9973481
          }
        }
      },
      "place_id": "ChIJe-aP3QlDxIkRkcI8h_6NgQ8",
      "types": [
        "political"
      ]
    },
    {
      "address_components": [
        {
          "long_name": "New Jersey",
          "short_name": "NJ",
          "types": [
            "administrative_area_level_1",
            "political"
          ]
        },
        {
          "long_name": "United States",
          "short_name": "US",
          "types": [
            "country",
            "political"
          ]
        }
      ],
      "formatted_address": "New Jersey, USA",
      "geometry": {
        "bounds": {
          "northeast": {
            "lat": 41.357423,
            "lng": -73.9024391
          },
          "southwest": {
            "lat": 38.9285589,
            "lng": -75.5597921
          }
        },
        "location": {
          "lat": 40.0583238,
          "lng": -74.4056612
        },
        "location_type": "APPROXIMATE",
        "viewport": {
          "northeast": {
            "lat": 41.357423,
            "lng": -73.9024391
          },
          "southwest": {
            "lat": 38.9286032,
            "lng": -75.5597921
          }
        }
      },
      "place_id": "ChIJn0AAnpX7wIkRjW0_-Ad70iw",
      "types": [
        "administrative_area_level_1",
        "political"
      ]
    },
    {
      "address_components": [
        {
          "long_name": "United States",
          "short_name": "US",
          "types": [
            "country",
            "political"
          ]
        }
      ],
      "formatted_address": "United States",
      "geometry": {
        "bounds": {
          "northeast": {
            "lat": 71.3867745,
            "lng": -66.9502861
          },
          "southwest": {
            "lat": 18.9106768,
            "lng": 172.4458955
          }
        },
        "location": {
          "lat": 37.09024,
          "lng": -95.712891
        },
        "location_type": "APPROXIMATE",
        "viewport": {
          "northeast": {
            "lat": 49.38,
            "lng": -66.94
          },
          "southwest": {
            "lat": 25.82,
            "lng": -124.39
          }
        }
      },
      "place_id": "ChIJCzYy5IS16lQRQrfeQ5K5Oxw",
      "types": [
        "country",
        "political"
      ]
    }
  ],
  "status": "OK"
}
