{
  "results": [
    {
      "address_components": [
        {
          "long_name": "315",
          "short_name": "315",
          "types": [
            "street_number"
          ]
        },
        {
          "long_name": "Lilac Drive",
          "short_name": "Lilac Dr",
          "types": [
            "route"
          ]
        },
        {
          "long_name": "Beecher",
          "short_name": "Beecher",
          "types": [
            "locality",
            "political"
          ]
        },
        {
          "long_name": "Washington Township",
          "short_name": "Washington Township",
          "types": [
            "administrative_area_level_3",
            "political"
          ]
        },
        {
          "long_name": "Will County",
          "short_name": "Will County",
          "types": [
            "administrative_area_level_2",
            "political"
          ]
        },
        {
          "long_name": "Illinois",
          "short_name": "IL",
          "types": [
            "administrative_area_level_1",
            "political"
          ]
        },
        {
          "long_name": "United States",
          "short_name": "US",
          "types": [
            "country",
            "political"
          ]
        },
        {
          "long_name": "60401",
          "short_name": "60401",
          "types": [
            "postal_code"
          ]
        },
        {
          "long_name": "3468",
          "short_name": "3468",
          "types": [
            "postal_code_suffix"
          ]
        }
      ],
      "formatted_address": "315 Lilac Dr, Beecher, IL 60401, USA",
      "geometry": {
        "location": {
          "lat": 41.35051600000001,
          "lng": -87.61706900000001
        },
        "location_type": "ROOFTOP",
        "viewport": {
          "northeast": {
            "lat": 41.35186498029151,
            "lng": -87.61572001970852
          },
          "southwest": {
            "lat": 41.34916701970851,
            "lng": -87.61841798029153
          }
        }
      },
      "place_id": "ChIJOVhkafYDDogRanIg-UX0EJU",
      "types": [
        "street_address"
      ]
    },
    {
      "address_components": [
        {
          "long_name": "Beecher",
          "short_name": "Beecher",
          "types": [
            "locality",
            "political"
          ]
        },
        {
          "long_name": "Washington Township",
          "short_name": "Washington Township",
          "types": [
            "administrative_area_level_3",
            "political"
          ]
        },
        {
          "long_name": "Will County",
          "short_name": "Will County",
          "types": [
            "administrative_area_level_2",
            "political"
          ]
        },
        {
          "long_name": "Illinois",
          "short_name": "IL",
          "types": [
            "administrative_area_level_1",
            "political"
          ]
        },
        {
          "long_name": "United States",
          "short_name": "US",
          "types": [
            "country",
            "political"
          ]
        },
        {
          "long_name": "60401",
          "short_name": "60401",
          "types": [
            "postal_code"
          ]
        }
      ],
      "formatted_address": "Beecher, IL 60401, USA",
      "geometry": {
        "bounds": {
          "northeast": {
            "lat": 41.370087,
            "lng": -87.5963938
          },
          "southwest": {
            "lat": 41.33442489999999,
            "lng": -87.63744
          }
        },
        "location": {
          "lat": 41.34059,
          "lng": -87.6214286
        },
        "location_type": "APPROXIMATE",
        "viewport": {
          "northeast": {
            "lat": 41.370087,
            "lng": -87.5963938
          },
          "southwest": {
            "lat": 41.33442489999999,
            "lng": -87.63744
          }
        }
      },
      "place_id": "ChIJgdWDTfQDDogR97WX_Oa8ZyE",
      "types": [
        "locality",
        "political"
      ]
    },
    {
      "address_components": [
        {
          "long_name": "Washington Township",
          "short_name": "Washington Township",
          "types": [
            "administrative_area_level_3",
            "political"
          ]
        },
        {
          "long_name": "Will County",
          "short_name": "Will County",
          "types": [
            "administrative_area_level_2",
            "political"
          ]
        },
        {
          "long_name": "Illinois",
          "short_name": "IL",
          "types": [
            "administrative_area_level_1",
            "political"
          ]
        },
        {
          "long_name": "United States",
          "short_name": "US",
          "types": [
            "country",
            "political"
          ]
        }
      ],
      "formatted_address": "Washington Township, IL, USA",
      "geometry": {
        "bounds": {
          "northeast": {
            "lat": 41.38463290000001,
            "lng": -87.525339
          },
          "southwest": {
            "lat": 41.2968539,
            "lng": -87.6701399
          }
        },
        "location": {
          "lat": 41.3561962,
          "lng": -87.5988876
        },
        "location_type": "APPROXIMATE",
        "viewport": {
          "northeast": {
            "lat": 41.38463290000001,
            "lng": -87.525339
          },
          "southwest": {
            "lat": 41.2968539,
            "lng": -87.6701399
          }
        }
      },
      "place_id": "ChIJCXC06d0DDogR36rNclyhU8k",
      "types": [
        "administrative_area_level_3",
        "political"
      ]
    },
    {
      "address_components": [
        {
          "long_name": "60401",
          "short_name": "60401",
          "types": [
            "postal_code"
          ]
        },
        {
          "long_name": "Beecher",
          "short_name": "Beecher",
          "types": [
            "locality",
            "political"
          ]
        },
        {
          "long_name": "Illinois",
          "short_name": "IL",
          "types": [
            "administrative_area_level_1",
            "political"
          ]
        },
        {
          "long_name": "United States",
          "short_name": "US",
          "types": [
            "country",
            "political"
          ]
        }
      ],
      "formatted_address": "Beecher, IL 60401, USA",
      "geometry": {
        "bounds": {
          "northeast": {
            "lat": 41.4060349,
            "lng": -87.5262181
          },
          "southwest": {
            "lat": 41.2810949,
            "lng": -87.719443
          }
        },
        "location": {
          "lat": 41.3561962,
          "lng": -87.5988876
        },
        "location_type": "APPROXIMATE",
        "viewport": {
          "northeast": {
            "lat": 41.4060349,
            "lng": -87.5262181
          },
          "southwest": {
            "lat": 41.2810949,
            "lng": -87.719443
          }
        }
      },
      "place_id": "ChIJeZajvvkDDogRyoQ5NfKyodU",
      "types": [
        "postal_code"
      ]
    },
    {
      "address_components": [
        {
          "long_name": "Will County",
          "short_name": "Will County",
          "types": [
            "administrative_area_level_2",
            "political"
          ]
        },
        {
          "long_name": "Illinois",
          "short_name": "IL",
          "types": [
            "administrative_area_level_1",
            "political"
          ]
        },
        {
          "long_name": "United States",
          "short_name": "US",
          "types": [
            "country",
            "political"
          ]
        }
      ],
      "formatted_address": "Will County, IL, USA",
      "geometry": {
        "bounds": {
          "northeast": {
            "lat": 41.72893,
            "lng": -87.52530209999999
          },
          "southwest": {
            "lat": 41.2015529,
            "lng": -88.2614679
          }
        },
        "location": {
          "lat": 41.5054724,
          "lng": -88.0900762
        },
        "location_type": "APPROXIMATE",
        "viewport": {
          "northeast": {
            "lat": 41.72893,
            "lng": -87.52530209999999
          },
          "southwest": {
            "lat": 41.2015529,
            "lng": -88.2614679
          }
        }
      },
      "place_id": "ChIJuwvCvgOLDogRSNhOfXa7wKA",
      "types": [
        "administrative_area_level_2",
        "political"
      ]
    },
    {
      "address_components": [
        {
          "long_name": "Chicago Metropolitan Area",
          "short_name": "Chicago Metropolitan Area",
          "types": [
            "political"
          ]
        },
        {
          "long_name": "United States",
          "short_name": "US",
          "types": [
            "country",
            "political"
          ]
        }
      ],
      "formatted_address": "Chicago Metropolitan Area, USA",
      "geometry": {
        "bounds": {
          "northeast": {
            "lat": 42.670123,
            "lng": -86.92925699999999
          },
          "southwest": {
            "lat": 40.7364641,
            "lng": -88.942292
          }
        },
        "location": {
          "lat": 41.7435073,
          "lng": -88.0118473
        },
        "location_type": "APPROXIMATE",
        "viewport": {
          "northeast": {
            "lat": 42.670123,
            "lng": -86.92925699999999
          },
          "southwest": {
            "lat": 40.7364641,
            "lng": -88.942292
          }
        }
      },
      "place_id": "ChIJg-CZjExEDogRNJNXmgqEe9o",
      "types": [
        "political"
      ]
    },
    {
      "address_components": [
        {
          "long_name": "Illinois",
          "short_name": "IL",
          "types": [
            "administrative_area_level_1",
            "political"
          ]
        },
        {
          "long_name": "United States",
          "short_name": "US",
          "types": [
            "country",
            "political"
          ]
        }
      ],
      "formatted_address": "Illinois, USA",
      "geometry": {
        "bounds": {
          "northeast": {
            "lat": 42.5083379,
            "lng": -87.4951991
          },
          "southwest": {
            "lat": 36.970298,
            "lng": -91.5130789
          }
        },
        "location": {
          "lat": 40.6331249,
          "lng": -89.3985283
        },
        "location_type": "APPROXIMATE",
        "viewport": {
          "northeast": {
            "lat": 42.5083379,
            "lng": -87.4951991
          },
          "southwest": {
            "lat": 36.970298,
            "lng": -91.5130789
          }
        }
      },
      "place_id": "ChIJGSZubzgtC4gRVlkRZFCCFX8",
      "types": [
        "administrative_area_level_1",
        "political"
      ]
    },
    {
      "address_components": [
        {
          "long_name": "United States",
          "short_name": "US",
          "types": [
            "country",
            "political"
          ]
        }
      ],
      "formatted_address": "United States",
      "geometry": {
        "bounds": {
          "northeast": {
            "lat": 71.3867745,
            "lng": -66.9502861
          },
          "southwest": {
            "lat": 18.9106768,
            "lng": 172.4458955
          }
        },
        "location": {
          "lat": 37.09024,
          "lng": -95.712891
        },
        "location_type": "APPROXIMATE",
        "viewport": {
          "northeast": {
            "lat": 49.38,
            "lng": -66.94
          },
          "southwest": {
            "lat": 25.82,
            "lng": -124.39
          }
        }
      },
      "place_id": "ChIJCzYy5IS16lQRQrfeQ5K5Oxw",
      "types": [
        "country",
        "political"
      ]
    }
  ],
  "status": "OK"
}
