{
  "results": [
    {
      "address_components": [
        {
          "long_name": "113",
          "short_name": "113",
          "types": [
            "street_number"
          ]
        },
        {
          "long_name": "West Main Street",
          "short_name": "W Main St",
          "types": [
            "route"
          ]
        },
        {
          "long_name": "Mount Olive",
          "short_name": "Mt Olive",
          "types": [
            "locality",
            "political"
          ]
        },
        {
          "long_name": "Mount Olive Township",
          "short_name": "Mt Olive Township",
          "types": [
            "administrative_area_level_3",
            "political"
          ]
        },
        {
          "long_name": "Macoupin County",
          "short_name": "Macoupin County",
          "types": [
            "administrative_area_level_2",
            "political"
          ]
        },
        {
          "long_name": "Illinois",
          "short_name": "IL",
          "types": [
            "administrative_area_level_1",
            "political"
          ]
        },
        {
          "long_name": "United States",
          "short_name": "US",
          "types": [
            "country",
            "political"
          ]
        },
        {
          "long_name": "62069",
          "short_name": "62069",
          "types": [
            "postal_code"
          ]
        },
        {
          "long_name": "1609",
          "short_name": "1609",
          "types": [
            "postal_code_suffix"
          ]
        }
      ],
      "formatted_address": "113 W Main St, Mt Olive, IL 62069, USA",
      "geometry": {
        "location": {
          "lat": 39.0722638,
          "lng": -89.72756980000001
        },
        "location_type": "ROOFTOP",
        "viewport": {
          "northeast": {
            "lat": 39.0736127802915,
            "lng": -89.72622081970852
          },
          "southwest": {
            "lat": 39.0709148197085,
            "lng": -89.72891878029152
          }
        }
      },
      "place_id": "ChIJSX6tlXeWdYgR66qRnCwhn7A",
      "types": [
        "street_address"
      ]
    },
    {
      "address_components": [
        {
          "long_name": "Mount Olive",
          "short_name": "Mt Olive",
          "types": [
            "locality",
            "political"
          ]
        },
        {
          "long_name": "Mount Olive Township",
          "short_name": "Mt Olive Township",
          "types": [
            "administrative_area_level_3",
            "political"
          ]
        },
        {
          "long_name": "Macoupin County",
          "short_name": "Macoupin County",
          "types": [
            "administrative_area_level_2",
            "political"
          ]
        },
        {
          "long_name": "Illinois",
          "short_name": "IL",
          "types": [
            "administrative_area_level_1",
            "political"
          ]
        },
        {
          "long_name": "United States",
          "short_name": "US",
          "types": [
            "country",
            "political"
          ]
        },
        {
          "long_name": "62069",
          "short_name": "62069",
          "types": [
            "postal_code"
          ]
        }
      ],
      "formatted_address": "Mt Olive, IL 62069, USA",
      "geometry": {
        "bounds": {
          "northeast": {
            "lat": 39.0797079,
            "lng": -89.71762609999999
          },
          "southwest": {
            "lat": 39.0642649,
            "lng": -89.74224
          }
        },
        "location": {
          "lat": 39.07226900000001,
          "lng": -89.7273148
        },
        "location_type": "APPROXIMATE",
        "viewport": {
          "northeast": {
            "lat": 39.0797079,
            "lng": -89.71762609999999
          },
          "southwest": {
            "lat": 39.0642649,
            "lng": -89.74224
          }
        }
      },
      "place_id": "ChIJgSg6lXeWdYgRdfqzUDB2sTk",
      "types": [
        "locality",
        "political"
      ]
    },
    {
      "address_components": [
        {
          "long_name": "Mount Olive Township",
          "short_name": "Mt Olive Township",
          "types": [
            "administrative_area_level_3",
            "political"
          ]
        },
        {
          "long_name": "Macoupin County",
          "short_name": "Macoupin County",
          "types": [
            "administrative_area_level_2",
            "political"
          ]
        },
        {
          "long_name": "Illinois",
          "short_name": "IL",
          "types": [
            "administrative_area_level_1",
            "political"
          ]
        },
        {
          "long_name": "United States",
          "short_name": "US",
          "types": [
            "country",
            "political"
          ]
        }
      ],
      "formatted_address": "Mt Olive Township, IL, USA",
      "geometry": {
        "bounds": {
          "northeast": {
            "lat": 39.0873279,
            "lng": -89.698802
          },
          "southwest": {
            "lat": 39.0420977,
            "lng": -89.81145409999999
          }
        },
        "location": {
          "lat": 39.0603837,
          "lng": -89.7473837
        },
        "location_type": "APPROXIMATE",
        "viewport": {
          "northeast": {
            "lat": 39.0873279,
            "lng": -89.698802
          },
          "southwest": {
            "lat": 39.0420977,
            "lng": -89.81145409999999
          }
        }
      },
      "place_id": "ChIJP3zmOiKUdYgRgW3yOzEHYa0",
      "types": [
        "administrative_area_level_3",
        "political"
      ]
    },
    {
      "address_components": [
        {
          "long_name": "62069",
          "short_name": "62069",
          "types": [
            "postal_code"
          ]
        },
        {
          "long_name": "Mount Olive",
          "short_name": "Mt Olive",
          "types": [
            "locality",
            "political"
          ]
        },
        {
          "long_name": "Illinois",
          "short_name": "IL",
          "types": [
            "administrative_area_level_1",
            "political"
          ]
        },
        {
          "long_name": "United States",
          "short_name": "US",
          "types": [
            "country",
            "political"
          ]
        }
      ],
      "formatted_address": "Mt Olive, IL 62069, USA",
      "geometry": {
        "bounds": {
          "northeast": {
            "lat": 39.1498591,
            "lng": -89.674905
          },
          "southwest": {
            "lat": 39.036761,
            "lng": -89.7896169
          }
        },
        "location": {
          "lat": 39.1020502,
          "lng": -89.7473837
        },
        "location_type": "APPROXIMATE",
        "viewport": {
          "northeast": {
            "lat": 39.1498591,
            "lng": -89.674905
          },
          "southwest": {
            "lat": 39.036761,
            "lng": -89.7896169
          }
        }
      },
      "place_id": "ChIJh_Fv_IqWdYgRnpPC07a9sUc",
      "types": [
        "postal_code"
      ]
    },
    {
      "address_components": [
        {
          "long_name": "Macoupin County",
          "short_name": "Macoupin County",
          "types": [
            "administrative_area_level_2",
            "political"
          ]
        },
        {
          "long_name": "Illinois",
          "short_name": "IL",
          "types": [
            "administrative_area_level_1",
            "political"
          ]
        },
        {
          "long_name": "United States",
          "short_name": "US",
          "types": [
            "country",
            "political"
          ]
        }
      ],
      "formatted_address": "Macoupin County, IL, USA",
      "geometry": {
        "bounds": {
          "northeast": {
            "lat": 39.5233688,
            "lng": -89.6983829
          },
          "southwest": {
            "lat": 38.998349,
            "lng": -90.1537499
          }
        },
        "location": {
          "lat": 39.2375268,
          "lng": -89.9253233
        },
        "location_type": "APPROXIMATE",
        "viewport": {
          "northeast": {
            "lat": 39.5233688,
            "lng": -89.6983829
          },
          "southwest": {
            "lat": 38.998349,
            "lng": -90.1537499
          }
        }
      },
      "place_id": "ChIJL1_AUVCDdYgRcdRWuts_TzI",
      "types": [
        "administrative_area_level_2",
        "political"
      ]
    },
    {
      "address_components": [
        {
          "long_name": "St. Louis",
          "short_name": "St. Louis",
          "types": [
            "political"
          ]
        },
        {
          "long_name": "United States",
          "short_name": "US",
          "types": [
            "country",
            "political"
          ]
        }
      ],
      "formatted_address": "St. Louis, USA",
      "geometry": {
        "bounds": {
          "northeast": {
            "lat": 39.5233661,
            "lng": -89.138356
          },
          "southwest": {
            "lat": 37.7341961,
            "lng": -91.4186371
          }
        },
        "location": {
          "lat": 38.8196814,
          "lng": -90.4502368
        },
        "location_type": "APPROXIMATE",
        "viewport": {
          "northeast": {
            "lat": 39.5233661,
            "lng": -89.138356
          },
          "southwest": {
            "lat": 37.7341961,
            "lng": -91.4186371
          }
        }
      },
      "place_id": "ChIJneBzzj4z34cRFGg2ez6q57o",
      "types": [
        "political"
      ]
    },
    {
      "address_components": [
        {
          "long_name": "Illinois",
          "short_name": "IL",
          "types": [
            "administrative_area_level_1",
            "political"
          ]
        },
        {
          "long_name": "United States",
          "short_name": "US",
          "types": [
            "country",
            "political"
          ]
        }
      ],
      "formatted_address": "Illinois, USA",
      "geometry": {
        "bounds": {
          "northeast": {
            "lat": 42.5083379,
            "lng": -87.4951991
          },
          "southwest": {
            "lat": 36.970298,
            "lng": -91.5130789
          }
        },
        "location": {
          "lat": 40.6331249,
          "lng": -89.3985283
        },
        "location_type": "APPROXIMATE",
        "viewport": {
          "northeast": {
            "lat": 42.5083379,
            "lng": -87.4951991
          },
          "southwest": {
            "lat": 36.970298,
            "lng": -91.5130789
          }
        }
      },
      "place_id": "ChIJGSZubzgtC4gRVlkRZFCCFX8",
      "types": [
        "administrative_area_level_1",
        "political"
      ]
    },
    {
      "address_components": [
        {
          "long_name": "United States",
          "short_name": "US",
          "types": [
            "country",
            "political"
          ]
        }
      ],
      "formatted_address": "United States",
      "geometry": {
        "bounds": {
          "northeast": {
            "lat": 71.3867745,
            "lng": -66.9502861
          },
          "southwest": {
            "lat": 18.9106768,
            "lng": 172.4458955
          }
        },
        "location": {
          "lat": 37.09024,
          "lng": -95.712891
        },
        "location_type": "APPROXIMATE",
        "viewport": {
          "northeast": {
            "lat": 49.38,
            "lng": -66.94
          },
          "southwest": {
            "lat": 25.82,
            "lng": -124.39
          }
        }
      },
      "place_id": "ChIJCzYy5IS16lQRQrfeQ5K5Oxw",
      "types": [
        "country",
        "political"
      ]
    }
  ],
  "status": "OK"
}
