{
  "results": [
    {
      "address_components": [
        {
          "long_name": "1014",
          "short_name": "1014",
          "types": [
            "street_number"
          ]
        },
        {
          "long_name": "Webster Lane",
          "short_name": "Webster Ln",
          "types": [
            "route"
          ]
        },
        {
          "long_name": "Des Plaines",
          "short_name": "Des Plaines",
          "types": [
            "locality",
            "political"
          ]
        },
        {
          "long_name": "Maine Township",
          "short_name": "Maine Township",
          "types": [
            "administrative_area_level_3",
            "political"
          ]
        },
        {
          "long_name": "Cook County",
          "short_name": "Cook County",
          "types": [
            "administrative_area_level_2",
            "political"
          ]
        },
        {
          "long_name": "Illinois",
          "short_name": "IL",
          "types": [
            "administrative_area_level_1",
            "political"
          ]
        },
        {
          "long_name": "United States",
          "short_name": "US",
          "types": [
            "country",
            "political"
          ]
        },
        {
          "long_name": "60016",
          "short_name": "60016",
          "types": [
            "postal_code"
          ]
        },
        {
          "long_name": "6345",
          "short_name": "6345",
          "types": [
            "postal_code_suffix"
          ]
        }
      ],
      "formatted_address": "1014 Webster Ln, Des Plaines, IL 60016, USA",
      "geometry": {
        "location": {
          "lat": 42.034394,
          "lng": -87.900806
        },
        "location_type": "ROOFTOP",
        "viewport": {
          "northeast": {
            "lat": 42.0357429802915,
            "lng": -87.8994570197085
          },
          "southwest": {
            "lat": 42.0330450197085,
            "lng": -87.90215498029151
          }
        }
      },
      "place_id": "ChIJHxENJwy3D4gRUXJ8y1rczyc",
      "types": [
        "street_address"
      ]
    },
    {
      "address_components": [
        {
          "long_name": "Des Plaines",
          "short_name": "Des Plaines",
          "types": [
            "locality",
            "political"
          ]
        },
        {
          "long_name": "Maine Township",
          "short_name": "Maine Township",
          "types": [
            "administrative_area_level_3",
            "political"
          ]
        },
        {
          "long_name": "Cook County",
          "short_name": "Cook County",
          "types": [
            "administrative_area_level_2",
            "political"
          ]
        },
        {
          "long_name": "Illinois",
          "short_name": "IL",
          "types": [
            "administrative_area_level_1",
            "political"
          ]
        },
        {
          "long_name": "United States",
          "short_name": "US",
          "types": [
            "country",
            "political"
          ]
        }
      ],
      "formatted_address": "Des Plaines, IL, USA",
      "geometry": {
        "bounds": {
          "northeast": {
            "lat": 42.0796269,
            "lng": -87.8600979
          },
          "southwest": {
            "lat": 41.99543,
            "lng": -87.9412711
          }
        },
        "location": {
          "lat": 42.0333623,
          "lng": -87.88339909999999
        },
        "location_type": "APPROXIMATE",
        "viewport": {
          "northeast": {
            "lat": 42.0796269,
            "lng": -87.8600979
          },
          "southwest": {
            "lat": 41.99543,
            "lng": -87.9412711
          }
        }
      },
      "place_id": "ChIJbR3nekSwD4gRushGbnohXek",
      "types": [
        "locality",
        "political"
      ]
    },
    {
      "address_components": [
        {
          "long_name": "60016",
          "short_name": "60016",
          "types": [
            "postal_code"
          ]
        },
        {
          "long_name": "Des Plaines",
          "short_name": "Des Plaines",
          "types": [
            "locality",
            "political"
          ]
        },
        {
          "long_name": "Cook County",
          "short_name": "Cook County",
          "types": [
            "administrative_area_level_2",
            "political"
          ]
        },
        {
          "long_name": "Illinois",
          "short_name": "IL",
          "types": [
            "administrative_area_level_1",
            "political"
          ]
        },
        {
          "long_name": "United States",
          "short_name": "US",
          "types": [
            "country",
            "political"
          ]
        }
      ],
      "formatted_address": "Des Plaines, IL 60016, USA",
      "geometry": {
        "bounds": {
          "northeast": {
            "lat": 42.0806391,
            "lng": -87.840318
          },
          "southwest": {
            "lat": 42.025905,
            "lng": -87.942379
          }
        },
        "location": {
          "lat": 42.0488548,
          "lng": -87.8844309
        },
        "location_type": "APPROXIMATE",
        "viewport": {
          "northeast": {
            "lat": 42.0806391,
            "lng": -87.840318
          },
          "southwest": {
            "lat": 42.025905,
            "lng": -87.942379
          }
        }
      },
      "place_id": "ChIJWZImXoG3D4gREMpGWo-Ejds",
      "types": [
        "postal_code"
      ]
    },
    {
      "address_components": [
        {
          "long_name": "Maine Township",
          "short_name": "Maine Township",
          "types": [
            "administrative_area_level_3",
            "political"
          ]
        },
        {
          "long_name": "Cook County",
          "short_name": "Cook County",
          "types": [
            "administrative_area_level_2",
            "political"
          ]
        },
        {
          "long_name": "Illinois",
          "short_name": "IL",
          "types": [
            "administrative_area_level_1",
            "political"
          ]
        },
        {
          "long_name": "United States",
          "short_name": "US",
          "types": [
            "country",
            "political"
          ]
        }
      ],
      "formatted_address": "Maine Township, IL, USA",
      "geometry": {
        "bounds": {
          "northeast": {
            "lat": 42.0663271,
            "lng": -87.80566309999999
          },
          "southwest": {
            "lat": 41.995429,
            "lng": -87.9214679
          }
        },
        "location": {
          "lat": 42.0387784,
          "lng": -87.8746146
        },
        "location_type": "APPROXIMATE",
        "viewport": {
          "northeast": {
            "lat": 42.0663271,
            "lng": -87.80566309999999
          },
          "southwest": {
            "lat": 41.995429,
            "lng": -87.9214679
          }
        }
      },
      "place_id": "ChIJaTkhTyu2D4gRJDyopSmzPGU",
      "types": [
        "administrative_area_level_3",
        "political"
      ]
    },
    {
      "address_components": [
        {
          "long_name": "Cook County",
          "short_name": "Cook County",
          "types": [
            "administrative_area_level_2",
            "political"
          ]
        },
        {
          "long_name": "Illinois",
          "short_name": "IL",
          "types": [
            "administrative_area_level_1",
            "political"
          ]
        },
        {
          "long_name": "United States",
          "short_name": "US",
          "types": [
            "country",
            "political"
          ]
        }
      ],
      "formatted_address": "Cook County, IL, USA",
      "geometry": {
        "bounds": {
          "northeast": {
            "lat": 42.1543239,
            "lng": -87.52404399999999
          },
          "southwest": {
            "lat": 41.46953389999999,
            "lng": -88.2634779
          }
        },
        "location": {
          "lat": 41.7376587,
          "lng": -87.697554
        },
        "location_type": "APPROXIMATE",
        "viewport": {
          "northeast": {
            "lat": 42.1543239,
            "lng": -87.52404399999999
          },
          "southwest": {
            "lat": 41.46953389999999,
            "lng": -88.2634779
          }
        }
      },
      "place_id": "ChIJdRNDZqqxD4gRPOAOIwnX2Yo",
      "types": [
        "administrative_area_level_2",
        "political"
      ]
    },
    {
      "address_components": [
        {
          "long_name": "Chicago Metropolitan Area",
          "short_name": "Chicago Metropolitan Area",
          "types": [
            "political"
          ]
        },
        {
          "long_name": "United States",
          "short_name": "US",
          "types": [
            "country",
            "political"
          ]
        }
      ],
      "formatted_address": "Chicago Metropolitan Area, USA",
      "geometry": {
        "bounds": {
          "northeast": {
            "lat": 42.670123,
            "lng": -86.92925699999999
          },
          "southwest": {
            "lat": 40.7364641,
            "lng": -88.942292
          }
        },
        "location": {
          "lat": 41.7435073,
          "lng": -88.0118473
        },
        "location_type": "APPROXIMATE",
        "viewport": {
          "northeast": {
            "lat": 42.670123,
            "lng": -86.92925699999999
          },
          "southwest": {
            "lat": 40.7364641,
            "lng": -88.942292
          }
        }
      },
      "place_id": "ChIJg-CZjExEDogRNJNXmgqEe9o",
      "types": [
        "political"
      ]
    },
    {
      "address_components": [
        {
          "long_name": "Illinois",
          "short_name": "IL",
          "types": [
            "administrative_area_level_1",
            "political"
          ]
        },
        {
          "long_name": "United States",
          "short_name": "US",
          "types": [
            "country",
            "political"
          ]
        }
      ],
      "formatted_address": "Illinois, USA",
      "geometry": {
        "bounds": {
          "northeast": {
            "lat": 42.5083379,
            "lng": -87.4951991
          },
          "southwest": {
            "lat": 36.970298,
            "lng": -91.5130789
          }
        },
        "location": {
          "lat": 40.6331249,
          "lng": -89.3985283
        },
        "location_type": "APPROXIMATE",
        "viewport": {
          "northeast": {
            "lat": 42.5083379,
            "lng": -87.4951991
          },
          "southwest": {
            "lat": 36.970298,
            "lng": -91.5130789
          }
        }
      },
      "place_id": "ChIJGSZubzgtC4gRVlkRZFCCFX8",
      "types": [
        "administrative_area_level_1",
        "political"
      ]
    },
    {
      "address_components": [
        {
          "long_name": "United States",
          "short_name": "US",
          "types": [
            "country",
            "political"
          ]
        }
      ],
      "formatted_address": "United States",
      "geometry": {
        "bounds": {
          "northeast": {
            "lat": 71.3867745,
            "lng": -66.9502861
          },
          "southwest": {
            "lat": 18.9106768,
            "lng": 172.4458955
          }
        },
        "location": {
          "lat": 37.09024,
          "lng": -95.712891
        },
        "location_type": "APPROXIMATE",
        "viewport": {
          "northeast": {
            "lat": 49.38,
            "lng": -66.94
          },
          "southwest": {
            "lat": 25.82,
            "lng": -124.39
          }
        }
      },
      "place_id": "ChIJCzYy5IS16lQRQrfeQ5K5Oxw",
      "types": [
        "country",
        "political"
      ]
    }
  ],
  "status": "OK"
}
