{
  "results": [
    {
      "address_components": [
        {
          "long_name": "W961",
          "short_name": "W961",
          "types": [
            "street_number"
          ]
        },
        {
          "long_name": "Miramar Drive",
          "short_name": "Miramar Dr",
          "types": [
            "route"
          ]
        },
        {
          "long_name": "East Troy",
          "short_name": "East Troy",
          "types": [
            "locality",
            "political"
          ]
        },
        {
          "long_name": "East Troy",
          "short_name": "East Troy",
          "types": [
            "administrative_area_level_3",
            "political"
          ]
        },
        {
          "long_name": "Walworth County",
          "short_name": "Walworth County",
          "types": [
            "administrative_area_level_2",
            "political"
          ]
        },
        {
          "long_name": "Wisconsin",
          "short_name": "WI",
          "types": [
            "administrative_area_level_1",
            "political"
          ]
        },
        {
          "long_name": "United States",
          "short_name": "US",
          "types": [
            "country",
            "political"
          ]
        },
        {
          "long_name": "53120",
          "short_name": "53120",
          "types": [
            "postal_code"
          ]
        },
        {
          "long_name": "2303",
          "short_name": "2303",
          "types": [
            "postal_code_suffix"
          ]
        }
      ],
      "formatted_address": "W961 Miramar Dr, East Troy, WI 53120, USA",
      "geometry": {
        "location": {
          "lat": 42.82035,
          "lng": -88.34902799999999
        },
        "location_type": "ROOFTOP",
        "viewport": {
          "northeast": {
            "lat": 42.8216989802915,
            "lng": -88.34767901970848
          },
          "southwest": {
            "lat": 42.8190010197085,
            "lng": -88.35037698029149
          }
        }
      },
      "place_id": "ChIJIRG7iaSXBYgR1simAlCjwco",
      "types": [
        "street_address"
      ]
    },
    {
      "address_components": [
        {
          "long_name": "Potter Lake",
          "short_name": "Potter Lake",
          "types": [
            "locality",
            "political"
          ]
        },
        {
          "long_name": "East Troy",
          "short_name": "East Troy",
          "types": [
            "administrative_area_level_3",
            "political"
          ]
        },
        {
          "long_name": "Walworth County",
          "short_name": "Walworth County",
          "types": [
            "administrative_area_level_2",
            "political"
          ]
        },
        {
          "long_name": "Wisconsin",
          "short_name": "WI",
          "types": [
            "administrative_area_level_1",
            "political"
          ]
        },
        {
          "long_name": "United States",
          "short_name": "US",
          "types": [
            "country",
            "political"
          ]
        }
      ],
      "formatted_address": "Potter Lake, WI, USA",
      "geometry": {
        "bounds": {
          "northeast": {
            "lat": 42.8283821,
            "lng": -88.336292
          },
          "southwest": {
            "lat": 42.8108941,
            "lng": -88.3668781
          }
        },
        "location": {
          "lat": 42.821681,
          "lng": -88.34898319999999
        },
        "location_type": "APPROXIMATE",
        "viewport": {
          "northeast": {
            "lat": 42.8283821,
            "lng": -88.336292
          },
          "southwest": {
            "lat": 42.8108941,
            "lng": -88.3668781
          }
        }
      },
      "place_id": "ChIJe0LcoqSXBYgRMIBtIyTY-CY",
      "types": [
        "locality",
        "political"
      ]
    },
    {
      "address_components": [
        {
          "long_name": "East Troy",
          "short_name": "East Troy",
          "types": [
            "administrative_area_level_3",
            "political"
          ]
        },
        {
          "long_name": "Walworth County",
          "short_name": "Walworth County",
          "types": [
            "administrative_area_level_2",
            "political"
          ]
        },
        {
          "long_name": "Wisconsin",
          "short_name": "WI",
          "types": [
            "administrative_area_level_1",
            "political"
          ]
        },
        {
          "long_name": "United States",
          "short_name": "US",
          "types": [
            "country",
            "political"
          ]
        }
      ],
      "formatted_address": "East Troy, WI, USA",
      "geometry": {
        "bounds": {
          "northeast": {
            "lat": 42.8428289,
            "lng": -88.306435
          },
          "southwest": {
            "lat": 42.7554869,
            "lng": -88.4259199
          }
        },
        "location": {
          "lat": 42.7837171,
          "lng": -88.3530747
        },
        "location_type": "APPROXIMATE",
        "viewport": {
          "northeast": {
            "lat": 42.8428289,
            "lng": -88.306435
          },
          "southwest": {
            "lat": 42.7554869,
            "lng": -88.4259199
          }
        }
      },
      "place_id": "ChIJywWDNOKWBYgRQXxn4ZB5bMY",
      "types": [
        "administrative_area_level_3",
        "political"
      ]
    },
    {
      "address_components": [
        {
          "long_name": "53120",
          "short_name": "53120",
          "types": [
            "postal_code"
          ]
        },
        {
          "long_name": "East Troy",
          "short_name": "East Troy",
          "types": [
            "locality",
            "political"
          ]
        },
        {
          "long_name": "Wisconsin",
          "short_name": "WI",
          "types": [
            "administrative_area_level_1",
            "political"
          ]
        },
        {
          "long_name": "United States",
          "short_name": "US",
          "types": [
            "country",
            "political"
          ]
        }
      ],
      "formatted_address": "East Troy, WI 53120, USA",
      "geometry": {
        "bounds": {
          "northeast": {
            "lat": 42.8462728,
            "lng": -88.25373309999999
          },
          "southwest": {
            "lat": 42.7459529,
            "lng": -88.7081681
          }
        },
        "location": {
          "lat": 42.7938889,
          "lng": -88.38219889999999
        },
        "location_type": "APPROXIMATE",
        "viewport": {
          "northeast": {
            "lat": 42.8462728,
            "lng": -88.25373309999999
          },
          "southwest": {
            "lat": 42.7459529,
            "lng": -88.562815
          }
        }
      },
      "place_id": "ChIJufSE-RmUBYgRhBawr7LunC4",
      "types": [
        "postal_code"
      ]
    },
    {
      "address_components": [
        {
          "long_name": "Whitewater",
          "short_name": "Whitewater",
          "types": [
            "political"
          ]
        },
        {
          "long_name": "United States",
          "short_name": "US",
          "types": [
            "country",
            "political"
          ]
        }
      ],
      "formatted_address": "Whitewater, USA",
      "geometry": {
        "bounds": {
          "northeast": {
            "lat": 42.8429801,
            "lng": -88.30469210000001
          },
          "southwest": {
            "lat": 42.4920236,
            "lng": -88.77875010000001
          }
        },
        "location": {
          "lat": 42.6202834,
          "lng": -88.55653099999999
        },
        "location_type": "APPROXIMATE",
        "viewport": {
          "northeast": {
            "lat": 42.8429801,
            "lng": -88.30469210000001
          },
          "southwest": {
            "lat": 42.4920236,
            "lng": -88.77875010000001
          }
        }
      },
      "place_id": "ChIJZzNiTTfyBYgRKE186V7afbo",
      "types": [
        "political"
      ]
    },
    {
      "address_components": [
        {
          "long_name": "Walworth County",
          "short_name": "Walworth County",
          "types": [
            "administrative_area_level_2",
            "political"
          ]
        },
        {
          "long_name": "Wisconsin",
          "short_name": "WI",
          "types": [
            "administrative_area_level_1",
            "political"
          ]
        },
        {
          "long_name": "United States",
          "short_name": "US",
          "types": [
            "country",
            "political"
          ]
        }
      ],
      "formatted_address": "Walworth County, WI, USA",
      "geometry": {
        "bounds": {
          "northeast": {
            "lat": 42.8429961,
            "lng": -88.30469210000001
          },
          "southwest": {
            "lat": 42.491864,
            "lng": -88.778877
          }
        },
        "location": {
          "lat": 42.6202834,
          "lng": -88.55653099999999
        },
        "location_type": "APPROXIMATE",
        "viewport": {
          "northeast": {
            "lat": 42.8429961,
            "lng": -88.30469210000001
          },
          "southwest": {
            "lat": 42.491864,
            "lng": -88.778877
          }
        }
      },
      "place_id": "ChIJTVPf6cfsBYgRIRTiButodm8",
      "types": [
        "administrative_area_level_2",
        "political"
      ]
    },
    {
      "address_components": [
        {
          "long_name": "Wisconsin",
          "short_name": "WI",
          "types": [
            "administrative_area_level_1",
            "political"
          ]
        },
        {
          "long_name": "United States",
          "short_name": "US",
          "types": [
            "country",
            "political"
          ]
        }
      ],
      "formatted_address": "Wisconsin, USA",
      "geometry": {
        "bounds": {
          "northeast": {
            "lat": 47.0807296,
            "lng": -86.7639767
          },
          "southwest": {
            "lat": 42.491864,
            "lng": -92.88943309999999
          }
        },
        "location": {
          "lat": 43.7844397,
          "lng": -88.7878678
        },
        "location_type": "APPROXIMATE",
        "viewport": {
          "northeast": {
            "lat": 47.0807296,
            "lng": -86.7639767
          },
          "southwest": {
            "lat": 42.491864,
            "lng": -92.88943309999999
          }
        }
      },
      "place_id": "ChIJr-OEkw_0qFIR1kmG-LjV1fI",
      "types": [
        "administrative_area_level_1",
        "political"
      ]
    },
    {
      "address_components": [
        {
          "long_name": "United States",
          "short_name": "US",
          "types": [
            "country",
            "political"
          ]
        }
      ],
      "formatted_address": "United States",
      "geometry": {
        "bounds": {
          "northeast": {
            "lat": 71.3867745,
            "lng": -66.9502861
          },
          "southwest": {
            "lat": 18.9106768,
            "lng": 172.4458955
          }
        },
        "location": {
          "lat": 37.09024,
          "lng": -95.712891
        },
        "location_type": "APPROXIMATE",
        "viewport": {
          "northeast": {
            "lat": 49.38,
            "lng": -66.94
          },
          "southwest": {
            "lat": 25.82,
            "lng": -124.39
          }
        }
      },
      "place_id": "ChIJCzYy5IS16lQRQrfeQ5K5Oxw",
      "types": [
        "country",
        "political"
      ]
    }
  ],
  "status": "OK"
}
