{
  "results": [
    {
      "address_components": [
        {
          "long_name": "Panhandle Trail",
          "short_name": "Panhandle Trail",
          "types": [
            "route"
          ]
        },
        {
          "long_name": "Bulger",
          "short_name": "Bulger",
          "types": [
            "locality",
            "political"
          ]
        },
        {
          "long_name": "Smith Township",
          "short_name": "Smith Township",
          "types": [
            "administrative_area_level_3",
            "political"
          ]
        },
        {
          "long_name": "Washington County",
          "short_name": "Washington County",
          "types": [
            "administrative_area_level_2",
            "political"
          ]
        },
        {
          "long_name": "Pennsylvania",
          "short_name": "PA",
          "types": [
            "administrative_area_level_1",
            "political"
          ]
        },
        {
          "long_name": "United States",
          "short_name": "US",
          "types": [
            "country",
            "political"
          ]
        },
        {
          "long_name": "15019",
          "short_name": "15019",
          "types": [
            "postal_code"
          ]
        }
      ],
      "formatted_address": "Panhandle Trail, Bulger, PA 15019, USA",
      "geometry": {
        "bounds": {
          "northeast": {
            "lat": 40.3839126,
            "lng": -80.3456042
          },
          "southwest": {
            "lat": 40.38115850000001,
            "lng": -80.35704989999999
          }
        },
        "location": {
          "lat": 40.3818113,
          "lng": -80.351049
        },
        "location_type": "GEOMETRIC_CENTER",
        "viewport": {
          "northeast": {
            "lat": 40.3839126,
            "lng": -80.3456042
          },
          "southwest": {
            "lat": 40.38115850000001,
            "lng": -80.35704989999999
          }
        }
      },
      "place_id": "ChIJ-Xeg3ERPNIgRaun07HPo7Xs",
      "types": [
        "route"
      ]
    },
    {
      "address_components": [
        {
          "long_name": "Joffre",
          "short_name": "Joffre",
          "types": [
            "locality",
            "political"
          ]
        },
        {
          "long_name": "Smith Township",
          "short_name": "Smith Township",
          "types": [
            "administrative_area_level_3",
            "political"
          ]
        },
        {
          "long_name": "Washington County",
          "short_name": "Washington County",
          "types": [
            "administrative_area_level_2",
            "political"
          ]
        },
        {
          "long_name": "Pennsylvania",
          "short_name": "PA",
          "types": [
            "administrative_area_level_1",
            "political"
          ]
        },
        {
          "long_name": "United States",
          "short_name": "US",
          "types": [
            "country",
            "political"
          ]
        }
      ],
      "formatted_address": "Joffre, PA, USA",
      "geometry": {
        "bounds": {
          "northeast": {
            "lat": 40.3872829,
            "lng": -80.33471089999999
          },
          "southwest": {
            "lat": 40.3711598,
            "lng": -80.3680891
          }
        },
        "location": {
          "lat": 40.380431,
          "lng": -80.3601935
        },
        "location_type": "APPROXIMATE",
        "viewport": {
          "northeast": {
            "lat": 40.3872829,
            "lng": -80.33471089999999
          },
          "southwest": {
            "lat": 40.3711598,
            "lng": -80.3680891
          }
        }
      },
      "place_id": "ChIJ6QpWMERPNIgR1px0WND4Thk",
      "types": [
        "locality",
        "political"
      ]
    },
    {
      "address_components": [
        {
          "long_name": "15019",
          "short_name": "15019",
          "types": [
            "postal_code"
          ]
        },
        {
          "long_name": "Bulger",
          "short_name": "Bulger",
          "types": [
            "locality",
            "political"
          ]
        },
        {
          "long_name": "Pennsylvania",
          "short_name": "PA",
          "types": [
            "administrative_area_level_1",
            "political"
          ]
        },
        {
          "long_name": "United States",
          "short_name": "US",
          "types": [
            "country",
            "political"
          ]
        }
      ],
      "formatted_address": "Bulger, PA 15019, USA",
      "geometry": {
        "bounds": {
          "northeast": {
            "lat": 40.477568,
            "lng": -80.285159
          },
          "southwest": {
            "lat": 40.345102,
            "lng": -80.370802
          }
        },
        "location": {
          "lat": 40.4021036,
          "lng": -80.33245140000001
        },
        "location_type": "APPROXIMATE",
        "viewport": {
          "northeast": {
            "lat": 40.477568,
            "lng": -80.285159
          },
          "southwest": {
            "lat": 40.345102,
            "lng": -80.370802
          }
        }
      },
      "place_id": "ChIJx05Xl5lFNIgReSeenrF-x9M",
      "types": [
        "postal_code"
      ]
    },
    {
      "address_components": [
        {
          "long_name": "Smith Township",
          "short_name": "Smith Township",
          "types": [
            "administrative_area_level_3",
            "political"
          ]
        },
        {
          "long_name": "Washington County",
          "short_name": "Washington County",
          "types": [
            "administrative_area_level_2",
            "political"
          ]
        },
        {
          "long_name": "Pennsylvania",
          "short_name": "PA",
          "types": [
            "administrative_area_level_1",
            "political"
          ]
        },
        {
          "long_name": "United States",
          "short_name": "US",
          "types": [
            "country",
            "political"
          ]
        }
      ],
      "formatted_address": "Smith Township, PA, USA",
      "geometry": {
        "bounds": {
          "northeast": {
            "lat": 40.42962,
            "lng": -80.27960809999999
          },
          "southwest": {
            "lat": 40.308596,
            "lng": -80.4350269
          }
        },
        "location": {
          "lat": 40.3837683,
          "lng": -80.3547286
        },
        "location_type": "APPROXIMATE",
        "viewport": {
          "northeast": {
            "lat": 40.42962,
            "lng": -80.27960809999999
          },
          "southwest": {
            "lat": 40.308596,
            "lng": -80.4350269
          }
        }
      },
      "place_id": "ChIJbR7KKzdPNIgRFaFecN5_tuo",
      "types": [
        "administrative_area_level_3",
        "political"
      ]
    },
    {
      "address_components": [
        {
          "long_name": "Washington County",
          "short_name": "Washington County",
          "types": [
            "administrative_area_level_2",
            "political"
          ]
        },
        {
          "long_name": "Pennsylvania",
          "short_name": "PA",
          "types": [
            "administrative_area_level_1",
            "political"
          ]
        },
        {
          "long_name": "United States",
          "short_name": "US",
          "types": [
            "country",
            "political"
          ]
        }
      ],
      "formatted_address": "Washington County, PA, USA",
      "geometry": {
        "bounds": {
          "northeast": {
            "lat": 40.477789,
            "lng": -79.838999
          },
          "southwest": {
            "lat": 39.9520799,
            "lng": -80.51928
          }
        },
        "location": {
          "lat": 40.1367719,
          "lng": -80.1875065
        },
        "location_type": "APPROXIMATE",
        "viewport": {
          "northeast": {
            "lat": 40.477789,
            "lng": -79.838999
          },
          "southwest": {
            "lat": 39.9520799,
            "lng": -80.51928
          }
        }
      },
      "place_id": "ChIJ77mzXIhUNIgRLeIAh52V2HI",
      "types": [
        "administrative_area_level_2",
        "political"
      ]
    },
    {
      "address_components": [
        {
          "long_name": "Pittsburgh",
          "short_name": "Pittsburgh",
          "types": [
            "political"
          ]
        },
        {
          "long_name": "United States",
          "short_name": "US",
          "types": [
            "country",
            "political"
          ]
        }
      ],
      "formatted_address": "Pittsburgh, USA",
      "geometry": {
        "bounds": {
          "northeast": {
            "lat": 41.1731849,
            "lng": -78.974649
          },
          "southwest": {
            "lat": 39.7207129,
            "lng": -80.5192179
          }
        },
        "location": {
          "lat": 40.3565093,
          "lng": -79.9192702
        },
        "location_type": "APPROXIMATE",
        "viewport": {
          "northeast": {
            "lat": 41.1731849,
            "lng": -78.974649
          },
          "southwest": {
            "lat": 39.7207129,
            "lng": -80.5192179
          }
        }
      },
      "place_id": "ChIJiWjZkAfsNIgRSXopSLGQlS4",
      "types": [
        "political"
      ]
    },
    {
      "address_components": [
        {
          "long_name": "Pennsylvania",
          "short_name": "PA",
          "types": [
            "administrative_area_level_1",
            "political"
          ]
        },
        {
          "long_name": "United States",
          "short_name": "US",
          "types": [
            "country",
            "political"
          ]
        }
      ],
      "formatted_address": "Pennsylvania, USA",
      "geometry": {
        "bounds": {
          "northeast": {
            "lat": 42.2693866,
            "lng": -74.6895018
          },
          "southwest": {
            "lat": 39.7197989,
            "lng": -80.51989499999999
          }
        },
        "location": {
          "lat": 41.2033216,
          "lng": -77.1945247
        },
        "location_type": "APPROXIMATE",
        "viewport": {
          "northeast": {
            "lat": 42.2693866,
            "lng": -74.6895018
          },
          "southwest": {
            "lat": 39.7197989,
            "lng": -80.51989499999999
          }
        }
      },
      "place_id": "ChIJieUyHiaALYgRPbQiUEchRsI",
      "types": [
        "administrative_area_level_1",
        "political"
      ]
    },
    {
      "address_components": [
        {
          "long_name": "United States",
          "short_name": "US",
          "types": [
            "country",
            "political"
          ]
        }
      ],
      "formatted_address": "United States",
      "geometry": {
        "bounds": {
          "northeast": {
            "lat": 71.3867745,
            "lng": -66.9502861
          },
          "southwest": {
            "lat": 18.9106768,
            "lng": 172.4458955
          }
        },
        "location": {
          "lat": 37.09024,
          "lng": -95.712891
        },
        "location_type": "APPROXIMATE",
        "viewport": {
          "northeast": {
            "lat": 49.38,
            "lng": -66.94
          },
          "southwest": {
            "lat": 25.82,
            "lng": -124.39
          }
        }
      },
      "place_id": "ChIJCzYy5IS16lQRQrfeQ5K5Oxw",
      "types": [
        "country",
        "political"
      ]
    }
  ],
  "status": "OK"
}
