{
  "results": [
    {
      "address_components": [
        {
          "long_name": "West Galena Boulevard",
          "short_name": "W Galena Blvd",
          "types": [
            "route"
          ]
        },
        {
          "long_name": "Sugar Grove",
          "short_name": "Sugar Grove",
          "types": [
            "locality",
            "political"
          ]
        },
        {
          "long_name": "Sugar Grove Township",
          "short_name": "Sugar Grove Township",
          "types": [
            "administrative_area_level_3",
            "political"
          ]
        },
        {
          "long_name": "Kane County",
          "short_name": "Kane County",
          "types": [
            "administrative_area_level_2",
            "political"
          ]
        },
        {
          "long_name": "Illinois",
          "short_name": "IL",
          "types": [
            "administrative_area_level_1",
            "political"
          ]
        },
        {
          "long_name": "United States",
          "short_name": "US",
          "types": [
            "country",
            "political"
          ]
        },
        {
          "long_name": "60554",
          "short_name": "60554",
          "types": [
            "postal_code"
          ]
        }
      ],
      "formatted_address": "W Galena Blvd, Sugar Grove, IL 60554, USA",
      "geometry": {
        "bounds": {
          "northeast": {
            "lat": 41.7718704,
            "lng": -88.4462662
          },
          "southwest": {
            "lat": 41.7718135,
            "lng": -88.45361659999999
          }
        },
        "location": {
          "lat": 41.7718627,
          "lng": -88.44994729999999
        },
        "location_type": "GEOMETRIC_CENTER",
        "viewport": {
          "northeast": {
            "lat": 41.7731909302915,
            "lng": -88.4462662
          },
          "southwest": {
            "lat": 41.7704929697085,
            "lng": -88.45361659999999
          }
        }
      },
      "place_id": "ChIJRVJRiLfnDogR9uCjWSzd8c4",
      "types": [
        "route"
      ]
    },
    {
      "address_components": [
        {
          "long_name": "Sugar Grove",
          "short_name": "Sugar Grove",
          "types": [
            "locality",
            "political"
          ]
        },
        {
          "long_name": "Sugar Grove Township",
          "short_name": "Sugar Grove Township",
          "types": [
            "administrative_area_level_3",
            "political"
          ]
        },
        {
          "long_name": "Kane County",
          "short_name": "Kane County",
          "types": [
            "administrative_area_level_2",
            "political"
          ]
        },
        {
          "long_name": "Illinois",
          "short_name": "IL",
          "types": [
            "administrative_area_level_1",
            "political"
          ]
        },
        {
          "long_name": "United States",
          "short_name": "US",
          "types": [
            "country",
            "political"
          ]
        }
      ],
      "formatted_address": "Sugar Grove, IL, USA",
      "geometry": {
        "bounds": {
          "northeast": {
            "lat": 41.8040579,
            "lng": -88.39808889999999
          },
          "southwest": {
            "lat": 41.7309938,
            "lng": -88.5133589
          }
        },
        "location": {
          "lat": 41.7614181,
          "lng": -88.443686
        },
        "location_type": "APPROXIMATE",
        "viewport": {
          "northeast": {
            "lat": 41.8040579,
            "lng": -88.39808889999999
          },
          "southwest": {
            "lat": 41.7309938,
            "lng": -88.5133589
          }
        }
      },
      "place_id": "ChIJ2TUAS7vnDogRrm0Mp-Zo854",
      "types": [
        "locality",
        "political"
      ]
    },
    {
      "address_components": [
        {
          "long_name": "Sugar Grove Township",
          "short_name": "Sugar Grove Township",
          "types": [
            "administrative_area_level_3",
            "political"
          ]
        },
        {
          "long_name": "Kane County",
          "short_name": "Kane County",
          "types": [
            "administrative_area_level_2",
            "political"
          ]
        },
        {
          "long_name": "Illinois",
          "short_name": "IL",
          "types": [
            "administrative_area_level_1",
            "political"
          ]
        },
        {
          "long_name": "United States",
          "short_name": "US",
          "types": [
            "country",
            "political"
          ]
        }
      ],
      "formatted_address": "Sugar Grove Township, IL, USA",
      "geometry": {
        "bounds": {
          "northeast": {
            "lat": 41.809888,
            "lng": -88.3753019
          },
          "southwest": {
            "lat": 41.7211939,
            "lng": -88.489491
          }
        },
        "location": {
          "lat": 41.7697363,
          "lng": -88.4210006
        },
        "location_type": "APPROXIMATE",
        "viewport": {
          "northeast": {
            "lat": 41.809888,
            "lng": -88.3753019
          },
          "southwest": {
            "lat": 41.7211939,
            "lng": -88.489491
          }
        }
      },
      "place_id": "ChIJ4_PIYenlDogRC4_BMuL6xnM",
      "types": [
        "administrative_area_level_3",
        "political"
      ]
    },
    {
      "address_components": [
        {
          "long_name": "60554",
          "short_name": "60554",
          "types": [
            "postal_code"
          ]
        },
        {
          "long_name": "Sugar Grove",
          "short_name": "Sugar Grove",
          "types": [
            "locality",
            "political"
          ]
        },
        {
          "long_name": "Illinois",
          "short_name": "IL",
          "types": [
            "administrative_area_level_1",
            "political"
          ]
        },
        {
          "long_name": "United States",
          "short_name": "US",
          "types": [
            "country",
            "political"
          ]
        }
      ],
      "formatted_address": "Sugar Grove, IL 60554, USA",
      "geometry": {
        "bounds": {
          "northeast": {
            "lat": 41.846235,
            "lng": -88.375975
          },
          "southwest": {
            "lat": 41.7100359,
            "lng": -88.5240039
          }
        },
        "location": {
          "lat": 41.77026070000001,
          "lng": -88.4597673
        },
        "location_type": "APPROXIMATE",
        "viewport": {
          "northeast": {
            "lat": 41.846235,
            "lng": -88.375975
          },
          "southwest": {
            "lat": 41.7100359,
            "lng": -88.5240039
          }
        }
      },
      "place_id": "ChIJV8KoZpbnDogRxa2AtnxiXVU",
      "types": [
        "postal_code"
      ]
    },
    {
      "address_components": [
        {
          "long_name": "Kane County",
          "short_name": "Kane County",
          "types": [
            "administrative_area_level_2",
            "political"
          ]
        },
        {
          "long_name": "Illinois",
          "short_name": "IL",
          "types": [
            "administrative_area_level_1",
            "political"
          ]
        },
        {
          "long_name": "United States",
          "short_name": "US",
          "types": [
            "country",
            "political"
          ]
        }
      ],
      "formatted_address": "Kane County, IL, USA",
      "geometry": {
        "bounds": {
          "northeast": {
            "lat": 42.1543481,
            "lng": -88.23787809999999
          },
          "southwest": {
            "lat": 41.719563,
            "lng": -88.60257200000001
          }
        },
        "location": {
          "lat": 41.987884,
          "lng": -88.4016041
        },
        "location_type": "APPROXIMATE",
        "viewport": {
          "northeast": {
            "lat": 42.1543481,
            "lng": -88.23787809999999
          },
          "southwest": {
            "lat": 41.719563,
            "lng": -88.60257200000001
          }
        }
      },
      "place_id": "ChIJnfjNX8UcD4gR2rRf04RfHSw",
      "types": [
        "administrative_area_level_2",
        "political"
      ]
    },
    {
      "address_components": [
        {
          "long_name": "Chicago Metropolitan Area",
          "short_name": "Chicago Metropolitan Area",
          "types": [
            "political"
          ]
        },
        {
          "long_name": "United States",
          "short_name": "US",
          "types": [
            "country",
            "political"
          ]
        }
      ],
      "formatted_address": "Chicago Metropolitan Area, USA",
      "geometry": {
        "bounds": {
          "northeast": {
            "lat": 42.670123,
            "lng": -86.92925699999999
          },
          "southwest": {
            "lat": 40.7364641,
            "lng": -88.942292
          }
        },
        "location": {
          "lat": 41.7435073,
          "lng": -88.0118473
        },
        "location_type": "APPROXIMATE",
        "viewport": {
          "northeast": {
            "lat": 42.670123,
            "lng": -86.92925699999999
          },
          "southwest": {
            "lat": 40.7364641,
            "lng": -88.942292
          }
        }
      },
      "place_id": "ChIJg-CZjExEDogRNJNXmgqEe9o",
      "types": [
        "political"
      ]
    },
    {
      "address_components": [
        {
          "long_name": "Illinois",
          "short_name": "IL",
          "types": [
            "administrative_area_level_1",
            "political"
          ]
        },
        {
          "long_name": "United States",
          "short_name": "US",
          "types": [
            "country",
            "political"
          ]
        }
      ],
      "formatted_address": "Illinois, USA",
      "geometry": {
        "bounds": {
          "northeast": {
            "lat": 42.5083379,
            "lng": -87.4951991
          },
          "southwest": {
            "lat": 36.970298,
            "lng": -91.5130789
          }
        },
        "location": {
          "lat": 40.6331249,
          "lng": -89.3985283
        },
        "location_type": "APPROXIMATE",
        "viewport": {
          "northeast": {
            "lat": 42.5083379,
            "lng": -87.4951991
          },
          "southwest": {
            "lat": 36.970298,
            "lng": -91.5130789
          }
        }
      },
      "place_id": "ChIJGSZubzgtC4gRVlkRZFCCFX8",
      "types": [
        "administrative_area_level_1",
        "political"
      ]
    },
    {
      "address_components": [
        {
          "long_name": "United States",
          "short_name": "US",
          "types": [
            "country",
            "political"
          ]
        }
      ],
      "formatted_address": "United States",
      "geometry": {
        "bounds": {
          "northeast": {
            "lat": 71.3867745,
            "lng": -66.9502861
          },
          "southwest": {
            "lat": 18.9106768,
            "lng": 172.4458955
          }
        },
        "location": {
          "lat": 37.09024,
          "lng": -95.712891
        },
        "location_type": "APPROXIMATE",
        "viewport": {
          "northeast": {
            "lat": 49.38,
            "lng": -66.94
          },
          "southwest": {
            "lat": 25.82,
            "lng": -124.39
          }
        }
      },
      "place_id": "ChIJCzYy5IS16lQRQrfeQ5K5Oxw",
      "types": [
        "country",
        "political"
      ]
    }
  ],
  "status": "OK"
}
