{
  "results": [
    {
      "address_components": [
        {
          "long_name": "340",
          "short_name": "340",
          "types": [
            "street_number"
          ]
        },
        {
          "long_name": "Old Route 30",
          "short_name": "Old Rte 30",
          "types": [
            "route"
          ]
        },
        {
          "long_name": "McKnightstown",
          "short_name": "Mcknightstown",
          "types": [
            "neighborhood",
            "political"
          ]
        },
        {
          "long_name": "Biglerville",
          "short_name": "Biglerville",
          "types": [
            "locality",
            "political"
          ]
        },
        {
          "long_name": "Franklin Township",
          "short_name": "Franklin Township",
          "types": [
            "administrative_area_level_3",
            "political"
          ]
        },
        {
          "long_name": "Adams County",
          "short_name": "Adams County",
          "types": [
            "administrative_area_level_2",
            "political"
          ]
        },
        {
          "long_name": "Pennsylvania",
          "short_name": "PA",
          "types": [
            "administrative_area_level_1",
            "political"
          ]
        },
        {
          "long_name": "United States",
          "short_name": "US",
          "types": [
            "country",
            "political"
          ]
        },
        {
          "long_name": "17307",
          "short_name": "17307",
          "types": [
            "postal_code"
          ]
        }
      ],
      "formatted_address": "340 Old Rte 30, Biglerville, PA 17307, USA",
      "geometry": {
        "location": {
          "lat": 39.8717456,
          "lng": -77.33026749999999
        },
        "location_type": "ROOFTOP",
        "viewport": {
          "northeast": {
            "lat": 39.8730945802915,
            "lng": -77.32891851970848
          },
          "southwest": {
            "lat": 39.8703966197085,
            "lng": -77.33161648029149
          }
        }
      },
      "place_id": "ChIJf5k1NyepyYkROnGiUlXpoFU",
      "types": [
        "street_address"
      ]
    },
    {
      "address_components": [
        {
          "long_name": "McKnightstown",
          "short_name": "Mcknightstown",
          "types": [
            "neighborhood",
            "political"
          ]
        },
        {
          "long_name": "Cashtown-McKnightstown",
          "short_name": "Cashtown-Mcknightstown",
          "types": [
            "locality",
            "political"
          ]
        },
        {
          "long_name": "Franklin Township",
          "short_name": "Franklin Township",
          "types": [
            "administrative_area_level_3",
            "political"
          ]
        },
        {
          "long_name": "Adams County",
          "short_name": "Adams County",
          "types": [
            "administrative_area_level_2",
            "political"
          ]
        },
        {
          "long_name": "Pennsylvania",
          "short_name": "PA",
          "types": [
            "administrative_area_level_1",
            "political"
          ]
        },
        {
          "long_name": "United States",
          "short_name": "US",
          "types": [
            "country",
            "political"
          ]
        },
        {
          "long_name": "17307",
          "short_name": "17307",
          "types": [
            "postal_code"
          ]
        }
      ],
      "formatted_address": "Mcknightstown, Cashtown-Mcknightstown, PA 17307, USA",
      "geometry": {
        "bounds": {
          "northeast": {
            "lat": 39.8895277,
            "lng": -77.31213509999999
          },
          "southwest": {
            "lat": 39.860968,
            "lng": -77.3487068
          }
        },
        "location": {
          "lat": 39.8753683,
          "lng": -77.335314
        },
        "location_type": "APPROXIMATE",
        "viewport": {
          "northeast": {
            "lat": 39.8895277,
            "lng": -77.31213509999999
          },
          "southwest": {
            "lat": 39.860968,
            "lng": -77.3487068
          }
        }
      },
      "place_id": "ChIJHc6GmiapyYkRJJMPGIGuYtE",
      "types": [
        "neighborhood",
        "political"
      ]
    },
    {
      "address_components": [
        {
          "long_name": "Cashtown-McKnightstown",
          "short_name": "Cashtown-Mcknightstown",
          "types": [
            "locality",
            "political"
          ]
        },
        {
          "long_name": "Franklin Township",
          "short_name": "Franklin Township",
          "types": [
            "administrative_area_level_3",
            "political"
          ]
        },
        {
          "long_name": "Adams County",
          "short_name": "Adams County",
          "types": [
            "administrative_area_level_2",
            "political"
          ]
        },
        {
          "long_name": "Pennsylvania",
          "short_name": "PA",
          "types": [
            "administrative_area_level_1",
            "political"
          ]
        },
        {
          "long_name": "United States",
          "short_name": "US",
          "types": [
            "country",
            "political"
          ]
        }
      ],
      "formatted_address": "Cashtown-Mcknightstown, PA, USA",
      "geometry": {
        "bounds": {
          "northeast": {
            "lat": 39.8950881,
            "lng": -77.31213509999999
          },
          "southwest": {
            "lat": 39.860968,
            "lng": -77.37006800000002
          }
        },
        "location": {
          "lat": 39.8766376,
          "lng": -77.3467996
        },
        "location_type": "APPROXIMATE",
        "viewport": {
          "northeast": {
            "lat": 39.8950881,
            "lng": -77.31213509999999
          },
          "southwest": {
            "lat": 39.860968,
            "lng": -77.37006800000002
          }
        }
      },
      "place_id": "ChIJlZ08DZSoyYkRv0oqm9F9rew",
      "types": [
        "locality",
        "political"
      ]
    },
    {
      "address_components": [
        {
          "long_name": "Franklin Township",
          "short_name": "Franklin Township",
          "types": [
            "administrative_area_level_3",
            "political"
          ]
        },
        {
          "long_name": "Adams County",
          "short_name": "Adams County",
          "types": [
            "administrative_area_level_2",
            "political"
          ]
        },
        {
          "long_name": "Pennsylvania",
          "short_name": "PA",
          "types": [
            "administrative_area_level_1",
            "political"
          ]
        },
        {
          "long_name": "United States",
          "short_name": "US",
          "types": [
            "country",
            "political"
          ]
        }
      ],
      "formatted_address": "Franklin Township, PA, USA",
      "geometry": {
        "bounds": {
          "northeast": {
            "lat": 39.981294,
            "lng": -77.2634461
          },
          "southwest": {
            "lat": 39.836371,
            "lng": -77.471085
          }
        },
        "location": {
          "lat": 39.8851798,
          "lng": -77.4013403
        },
        "location_type": "APPROXIMATE",
        "viewport": {
          "northeast": {
            "lat": 39.981294,
            "lng": -77.2634461
          },
          "southwest": {
            "lat": 39.836371,
            "lng": -77.471085
          }
        }
      },
      "place_id": "ChIJaaYp_IWoyYkRC2NyiR0WJ7g",
      "types": [
        "administrative_area_level_3",
        "political"
      ]
    },
    {
      "address_components": [
        {
          "long_name": "17307",
          "short_name": "17307",
          "types": [
            "postal_code"
          ]
        },
        {
          "long_name": "Biglerville",
          "short_name": "Biglerville",
          "types": [
            "locality",
            "political"
          ]
        },
        {
          "long_name": "Pennsylvania",
          "short_name": "PA",
          "types": [
            "administrative_area_level_1",
            "political"
          ]
        },
        {
          "long_name": "United States",
          "short_name": "US",
          "types": [
            "country",
            "political"
          ]
        }
      ],
      "formatted_address": "Biglerville, PA 17307, USA",
      "geometry": {
        "bounds": {
          "northeast": {
            "lat": 40.0235869,
            "lng": -77.175156
          },
          "southwest": {
            "lat": 39.8533768,
            "lng": -77.449545
          }
        },
        "location": {
          "lat": 39.9445814,
          "lng": -77.2979782
        },
        "location_type": "APPROXIMATE",
        "viewport": {
          "northeast": {
            "lat": 40.0235869,
            "lng": -77.175156
          },
          "southwest": {
            "lat": 39.8533768,
            "lng": -77.449545
          }
        }
      },
      "place_id": "ChIJkQYt6W0HyYkR3GqIkCT8OOk",
      "types": [
        "postal_code"
      ]
    },
    {
      "address_components": [
        {
          "long_name": "Adams County",
          "short_name": "Adams County",
          "types": [
            "administrative_area_level_2",
            "political"
          ]
        },
        {
          "long_name": "Pennsylvania",
          "short_name": "PA",
          "types": [
            "administrative_area_level_1",
            "political"
          ]
        },
        {
          "long_name": "United States",
          "short_name": "US",
          "types": [
            "country",
            "political"
          ]
        }
      ],
      "formatted_address": "Adams County, PA, USA",
      "geometry": {
        "bounds": {
          "northeast": {
            "lat": 40.0699449,
            "lng": -76.95493189999999
          },
          "southwest": {
            "lat": 39.71981290000001,
            "lng": -77.471085
          }
        },
        "location": {
          "lat": 39.8522417,
          "lng": -77.2864879
        },
        "location_type": "APPROXIMATE",
        "viewport": {
          "northeast": {
            "lat": 40.0699449,
            "lng": -76.95493189999999
          },
          "southwest": {
            "lat": 39.71981290000001,
            "lng": -77.471085
          }
        }
      },
      "place_id": "ChIJCWVbo3AByYkRHNZRi5Q0HDM",
      "types": [
        "administrative_area_level_2",
        "political"
      ]
    },
    {
      "address_components": [
        {
          "long_name": "Gettysburg",
          "short_name": "Gettysburg",
          "types": [
            "political"
          ]
        },
        {
          "long_name": "United States",
          "short_name": "US",
          "types": [
            "country",
            "political"
          ]
        }
      ],
      "formatted_address": "Gettysburg, USA",
      "geometry": {
        "bounds": {
          "northeast": {
            "lat": 40.0697039,
            "lng": -76.9553701
          },
          "southwest": {
            "lat": 39.7198309,
            "lng": -77.4716159
          }
        },
        "location": {
          "lat": 39.8522417,
          "lng": -77.2864879
        },
        "location_type": "APPROXIMATE",
        "viewport": {
          "northeast": {
            "lat": 40.0697039,
            "lng": -76.9553701
          },
          "southwest": {
            "lat": 39.7198309,
            "lng": -77.4716159
          }
        }
      },
      "place_id": "ChIJrRvsIxaryYkR10VrsPfoOjc",
      "types": [
        "political"
      ]
    },
    {
      "address_components": [
        {
          "long_name": "Pennsylvania",
          "short_name": "PA",
          "types": [
            "administrative_area_level_1",
            "political"
          ]
        },
        {
          "long_name": "United States",
          "short_name": "US",
          "types": [
            "country",
            "political"
          ]
        }
      ],
      "formatted_address": "Pennsylvania, USA",
      "geometry": {
        "bounds": {
          "northeast": {
            "lat": 42.2693866,
            "lng": -74.6895018
          },
          "southwest": {
            "lat": 39.7197989,
            "lng": -80.51989499999999
          }
        },
        "location": {
          "lat": 41.2033216,
          "lng": -77.1945247
        },
        "location_type": "APPROXIMATE",
        "viewport": {
          "northeast": {
            "lat": 42.2693866,
            "lng": -74.6895018
          },
          "southwest": {
            "lat": 39.7197989,
            "lng": -80.51989499999999
          }
        }
      },
      "place_id": "ChIJieUyHiaALYgRPbQiUEchRsI",
      "types": [
        "administrative_area_level_1",
        "political"
      ]
    },
    {
      "address_components": [
        {
          "long_name": "United States",
          "short_name": "US",
          "types": [
            "country",
            "political"
          ]
        }
      ],
      "formatted_address": "United States",
      "geometry": {
        "bounds": {
          "northeast": {
            "lat": 71.3867745,
            "lng": -66.9502861
          },
          "southwest": {
            "lat": 18.9106768,
            "lng": 172.4458955
          }
        },
        "location": {
          "lat": 37.09024,
          "lng": -95.712891
        },
        "location_type": "APPROXIMATE",
        "viewport": {
          "northeast": {
            "lat": 49.38,
            "lng": -66.94
          },
          "southwest": {
            "lat": 25.82,
            "lng": -124.39
          }
        }
      },
      "place_id": "ChIJCzYy5IS16lQRQrfeQ5K5Oxw",
      "types": [
        "country",
        "political"
      ]
    }
  ],
  "status": "OK"
}
