{
  "results": [
    {
      "address_components": [
        {
          "long_name": "6-40",
          "short_name": "6-40",
          "types": [
            "street_number"
          ]
        },
        {
          "long_name": "Brynmore Road",
          "short_name": "Brynmore Rd",
          "types": [
            "route"
          ]
        },
        {
          "long_name": "New Egypt",
          "short_name": "New Egypt",
          "types": [
            "neighborhood",
            "political"
          ]
        },
        {
          "long_name": "Plumsted Township",
          "short_name": "Plumsted Township",
          "types": [
            "locality",
            "political"
          ]
        },
        {
          "long_name": "Ocean County",
          "short_name": "Ocean County",
          "types": [
            "administrative_area_level_2",
            "political"
          ]
        },
        {
          "long_name": "New Jersey",
          "short_name": "NJ",
          "types": [
            "administrative_area_level_1",
            "political"
          ]
        },
        {
          "long_name": "United States",
          "short_name": "US",
          "types": [
            "country",
            "political"
          ]
        },
        {
          "long_name": "08533",
          "short_name": "08533",
          "types": [
            "postal_code"
          ]
        },
        {
          "long_name": "1623",
          "short_name": "1623",
          "types": [
            "postal_code_suffix"
          ]
        }
      ],
      "formatted_address": "6-40 Brynmore Rd, New Egypt, NJ 08533, USA",
      "geometry": {
        "bounds": {
          "northeast": {
            "lat": 40.0638139,
            "lng": -74.52397599999999
          },
          "southwest": {
            "lat": 40.062027,
            "lng": -74.53093270000001
          }
        },
        "location": {
          "lat": 40.0637371,
          "lng": -74.5285037
        },
        "location_type": "RANGE_INTERPOLATED",
        "viewport": {
          "northeast": {
            "lat": 40.0642694302915,
            "lng": -74.52397599999999
          },
          "southwest": {
            "lat": 40.0615714697085,
            "lng": -74.53093270000001
          }
        }
      },
      "place_id": "Eio2LTQwIEJyeW5tb3JlIFJkLCBOZXcgRWd5cHQsIE5KIDA4NTMzLCBVU0E",
      "types": [
        "street_address"
      ]
    },
    {
      "address_components": [
        {
          "long_name": "New Egypt",
          "short_name": "New Egypt",
          "types": [
            "neighborhood",
            "political"
          ]
        },
        {
          "long_name": "Plumsted Township",
          "short_name": "Plumsted Township",
          "types": [
            "locality",
            "political"
          ]
        },
        {
          "long_name": "Ocean County",
          "short_name": "Ocean County",
          "types": [
            "administrative_area_level_2",
            "political"
          ]
        },
        {
          "long_name": "New Jersey",
          "short_name": "NJ",
          "types": [
            "administrative_area_level_1",
            "political"
          ]
        },
        {
          "long_name": "United States",
          "short_name": "US",
          "types": [
            "country",
            "political"
          ]
        }
      ],
      "formatted_address": "New Egypt, Plumsted Township, NJ, USA",
      "geometry": {
        "bounds": {
          "northeast": {
            "lat": 40.087413,
            "lng": -74.499724
          },
          "southwest": {
            "lat": 40.0435609,
            "lng": -74.5531051
          }
        },
        "location": {
          "lat": 40.0676135,
          "lng": -74.5307093
        },
        "location_type": "APPROXIMATE",
        "viewport": {
          "northeast": {
            "lat": 40.087413,
            "lng": -74.499724
          },
          "southwest": {
            "lat": 40.0435609,
            "lng": -74.5531051
          }
        }
      },
      "place_id": "ChIJjcUaWZBowYkRsQ2x6lWRjqU",
      "types": [
        "neighborhood",
        "political"
      ]
    },
    {
      "address_components": [
        {
          "long_name": "Plumsted Township",
          "short_name": "Plumsted Township",
          "types": [
            "locality",
            "political"
          ]
        },
        {
          "long_name": "Ocean County",
          "short_name": "Ocean County",
          "types": [
            "administrative_area_level_2",
            "political"
          ]
        },
        {
          "long_name": "New Jersey",
          "short_name": "NJ",
          "types": [
            "administrative_area_level_1",
            "political"
          ]
        },
        {
          "long_name": "United States",
          "short_name": "US",
          "types": [
            "country",
            "political"
          ]
        }
      ],
      "formatted_address": "Plumsted Township, NJ, USA",
      "geometry": {
        "bounds": {
          "northeast": {
            "lat": 40.128578,
            "lng": -74.42337909999999
          },
          "southwest": {
            "lat": 39.969638,
            "lng": -74.5531051
          }
        },
        "location": {
          "lat": 40.0479478,
          "lng": -74.4760088
        },
        "location_type": "APPROXIMATE",
        "viewport": {
          "northeast": {
            "lat": 40.128578,
            "lng": -74.42337909999999
          },
          "southwest": {
            "lat": 39.969638,
            "lng": -74.5531051
          }
        }
      },
      "place_id": "ChIJHTlR-jdvwYkR-HFC_SP3Pp0",
      "types": [
        "locality",
        "political"
      ]
    },
    {
      "address_components": [
        {
          "long_name": "08533",
          "short_name": "08533",
          "types": [
            "postal_code"
          ]
        },
        {
          "long_name": "New Egypt",
          "short_name": "New Egypt",
          "types": [
            "neighborhood",
            "political"
          ]
        },
        {
          "long_name": "New Jersey",
          "short_name": "NJ",
          "types": [
            "administrative_area_level_1",
            "political"
          ]
        },
        {
          "long_name": "United States",
          "short_name": "US",
          "types": [
            "country",
            "political"
          ]
        }
      ],
      "formatted_address": "New Egypt, NJ 08533, USA",
      "geometry": {
        "bounds": {
          "northeast": {
            "lat": 40.129585,
            "lng": -74.4287829
          },
          "southwest": {
            "lat": 39.9894819,
            "lng": -74.5531051
          }
        },
        "location": {
          "lat": 40.0479478,
          "lng": -74.4760088
        },
        "location_type": "APPROXIMATE",
        "viewport": {
          "northeast": {
            "lat": 40.129585,
            "lng": -74.4287829
          },
          "southwest": {
            "lat": 39.9894819,
            "lng": -74.5531051
          }
        }
      },
      "place_id": "ChIJ0aZt4YplwYkRvBQ9yV6-5jg",
      "types": [
        "postal_code"
      ]
    },
    {
      "address_components": [
        {
          "long_name": "Ocean County",
          "short_name": "Ocean County",
          "types": [
            "administrative_area_level_2",
            "political"
          ]
        },
        {
          "long_name": "New Jersey",
          "short_name": "NJ",
          "types": [
            "administrative_area_level_1",
            "political"
          ]
        },
        {
          "long_name": "United States",
          "short_name": "US",
          "types": [
            "country",
            "political"
          ]
        }
      ],
      "formatted_address": "Ocean County, NJ, USA",
      "geometry": {
        "bounds": {
          "northeast": {
            "lat": 40.17235489999999,
            "lng": -74.0300122
          },
          "southwest": {
            "lat": 39.5071756,
            "lng": -74.5531051
          }
        },
        "location": {
          "lat": 39.9652553,
          "lng": -74.3118212
        },
        "location_type": "APPROXIMATE",
        "viewport": {
          "northeast": {
            "lat": 40.17235489999999,
            "lng": -74.0300122
          },
          "southwest": {
            "lat": 39.5071756,
            "lng": -74.5531051
          }
        }
      },
      "place_id": "ChIJh7ZJcChswYkRWgFmCdLUJYw",
      "types": [
        "administrative_area_level_2",
        "political"
      ]
    },
    {
      "address_components": [
        {
          "long_name": "New Jersey",
          "short_name": "NJ",
          "types": [
            "administrative_area_level_1",
            "political"
          ]
        },
        {
          "long_name": "United States",
          "short_name": "US",
          "types": [
            "country",
            "political"
          ]
        }
      ],
      "formatted_address": "New Jersey, USA",
      "geometry": {
        "bounds": {
          "northeast": {
            "lat": 41.357423,
            "lng": -73.9024391
          },
          "southwest": {
            "lat": 38.9285589,
            "lng": -75.5597921
          }
        },
        "location": {
          "lat": 40.0583238,
          "lng": -74.4056612
        },
        "location_type": "APPROXIMATE",
        "viewport": {
          "northeast": {
            "lat": 41.357423,
            "lng": -73.9024391
          },
          "southwest": {
            "lat": 38.9286032,
            "lng": -75.5597921
          }
        }
      },
      "place_id": "ChIJn0AAnpX7wIkRjW0_-Ad70iw",
      "types": [
        "administrative_area_level_1",
        "political"
      ]
    },
    {
      "address_components": [
        {
          "long_name": "United States",
          "short_name": "US",
          "types": [
            "country",
            "political"
          ]
        }
      ],
      "formatted_address": "United States",
      "geometry": {
        "bounds": {
          "northeast": {
            "lat": 71.3867745,
            "lng": -66.9502861
          },
          "southwest": {
            "lat": 18.9106768,
            "lng": 172.4458955
          }
        },
        "location": {
          "lat": 37.09024,
          "lng": -95.712891
        },
        "location_type": "APPROXIMATE",
        "viewport": {
          "northeast": {
            "lat": 49.38,
            "lng": -66.94
          },
          "southwest": {
            "lat": 25.82,
            "lng": -124.39
          }
        }
      },
      "place_id": "ChIJCzYy5IS16lQRQrfeQ5K5Oxw",
      "types": [
        "country",
        "political"
      ]
    }
  ],
  "status": "OK"
}
