{
  "results": [
    {
      "address_components": [
        {
          "long_name": "U.S. 212",
          "short_name": "US-212",
          "types": [
            "route"
          ]
        },
        {
          "long_name": "La Plant",
          "short_name": "La Plant",
          "types": [
            "locality",
            "political"
          ]
        },
        {
          "long_name": "South Dewey",
          "short_name": "South Dewey",
          "types": [
            "administrative_area_level_3",
            "political"
          ]
        },
        {
          "long_name": "Dewey County",
          "short_name": "Dewey County",
          "types": [
            "administrative_area_level_2",
            "political"
          ]
        },
        {
          "long_name": "South Dakota",
          "short_name": "SD",
          "types": [
            "administrative_area_level_1",
            "political"
          ]
        },
        {
          "long_name": "United States",
          "short_name": "US",
          "types": [
            "country",
            "political"
          ]
        },
        {
          "long_name": "57652",
          "short_name": "57652",
          "types": [
            "postal_code"
          ]
        }
      ],
      "formatted_address": "US-212, La Plant, SD 57652, USA",
      "geometry": {
        "bounds": {
          "northeast": {
            "lat": 45.1455656,
            "lng": -100.6650753
          },
          "southwest": {
            "lat": 45.14483449999999,
            "lng": -100.669348
          }
        },
        "location": {
          "lat": 45.1452019,
          "lng": -100.6672123
        },
        "location_type": "GEOMETRIC_CENTER",
        "viewport": {
          "northeast": {
            "lat": 45.1465490302915,
            "lng": -100.6650753
          },
          "southwest": {
            "lat": 45.1438510697085,
            "lng": -100.669348
          }
        }
      },
      "place_id": "ChIJs1-awdOc1VIRYkpbgQk5ucI",
      "types": [
        "route"
      ]
    },
    {
      "address_components": [
        {
          "long_name": "La Plant",
          "short_name": "La Plant",
          "types": [
            "locality",
            "political"
          ]
        },
        {
          "long_name": "South Dewey",
          "short_name": "South Dewey",
          "types": [
            "administrative_area_level_3",
            "political"
          ]
        },
        {
          "long_name": "Dewey County",
          "short_name": "Dewey County",
          "types": [
            "administrative_area_level_2",
            "political"
          ]
        },
        {
          "long_name": "South Dakota",
          "short_name": "SD",
          "types": [
            "administrative_area_level_1",
            "political"
          ]
        },
        {
          "long_name": "United States",
          "short_name": "US",
          "types": [
            "country",
            "political"
          ]
        }
      ],
      "formatted_address": "La Plant, SD, USA",
      "geometry": {
        "bounds": {
          "northeast": {
            "lat": 45.154948,
            "lng": -100.608418
          },
          "southwest": {
            "lat": 45.10917190000001,
            "lng": -100.733362
          }
        },
        "location": {
          "lat": 45.1447057,
          "lng": -100.6515299
        },
        "location_type": "APPROXIMATE",
        "viewport": {
          "northeast": {
            "lat": 45.154948,
            "lng": -100.608418
          },
          "southwest": {
            "lat": 45.10917190000001,
            "lng": -100.733362
          }
        }
      },
      "place_id": "ChIJh8tNWt6c1VIRvQTn-p59In0",
      "types": [
        "locality",
        "political"
      ]
    },
    {
      "address_components": [
        {
          "long_name": "57652",
          "short_name": "57652",
          "types": [
            "postal_code"
          ]
        },
        {
          "long_name": "Ridgeview",
          "short_name": "Ridgeview",
          "types": [
            "locality",
            "political"
          ]
        },
        {
          "long_name": "South Dewey",
          "short_name": "South Dewey",
          "types": [
            "administrative_area_level_3",
            "political"
          ]
        },
        {
          "long_name": "Dewey County",
          "short_name": "Dewey County",
          "types": [
            "administrative_area_level_2",
            "political"
          ]
        },
        {
          "long_name": "South Dakota",
          "short_name": "SD",
          "types": [
            "administrative_area_level_1",
            "political"
          ]
        },
        {
          "long_name": "United States",
          "short_name": "US",
          "types": [
            "country",
            "political"
          ]
        }
      ],
      "formatted_address": "Ridgeview, SD 57652, USA",
      "geometry": {
        "bounds": {
          "northeast": {
            "lat": 45.210969,
            "lng": -100.505478
          },
          "southwest": {
            "lat": 45.0214621,
            "lng": -100.8937199
          }
        },
        "location": {
          "lat": 45.0702291,
          "lng": -100.5963762
        },
        "location_type": "APPROXIMATE",
        "viewport": {
          "northeast": {
            "lat": 45.210969,
            "lng": -100.505478
          },
          "southwest": {
            "lat": 45.0214621,
            "lng": -100.8937199
          }
        }
      },
      "place_id": "ChIJj9O89Ree1VIRi6UuEGRr3bo",
      "postcode_localities": [
        "La Plant",
        "Ridgeview"
      ],
      "types": [
        "postal_code"
      ]
    },
    {
      "address_components": [
        {
          "long_name": "South Dewey",
          "short_name": "South Dewey",
          "types": [
            "administrative_area_level_3",
            "political"
          ]
        },
        {
          "long_name": "Dewey County",
          "short_name": "Dewey County",
          "types": [
            "administrative_area_level_2",
            "political"
          ]
        },
        {
          "long_name": "South Dakota",
          "short_name": "SD",
          "types": [
            "administrative_area_level_1",
            "political"
          ]
        },
        {
          "long_name": "United States",
          "short_name": "US",
          "types": [
            "country",
            "political"
          ]
        }
      ],
      "formatted_address": "South Dewey, SD, USA",
      "geometry": {
        "bounds": {
          "northeast": {
            "lat": 45.4730409,
            "lng": -100.2709636
          },
          "southwest": {
            "lat": 44.7293215,
            "lng": -101.2118951
          }
        },
        "location": {
          "lat": 45.0208517,
          "lng": -100.7199654
        },
        "location_type": "APPROXIMATE",
        "viewport": {
          "northeast": {
            "lat": 45.4730409,
            "lng": -100.2709636
          },
          "southwest": {
            "lat": 44.7293215,
            "lng": -101.2118951
          }
        }
      },
      "place_id": "ChIJhZ3t3wiC1VIR4j3bt54OWsc",
      "types": [
        "administrative_area_level_3",
        "political"
      ]
    },
    {
      "address_components": [
        {
          "long_name": "Dewey County",
          "short_name": "Dewey County",
          "types": [
            "administrative_area_level_2",
            "political"
          ]
        },
        {
          "long_name": "South Dakota",
          "short_name": "SD",
          "types": [
            "administrative_area_level_1",
            "political"
          ]
        },
        {
          "long_name": "United States",
          "short_name": "US",
          "types": [
            "country",
            "political"
          ]
        }
      ],
      "formatted_address": "Dewey County, SD, USA",
      "geometry": {
        "bounds": {
          "northeast": {
            "lat": 45.4730409,
            "lng": -100.2709636
          },
          "southwest": {
            "lat": 44.7293215,
            "lng": -101.5010729
          }
        },
        "location": {
          "lat": 45.2486497,
          "lng": -100.7110465
        },
        "location_type": "APPROXIMATE",
        "viewport": {
          "northeast": {
            "lat": 45.4730409,
            "lng": -100.2709636
          },
          "southwest": {
            "lat": 44.7293215,
            "lng": -101.5010729
          }
        }
      },
      "place_id": "ChIJ745MDUmKKlMR9TQgRklTFIQ",
      "types": [
        "administrative_area_level_2",
        "political"
      ]
    },
    {
      "address_components": [
        {
          "long_name": "South Dakota",
          "short_name": "SD",
          "types": [
            "administrative_area_level_1",
            "political"
          ]
        },
        {
          "long_name": "United States",
          "short_name": "US",
          "types": [
            "country",
            "political"
          ]
        }
      ],
      "formatted_address": "South Dakota, USA",
      "geometry": {
        "bounds": {
          "northeast": {
            "lat": 45.945713,
            "lng": -96.436589
          },
          "southwest": {
            "lat": 42.479686,
            "lng": -104.0577391
          }
        },
        "location": {
          "lat": 43.9695148,
          "lng": -99.9018131
        },
        "location_type": "APPROXIMATE",
        "viewport": {
          "northeast": {
            "lat": 45.945713,
            "lng": -96.436589
          },
          "southwest": {
            "lat": 42.479686,
            "lng": -104.0577391
          }
        }
      },
      "place_id": "ChIJpTjphS1DfYcRt6SGMSnW8Ac",
      "types": [
        "administrative_area_level_1",
        "political"
      ]
    },
    {
      "address_components": [
        {
          "long_name": "United States",
          "short_name": "US",
          "types": [
            "country",
            "political"
          ]
        }
      ],
      "formatted_address": "United States",
      "geometry": {
        "bounds": {
          "northeast": {
            "lat": 71.3867745,
            "lng": -66.9502861
          },
          "southwest": {
            "lat": 18.9106768,
            "lng": 172.4458955
          }
        },
        "location": {
          "lat": 37.09024,
          "lng": -95.712891
        },
        "location_type": "APPROXIMATE",
        "viewport": {
          "northeast": {
            "lat": 49.38,
            "lng": -66.94
          },
          "southwest": {
            "lat": 25.82,
            "lng": -124.39
          }
        }
      },
      "place_id": "ChIJCzYy5IS16lQRQrfeQ5K5Oxw",
      "types": [
        "country",
        "political"
      ]
    }
  ],
  "status": "OK"
}
