{
  "results": [
    {
      "address_components": [
        {
          "long_name": "105",
          "short_name": "105",
          "types": [
            "street_number"
          ]
        },
        {
          "long_name": "West Market Street",
          "short_name": "W Market St",
          "types": [
            "route"
          ]
        },
        {
          "long_name": "Altona",
          "short_name": "Altona",
          "types": [
            "locality",
            "political"
          ]
        },
        {
          "long_name": "Walnut Grove Township",
          "short_name": "Walnut Grove Township",
          "types": [
            "administrative_area_level_3",
            "political"
          ]
        },
        {
          "long_name": "Knox County",
          "short_name": "Knox County",
          "types": [
            "administrative_area_level_2",
            "political"
          ]
        },
        {
          "long_name": "Illinois",
          "short_name": "IL",
          "types": [
            "administrative_area_level_1",
            "political"
          ]
        },
        {
          "long_name": "United States",
          "short_name": "US",
          "types": [
            "country",
            "political"
          ]
        },
        {
          "long_name": "61414",
          "short_name": "61414",
          "types": [
            "postal_code"
          ]
        }
      ],
      "formatted_address": "105 W Market St, Altona, IL 61414, USA",
      "geometry": {
        "location": {
          "lat": 41.1155828,
          "lng": -90.1649418
        },
        "location_type": "ROOFTOP",
        "viewport": {
          "northeast": {
            "lat": 41.1169317802915,
            "lng": -90.16359281970848
          },
          "southwest": {
            "lat": 41.1142338197085,
            "lng": -90.1662907802915
          }
        }
      },
      "place_id": "ChIJ92aWOeHv4YcRPCCkPG6JVVY",
      "types": [
        "street_address"
      ]
    },
    {
      "address_components": [
        {
          "long_name": "Altona",
          "short_name": "Altona",
          "types": [
            "locality",
            "political"
          ]
        },
        {
          "long_name": "Walnut Grove Township",
          "short_name": "Walnut Grove Township",
          "types": [
            "administrative_area_level_3",
            "political"
          ]
        },
        {
          "long_name": "Knox County",
          "short_name": "Knox County",
          "types": [
            "administrative_area_level_2",
            "political"
          ]
        },
        {
          "long_name": "Illinois",
          "short_name": "IL",
          "types": [
            "administrative_area_level_1",
            "political"
          ]
        },
        {
          "long_name": "United States",
          "short_name": "US",
          "types": [
            "country",
            "political"
          ]
        },
        {
          "long_name": "61414",
          "short_name": "61414",
          "types": [
            "postal_code"
          ]
        }
      ],
      "formatted_address": "Altona, IL 61414, USA",
      "geometry": {
        "bounds": {
          "northeast": {
            "lat": 41.123183,
            "lng": -90.1545599
          },
          "southwest": {
            "lat": 41.1069929,
            "lng": -90.1739449
          }
        },
        "location": {
          "lat": 41.1147593,
          "lng": -90.1645637
        },
        "location_type": "APPROXIMATE",
        "viewport": {
          "northeast": {
            "lat": 41.123183,
            "lng": -90.1545599
          },
          "southwest": {
            "lat": 41.1069929,
            "lng": -90.1739449
          }
        }
      },
      "place_id": "ChIJiyzlSeHv4YcRkEEMj5pIiJU",
      "types": [
        "locality",
        "political"
      ]
    },
    {
      "address_components": [
        {
          "long_name": "Walnut Grove Township",
          "short_name": "Walnut Grove Township",
          "types": [
            "administrative_area_level_3",
            "political"
          ]
        },
        {
          "long_name": "Knox County",
          "short_name": "Knox County",
          "types": [
            "administrative_area_level_2",
            "political"
          ]
        },
        {
          "long_name": "Illinois",
          "short_name": "IL",
          "types": [
            "administrative_area_level_1",
            "political"
          ]
        },
        {
          "long_name": "United States",
          "short_name": "US",
          "types": [
            "country",
            "political"
          ]
        }
      ],
      "formatted_address": "Walnut Grove Township, IL, USA",
      "geometry": {
        "bounds": {
          "northeast": {
            "lat": 41.152156,
            "lng": -90.096283
          },
          "southwest": {
            "lat": 41.06250379999999,
            "lng": -90.20966
          }
        },
        "location": {
          "lat": 41.0997412,
          "lng": -90.1682271
        },
        "location_type": "APPROXIMATE",
        "viewport": {
          "northeast": {
            "lat": 41.152156,
            "lng": -90.096283
          },
          "southwest": {
            "lat": 41.06250379999999,
            "lng": -90.20966
          }
        }
      },
      "place_id": "ChIJxdXUKfHv4YcR4_L6z5D6dZE",
      "types": [
        "administrative_area_level_3",
        "political"
      ]
    },
    {
      "address_components": [
        {
          "long_name": "61414",
          "short_name": "61414",
          "types": [
            "postal_code"
          ]
        },
        {
          "long_name": "Altona",
          "short_name": "Altona",
          "types": [
            "locality",
            "political"
          ]
        },
        {
          "long_name": "Illinois",
          "short_name": "IL",
          "types": [
            "administrative_area_level_1",
            "political"
          ]
        },
        {
          "long_name": "United States",
          "short_name": "US",
          "types": [
            "country",
            "political"
          ]
        }
      ],
      "formatted_address": "Altona, IL 61414, USA",
      "geometry": {
        "bounds": {
          "northeast": {
            "lat": 41.2073701,
            "lng": -90.04210300000001
          },
          "southwest": {
            "lat": 41.0336979,
            "lng": -90.267906
          }
        },
        "location": {
          "lat": 41.1299606,
          "lng": -90.1588618
        },
        "location_type": "APPROXIMATE",
        "viewport": {
          "northeast": {
            "lat": 41.2073701,
            "lng": -90.04210300000001
          },
          "southwest": {
            "lat": 41.0336979,
            "lng": -90.267906
          }
        }
      },
      "place_id": "ChIJ2Xv92g7w4YcRL1j1UOMaGbw",
      "types": [
        "postal_code"
      ]
    },
    {
      "address_components": [
        {
          "long_name": "Knox County",
          "short_name": "Knox County",
          "types": [
            "administrative_area_level_2",
            "political"
          ]
        },
        {
          "long_name": "Illinois",
          "short_name": "IL",
          "types": [
            "administrative_area_level_1",
            "political"
          ]
        },
        {
          "long_name": "United States",
          "short_name": "US",
          "types": [
            "country",
            "political"
          ]
        }
      ],
      "formatted_address": "Knox County, IL, USA",
      "geometry": {
        "bounds": {
          "northeast": {
            "lat": 41.152156,
            "lng": -89.98452200000001
          },
          "southwest": {
            "lat": 40.712257,
            "lng": -90.4443369
          }
        },
        "location": {
          "lat": 40.8776411,
          "lng": -90.2244662
        },
        "location_type": "APPROXIMATE",
        "viewport": {
          "northeast": {
            "lat": 41.152156,
            "lng": -89.98452200000001
          },
          "southwest": {
            "lat": 40.712257,
            "lng": -90.4443369
          }
        }
      },
      "place_id": "ChIJ5YJ-ge_B4YcRxmumfFzTKXo",
      "types": [
        "administrative_area_level_2",
        "political"
      ]
    },
    {
      "address_components": [
        {
          "long_name": "Galesburg",
          "short_name": "Galesburg",
          "types": [
            "political"
          ]
        },
        {
          "long_name": "Illinois",
          "short_name": "IL",
          "types": [
            "administrative_area_level_1",
            "political"
          ]
        },
        {
          "long_name": "United States",
          "short_name": "US",
          "types": [
            "country",
            "political"
          ]
        }
      ],
      "formatted_address": "Galesburg, IL, USA",
      "geometry": {
        "bounds": {
          "northeast": {
            "lat": 41.152156,
            "lng": -89.984551
          },
          "southwest": {
            "lat": 40.627843,
            "lng": -90.78957899999999
          }
        },
        "location": {
          "lat": 40.8772519,
          "lng": -90.37483540000001
        },
        "location_type": "APPROXIMATE",
        "viewport": {
          "northeast": {
            "lat": 41.152156,
            "lng": -89.984551
          },
          "southwest": {
            "lat": 40.627843,
            "lng": -90.78957899999999
          }
        }
      },
      "place_id": "ChIJ-8A2the84YcRGYAPdwT_Sy8",
      "types": [
        "political"
      ]
    },
    {
      "address_components": [
        {
          "long_name": "Illinois",
          "short_name": "IL",
          "types": [
            "administrative_area_level_1",
            "political"
          ]
        },
        {
          "long_name": "United States",
          "short_name": "US",
          "types": [
            "country",
            "political"
          ]
        }
      ],
      "formatted_address": "Illinois, USA",
      "geometry": {
        "bounds": {
          "northeast": {
            "lat": 42.5083379,
            "lng": -87.4951991
          },
          "southwest": {
            "lat": 36.970298,
            "lng": -91.5130789
          }
        },
        "location": {
          "lat": 40.6331249,
          "lng": -89.3985283
        },
        "location_type": "APPROXIMATE",
        "viewport": {
          "northeast": {
            "lat": 42.5083379,
            "lng": -87.4951991
          },
          "southwest": {
            "lat": 36.970298,
            "lng": -91.5130789
          }
        }
      },
      "place_id": "ChIJGSZubzgtC4gRVlkRZFCCFX8",
      "types": [
        "administrative_area_level_1",
        "political"
      ]
    },
    {
      "address_components": [
        {
          "long_name": "United States",
          "short_name": "US",
          "types": [
            "country",
            "political"
          ]
        }
      ],
      "formatted_address": "United States",
      "geometry": {
        "bounds": {
          "northeast": {
            "lat": 71.3867745,
            "lng": -66.9502861
          },
          "southwest": {
            "lat": 18.9106768,
            "lng": 172.4458955
          }
        },
        "location": {
          "lat": 37.09024,
          "lng": -95.712891
        },
        "location_type": "APPROXIMATE",
        "viewport": {
          "northeast": {
            "lat": 49.38,
            "lng": -66.94
          },
          "southwest": {
            "lat": 25.82,
            "lng": -124.39
          }
        }
      },
      "place_id": "ChIJCzYy5IS16lQRQrfeQ5K5Oxw",
      "types": [
        "country",
        "political"
      ]
    }
  ],
  "status": "OK"
}
