{
  "results": [
    {
      "address_components": [
        {
          "long_name": "99",
          "short_name": "99",
          "types": [
            "street_number"
          ]
        },
        {
          "long_name": "Davis Road",
          "short_name": "Davis Rd",
          "types": [
            "route"
          ]
        },
        {
          "long_name": "Northwest Harwinton",
          "short_name": "Northwest Harwinton",
          "types": [
            "neighborhood",
            "political"
          ]
        },
        {
          "long_name": "Harwinton",
          "short_name": "Harwinton",
          "types": [
            "locality",
            "political"
          ]
        },
        {
          "long_name": "Litchfield County",
          "short_name": "Litchfield County",
          "types": [
            "administrative_area_level_2",
            "political"
          ]
        },
        {
          "long_name": "Connecticut",
          "short_name": "CT",
          "types": [
            "administrative_area_level_1",
            "political"
          ]
        },
        {
          "long_name": "United States",
          "short_name": "US",
          "types": [
            "country",
            "political"
          ]
        },
        {
          "long_name": "06791",
          "short_name": "06791",
          "types": [
            "postal_code"
          ]
        }
      ],
      "formatted_address": "99 Davis Rd, Harwinton, CT 06791, USA",
      "geometry": {
        "location": {
          "lat": 41.7756859,
          "lng": -73.0785868
        },
        "location_type": "ROOFTOP",
        "viewport": {
          "northeast": {
            "lat": 41.7770348802915,
            "lng": -73.07723781970849
          },
          "southwest": {
            "lat": 41.7743369197085,
            "lng": -73.0799357802915
          }
        }
      },
      "place_id": "ChIJTfAQhqKi54kRWW_mloz9dQw",
      "types": [
        "street_address"
      ]
    },
    {
      "address_components": [
        {
          "long_name": "Northwest Harwinton",
          "short_name": "Northwest Harwinton",
          "types": [
            "neighborhood",
            "political"
          ]
        },
        {
          "long_name": "Harwinton",
          "short_name": "Harwinton",
          "types": [
            "locality",
            "political"
          ]
        },
        {
          "long_name": "Litchfield County",
          "short_name": "Litchfield County",
          "types": [
            "administrative_area_level_2",
            "political"
          ]
        },
        {
          "long_name": "Connecticut",
          "short_name": "CT",
          "types": [
            "administrative_area_level_1",
            "political"
          ]
        },
        {
          "long_name": "United States",
          "short_name": "US",
          "types": [
            "country",
            "political"
          ]
        }
      ],
      "formatted_address": "Northwest Harwinton, Harwinton, CT, USA",
      "geometry": {
        "bounds": {
          "northeast": {
            "lat": 41.7985259,
            "lng": -73.04446109999999
          },
          "southwest": {
            "lat": 41.7532409,
            "lng": -73.12019599999999
          }
        },
        "location": {
          "lat": 41.7855199,
          "lng": -73.0759446
        },
        "location_type": "APPROXIMATE",
        "viewport": {
          "northeast": {
            "lat": 41.7985259,
            "lng": -73.04446109999999
          },
          "southwest": {
            "lat": 41.7532409,
            "lng": -73.12019599999999
          }
        }
      },
      "place_id": "ChIJX31m8aGi54kRWDuDwERP93g",
      "types": [
        "neighborhood",
        "political"
      ]
    },
    {
      "address_components": [
        {
          "long_name": "Harwinton",
          "short_name": "Harwinton",
          "types": [
            "locality",
            "political"
          ]
        },
        {
          "long_name": "Litchfield County",
          "short_name": "Litchfield County",
          "types": [
            "administrative_area_level_2",
            "political"
          ]
        },
        {
          "long_name": "Connecticut",
          "short_name": "CT",
          "types": [
            "administrative_area_level_1",
            "political"
          ]
        },
        {
          "long_name": "United States",
          "short_name": "US",
          "types": [
            "country",
            "political"
          ]
        }
      ],
      "formatted_address": "Harwinton, CT, USA",
      "geometry": {
        "bounds": {
          "northeast": {
            "lat": 41.7985259,
            "lng": -72.99894979999999
          },
          "southwest": {
            "lat": 41.707153,
            "lng": -73.12019599999999
          }
        },
        "location": {
          "lat": 41.7712762,
          "lng": -73.0598438
        },
        "location_type": "APPROXIMATE",
        "viewport": {
          "northeast": {
            "lat": 41.7985259,
            "lng": -72.99894979999999
          },
          "southwest": {
            "lat": 41.707153,
            "lng": -73.12019599999999
          }
        }
      },
      "place_id": "ChIJZaYJXxO954kRUORm7UaR8SE",
      "types": [
        "locality",
        "political"
      ]
    },
    {
      "address_components": [
        {
          "long_name": "06791",
          "short_name": "06791",
          "types": [
            "postal_code"
          ]
        },
        {
          "long_name": "Harwinton",
          "short_name": "Harwinton",
          "types": [
            "locality",
            "political"
          ]
        },
        {
          "long_name": "Connecticut",
          "short_name": "CT",
          "types": [
            "administrative_area_level_1",
            "political"
          ]
        },
        {
          "long_name": "United States",
          "short_name": "US",
          "types": [
            "country",
            "political"
          ]
        }
      ],
      "formatted_address": "Harwinton, CT 06791, USA",
      "geometry": {
        "bounds": {
          "northeast": {
            "lat": 41.7995601,
            "lng": -72.99894979999999
          },
          "southwest": {
            "lat": 41.702728,
            "lng": -73.1220551
          }
        },
        "location": {
          "lat": 41.7740614,
          "lng": -73.06413959999999
        },
        "location_type": "APPROXIMATE",
        "viewport": {
          "northeast": {
            "lat": 41.7995601,
            "lng": -72.99894979999999
          },
          "southwest": {
            "lat": 41.702728,
            "lng": -73.1220551
          }
        }
      },
      "place_id": "ChIJ2bYrVsui54kRAb8Jl6BjXzQ",
      "postcode_localities": [
        "Harwinton",
        "Torrington"
      ],
      "types": [
        "postal_code"
      ]
    },
    {
      "address_components": [
        {
          "long_name": "Litchfield County",
          "short_name": "Litchfield County",
          "types": [
            "administrative_area_level_2",
            "political"
          ]
        },
        {
          "long_name": "Connecticut",
          "short_name": "CT",
          "types": [
            "administrative_area_level_1",
            "political"
          ]
        },
        {
          "long_name": "United States",
          "short_name": "US",
          "types": [
            "country",
            "political"
          ]
        }
      ],
      "formatted_address": "Litchfield County, CT, USA",
      "geometry": {
        "bounds": {
          "northeast": {
            "lat": 42.050587,
            "lng": -72.8870598
          },
          "southwest": {
            "lat": 41.4678914,
            "lng": -73.51806499999999
          }
        },
        "location": {
          "lat": 41.7866294,
          "lng": -73.2765361
        },
        "location_type": "APPROXIMATE",
        "viewport": {
          "northeast": {
            "lat": 42.050587,
            "lng": -72.8870598
          },
          "southwest": {
            "lat": 41.4678914,
            "lng": -73.51806499999999
          }
        }
      },
      "place_id": "ChIJvYe7N7eQ54kRL6nZaXRwPkI",
      "types": [
        "administrative_area_level_2",
        "political"
      ]
    },
    {
      "address_components": [
        {
          "long_name": "Torrington",
          "short_name": "Torrington",
          "types": [
            "political"
          ]
        },
        {
          "long_name": "United States",
          "short_name": "US",
          "types": [
            "country",
            "political"
          ]
        }
      ],
      "formatted_address": "Torrington, USA",
      "geometry": {
        "bounds": {
          "northeast": {
            "lat": 42.050587,
            "lng": -72.88706
          },
          "southwest": {
            "lat": 41.4674151,
            "lng": -73.5182268
          }
        },
        "location": {
          "lat": 41.7866294,
          "lng": -73.2765361
        },
        "location_type": "APPROXIMATE",
        "viewport": {
          "northeast": {
            "lat": 42.050587,
            "lng": -72.88706
          },
          "southwest": {
            "lat": 41.4674151,
            "lng": -73.5182268
          }
        }
      },
      "place_id": "ChIJX8UsmJCa54kRqJju4VTkJYQ",
      "types": [
        "political"
      ]
    },
    {
      "address_components": [
        {
          "long_name": "Connecticut",
          "short_name": "CT",
          "types": [
            "administrative_area_level_1",
            "political"
          ]
        },
        {
          "long_name": "United States",
          "short_name": "US",
          "types": [
            "country",
            "political"
          ]
        }
      ],
      "formatted_address": "Connecticut, USA",
      "geometry": {
        "bounds": {
          "northeast": {
            "lat": 42.050587,
            "lng": -71.787239
          },
          "southwest": {
            "lat": 40.9869801,
            "lng": -73.727775
          }
        },
        "location": {
          "lat": 41.6032207,
          "lng": -73.087749
        },
        "location_type": "APPROXIMATE",
        "viewport": {
          "northeast": {
            "lat": 42.050587,
            "lng": -71.787239
          },
          "southwest": {
            "lat": 40.9869801,
            "lng": -73.727775
          }
        }
      },
      "place_id": "ChIJpVER8hFT5okR5XBhBVttmq4",
      "types": [
        "administrative_area_level_1",
        "political"
      ]
    },
    {
      "address_components": [
        {
          "long_name": "United States",
          "short_name": "US",
          "types": [
            "country",
            "political"
          ]
        }
      ],
      "formatted_address": "United States",
      "geometry": {
        "bounds": {
          "northeast": {
            "lat": 71.3867745,
            "lng": -66.9502861
          },
          "southwest": {
            "lat": 18.9106768,
            "lng": 172.4458955
          }
        },
        "location": {
          "lat": 37.09024,
          "lng": -95.712891
        },
        "location_type": "APPROXIMATE",
        "viewport": {
          "northeast": {
            "lat": 49.38,
            "lng": -66.94
          },
          "southwest": {
            "lat": 25.82,
            "lng": -124.39
          }
        }
      },
      "place_id": "ChIJCzYy5IS16lQRQrfeQ5K5Oxw",
      "types": [
        "country",
        "political"
      ]
    }
  ],
  "status": "OK"
}
