{
  "results": [
    {
      "address_components": [
        {
          "long_name": "7N330",
          "short_name": "7N330",
          "types": [
            "street_number"
          ]
        },
        {
          "long_name": "South Illinois Route 59",
          "short_name": "IL-59",
          "types": [
            "route"
          ]
        },
        {
          "long_name": "Bartlett",
          "short_name": "Bartlett",
          "types": [
            "locality",
            "political"
          ]
        },
        {
          "long_name": "Wayne Township",
          "short_name": "Wayne Township",
          "types": [
            "administrative_area_level_3",
            "political"
          ]
        },
        {
          "long_name": "DuPage County",
          "short_name": "Dupage County",
          "types": [
            "administrative_area_level_2",
            "political"
          ]
        },
        {
          "long_name": "Illinois",
          "short_name": "IL",
          "types": [
            "administrative_area_level_1",
            "political"
          ]
        },
        {
          "long_name": "United States",
          "short_name": "US",
          "types": [
            "country",
            "political"
          ]
        },
        {
          "long_name": "60103",
          "short_name": "60103",
          "types": [
            "postal_code"
          ]
        }
      ],
      "formatted_address": "7N330 S Illinois Rte 59, Bartlett, IL 60103, USA",
      "geometry": {
        "location": {
          "lat": 41.9792009,
          "lng": -88.2079043
        },
        "location_type": "ROOFTOP",
        "viewport": {
          "northeast": {
            "lat": 41.98054988029149,
            "lng": -88.20655531970849
          },
          "southwest": {
            "lat": 41.9778519197085,
            "lng": -88.2092532802915
          }
        }
      },
      "place_id": "ChIJtXrU4CkBD4gRKNEiUghDEZ8",
      "types": [
        "street_address"
      ]
    },
    {
      "address_components": [
        {
          "long_name": "60103",
          "short_name": "60103",
          "types": [
            "postal_code"
          ]
        },
        {
          "long_name": "Bartlett",
          "short_name": "Bartlett",
          "types": [
            "locality",
            "political"
          ]
        },
        {
          "long_name": "Illinois",
          "short_name": "IL",
          "types": [
            "administrative_area_level_1",
            "political"
          ]
        },
        {
          "long_name": "United States",
          "short_name": "US",
          "types": [
            "country",
            "political"
          ]
        }
      ],
      "formatted_address": "Bartlett, IL 60103, USA",
      "geometry": {
        "bounds": {
          "northeast": {
            "lat": 42.0150899,
            "lng": -88.150149
          },
          "southwest": {
            "lat": 41.933333,
            "lng": -88.2690949
          }
        },
        "location": {
          "lat": 41.9752644,
          "lng": -88.21690269999999
        },
        "location_type": "APPROXIMATE",
        "viewport": {
          "northeast": {
            "lat": 42.0150899,
            "lng": -88.150149
          },
          "southwest": {
            "lat": 41.933333,
            "lng": -88.2690949
          }
        }
      },
      "place_id": "ChIJH_2glbAAD4gRMF9yFT4OZKo",
      "types": [
        "postal_code"
      ]
    },
    {
      "address_components": [
        {
          "long_name": "Wayne Township",
          "short_name": "Wayne Township",
          "types": [
            "administrative_area_level_3",
            "political"
          ]
        },
        {
          "long_name": "DuPage County",
          "short_name": "Dupage County",
          "types": [
            "administrative_area_level_2",
            "political"
          ]
        },
        {
          "long_name": "Illinois",
          "short_name": "IL",
          "types": [
            "administrative_area_level_1",
            "political"
          ]
        },
        {
          "long_name": "United States",
          "short_name": "US",
          "types": [
            "country",
            "political"
          ]
        }
      ],
      "formatted_address": "Wayne Township, IL, USA",
      "geometry": {
        "bounds": {
          "northeast": {
            "lat": 41.9882439,
            "lng": -88.144747
          },
          "southwest": {
            "lat": 41.89923590000001,
            "lng": -88.26317809999999
          }
        },
        "location": {
          "lat": 41.9453761,
          "lng": -88.2071598
        },
        "location_type": "APPROXIMATE",
        "viewport": {
          "northeast": {
            "lat": 41.9882439,
            "lng": -88.144747
          },
          "southwest": {
            "lat": 41.89923590000001,
            "lng": -88.26317809999999
          }
        }
      },
      "place_id": "ChIJb5GxCKsBD4gR0yAGUWxUr6o",
      "types": [
        "administrative_area_level_3",
        "political"
      ]
    },
    {
      "address_components": [
        {
          "long_name": "DuPage County",
          "short_name": "Dupage County",
          "types": [
            "administrative_area_level_2",
            "political"
          ]
        },
        {
          "long_name": "Illinois",
          "short_name": "IL",
          "types": [
            "administrative_area_level_1",
            "political"
          ]
        },
        {
          "long_name": "United States",
          "short_name": "US",
          "types": [
            "country",
            "political"
          ]
        }
      ],
      "formatted_address": "Dupage County, IL, USA",
      "geometry": {
        "bounds": {
          "northeast": {
            "lat": 41.994029,
            "lng": -87.91425690000001
          },
          "southwest": {
            "lat": 41.68533,
            "lng": -88.26317809999999
          }
        },
        "location": {
          "lat": 41.8243831,
          "lng": -88.0900762
        },
        "location_type": "APPROXIMATE",
        "viewport": {
          "northeast": {
            "lat": 41.994029,
            "lng": -87.91425690000001
          },
          "southwest": {
            "lat": 41.68533,
            "lng": -88.26317809999999
          }
        }
      },
      "place_id": "ChIJa_8YHt6oD4gRaux4XvaID0k",
      "types": [
        "administrative_area_level_2",
        "political"
      ]
    },
    {
      "address_components": [
        {
          "long_name": "Chicago Metropolitan Area",
          "short_name": "Chicago Metropolitan Area",
          "types": [
            "political"
          ]
        },
        {
          "long_name": "United States",
          "short_name": "US",
          "types": [
            "country",
            "political"
          ]
        }
      ],
      "formatted_address": "Chicago Metropolitan Area, USA",
      "geometry": {
        "bounds": {
          "northeast": {
            "lat": 42.670123,
            "lng": -86.92925699999999
          },
          "southwest": {
            "lat": 40.7364641,
            "lng": -88.942292
          }
        },
        "location": {
          "lat": 41.7435073,
          "lng": -88.0118473
        },
        "location_type": "APPROXIMATE",
        "viewport": {
          "northeast": {
            "lat": 42.670123,
            "lng": -86.92925699999999
          },
          "southwest": {
            "lat": 40.7364641,
            "lng": -88.942292
          }
        }
      },
      "place_id": "ChIJg-CZjExEDogRNJNXmgqEe9o",
      "types": [
        "political"
      ]
    },
    {
      "address_components": [
        {
          "long_name": "Illinois",
          "short_name": "IL",
          "types": [
            "administrative_area_level_1",
            "political"
          ]
        },
        {
          "long_name": "United States",
          "short_name": "US",
          "types": [
            "country",
            "political"
          ]
        }
      ],
      "formatted_address": "Illinois, USA",
      "geometry": {
        "bounds": {
          "northeast": {
            "lat": 42.5083379,
            "lng": -87.4951991
          },
          "southwest": {
            "lat": 36.970298,
            "lng": -91.5130789
          }
        },
        "location": {
          "lat": 40.6331249,
          "lng": -89.3985283
        },
        "location_type": "APPROXIMATE",
        "viewport": {
          "northeast": {
            "lat": 42.5083379,
            "lng": -87.4951991
          },
          "southwest": {
            "lat": 36.970298,
            "lng": -91.5130789
          }
        }
      },
      "place_id": "ChIJGSZubzgtC4gRVlkRZFCCFX8",
      "types": [
        "administrative_area_level_1",
        "political"
      ]
    },
    {
      "address_components": [
        {
          "long_name": "United States",
          "short_name": "US",
          "types": [
            "country",
            "political"
          ]
        }
      ],
      "formatted_address": "United States",
      "geometry": {
        "bounds": {
          "northeast": {
            "lat": 71.3867745,
            "lng": -66.9502861
          },
          "southwest": {
            "lat": 18.9106768,
            "lng": 172.4458955
          }
        },
        "location": {
          "lat": 37.09024,
          "lng": -95.712891
        },
        "location_type": "APPROXIMATE",
        "viewport": {
          "northeast": {
            "lat": 49.38,
            "lng": -66.94
          },
          "southwest": {
            "lat": 25.82,
            "lng": -124.39
          }
        }
      },
      "place_id": "ChIJCzYy5IS16lQRQrfeQ5K5Oxw",
      "types": [
        "country",
        "political"
      ]
    }
  ],
  "status": "OK"
}
