{
  "results": [
    {
      "address_components": [
        {
          "long_name": "Jackson Street",
          "short_name": "Jackson St",
          "types": [
            "route"
          ]
        },
        {
          "long_name": "Humbird",
          "short_name": "Humbird",
          "types": [
            "locality",
            "political"
          ]
        },
        {
          "long_name": "Mentor",
          "short_name": "Mentor",
          "types": [
            "administrative_area_level_3",
            "political"
          ]
        },
        {
          "long_name": "Clark County",
          "short_name": "Clark County",
          "types": [
            "administrative_area_level_2",
            "political"
          ]
        },
        {
          "long_name": "Wisconsin",
          "short_name": "WI",
          "types": [
            "administrative_area_level_1",
            "political"
          ]
        },
        {
          "long_name": "United States",
          "short_name": "US",
          "types": [
            "country",
            "political"
          ]
        },
        {
          "long_name": "54746",
          "short_name": "54746",
          "types": [
            "postal_code"
          ]
        }
      ],
      "formatted_address": "Jackson St, Humbird, WI 54746, USA",
      "geometry": {
        "bounds": {
          "northeast": {
            "lat": 44.5302549,
            "lng": -90.887276
          },
          "southwest": {
            "lat": 44.5281094,
            "lng": -90.8873019
          }
        },
        "location": {
          "lat": 44.5291821,
          "lng": -90.88728599999999
        },
        "location_type": "GEOMETRIC_CENTER",
        "viewport": {
          "northeast": {
            "lat": 44.53053113029149,
            "lng": -90.8859399697085
          },
          "southwest": {
            "lat": 44.5278331697085,
            "lng": -90.88863793029151
          }
        }
      },
      "place_id": "ChIJVdtHaBUY_4cRsXWt2Yi8bKU",
      "types": [
        "route"
      ]
    },
    {
      "address_components": [
        {
          "long_name": "Humbird",
          "short_name": "Humbird",
          "types": [
            "locality",
            "political"
          ]
        },
        {
          "long_name": "Mentor",
          "short_name": "Mentor",
          "types": [
            "administrative_area_level_3",
            "political"
          ]
        },
        {
          "long_name": "Clark County",
          "short_name": "Clark County",
          "types": [
            "administrative_area_level_2",
            "political"
          ]
        },
        {
          "long_name": "Wisconsin",
          "short_name": "WI",
          "types": [
            "administrative_area_level_1",
            "political"
          ]
        },
        {
          "long_name": "United States",
          "short_name": "US",
          "types": [
            "country",
            "political"
          ]
        },
        {
          "long_name": "54746",
          "short_name": "54746",
          "types": [
            "postal_code"
          ]
        }
      ],
      "formatted_address": "Humbird, WI 54746, USA",
      "geometry": {
        "bounds": {
          "northeast": {
            "lat": 44.534101,
            "lng": -90.88248410000001
          },
          "southwest": {
            "lat": 44.5251147,
            "lng": -90.89773249999999
          }
        },
        "location": {
          "lat": 44.5300498,
          "lng": -90.88982759999999
        },
        "location_type": "APPROXIMATE",
        "viewport": {
          "northeast": {
            "lat": 44.534101,
            "lng": -90.88248410000001
          },
          "southwest": {
            "lat": 44.5251147,
            "lng": -90.89773249999999
          }
        }
      },
      "place_id": "ChIJ171G7RQY_4cRsrMdulR7I3w",
      "types": [
        "locality",
        "political"
      ]
    },
    {
      "address_components": [
        {
          "long_name": "Mentor",
          "short_name": "Mentor",
          "types": [
            "administrative_area_level_3",
            "political"
          ]
        },
        {
          "long_name": "Clark County",
          "short_name": "Clark County",
          "types": [
            "administrative_area_level_2",
            "political"
          ]
        },
        {
          "long_name": "Wisconsin",
          "short_name": "WI",
          "types": [
            "administrative_area_level_1",
            "political"
          ]
        },
        {
          "long_name": "United States",
          "short_name": "US",
          "types": [
            "country",
            "political"
          ]
        }
      ],
      "formatted_address": "Mentor, WI, USA",
      "geometry": {
        "bounds": {
          "northeast": {
            "lat": 44.596293,
            "lng": -90.800691
          },
          "southwest": {
            "lat": 44.50957289999999,
            "lng": -90.92310409999999
          }
        },
        "location": {
          "lat": 44.5658817,
          "lng": -90.8484524
        },
        "location_type": "APPROXIMATE",
        "viewport": {
          "northeast": {
            "lat": 44.596293,
            "lng": -90.800691
          },
          "southwest": {
            "lat": 44.50957289999999,
            "lng": -90.92310409999999
          }
        }
      },
      "place_id": "ChIJ8eJi9nsX_4cRX-johcFxOdQ",
      "types": [
        "administrative_area_level_3",
        "political"
      ]
    },
    {
      "address_components": [
        {
          "long_name": "54746",
          "short_name": "54746",
          "types": [
            "postal_code"
          ]
        },
        {
          "long_name": "Humbird",
          "short_name": "Humbird",
          "types": [
            "locality",
            "political"
          ]
        },
        {
          "long_name": "Wisconsin",
          "short_name": "WI",
          "types": [
            "administrative_area_level_1",
            "political"
          ]
        },
        {
          "long_name": "United States",
          "short_name": "US",
          "types": [
            "country",
            "political"
          ]
        }
      ],
      "formatted_address": "Humbird, WI 54746, USA",
      "geometry": {
        "bounds": {
          "northeast": {
            "lat": 44.66448,
            "lng": -90.781503
          },
          "southwest": {
            "lat": 44.487545,
            "lng": -90.963555
          }
        },
        "location": {
          "lat": 44.5845604,
          "lng": -90.86751339999999
        },
        "location_type": "APPROXIMATE",
        "viewport": {
          "northeast": {
            "lat": 44.66448,
            "lng": -90.781503
          },
          "southwest": {
            "lat": 44.487545,
            "lng": -90.963555
          }
        }
      },
      "place_id": "ChIJ5RBDB4cX_4cRRCSn18Fy9ME",
      "types": [
        "postal_code"
      ]
    },
    {
      "address_components": [
        {
          "long_name": "Clark County",
          "short_name": "Clark County",
          "types": [
            "administrative_area_level_2",
            "political"
          ]
        },
        {
          "long_name": "Wisconsin",
          "short_name": "WI",
          "types": [
            "administrative_area_level_1",
            "political"
          ]
        },
        {
          "long_name": "United States",
          "short_name": "US",
          "types": [
            "country",
            "political"
          ]
        }
      ],
      "formatted_address": "Clark County, WI, USA",
      "geometry": {
        "bounds": {
          "northeast": {
            "lat": 45.0338289,
            "lng": -90.3150139
          },
          "southwest": {
            "lat": 44.421929,
            "lng": -90.92339489999999
          }
        },
        "location": {
          "lat": 44.8480735,
          "lng": -90.7532809
        },
        "location_type": "APPROXIMATE",
        "viewport": {
          "northeast": {
            "lat": 45.0338289,
            "lng": -90.3150139
          },
          "southwest": {
            "lat": 44.421929,
            "lng": -90.92339489999999
          }
        }
      },
      "place_id": "ChIJ0TCsCnsV_4cRd0ZoiHpjJ3o",
      "types": [
        "administrative_area_level_2",
        "political"
      ]
    },
    {
      "address_components": [
        {
          "long_name": "Wisconsin",
          "short_name": "WI",
          "types": [
            "administrative_area_level_1",
            "political"
          ]
        },
        {
          "long_name": "United States",
          "short_name": "US",
          "types": [
            "country",
            "political"
          ]
        }
      ],
      "formatted_address": "Wisconsin, USA",
      "geometry": {
        "bounds": {
          "northeast": {
            "lat": 47.0807296,
            "lng": -86.7639767
          },
          "southwest": {
            "lat": 42.491864,
            "lng": -92.88943309999999
          }
        },
        "location": {
          "lat": 43.7844397,
          "lng": -88.7878678
        },
        "location_type": "APPROXIMATE",
        "viewport": {
          "northeast": {
            "lat": 47.0807296,
            "lng": -86.7639767
          },
          "southwest": {
            "lat": 42.491864,
            "lng": -92.88943309999999
          }
        }
      },
      "place_id": "ChIJr-OEkw_0qFIR1kmG-LjV1fI",
      "types": [
        "administrative_area_level_1",
        "political"
      ]
    },
    {
      "address_components": [
        {
          "long_name": "United States",
          "short_name": "US",
          "types": [
            "country",
            "political"
          ]
        }
      ],
      "formatted_address": "United States",
      "geometry": {
        "bounds": {
          "northeast": {
            "lat": 71.3867745,
            "lng": -66.9502861
          },
          "southwest": {
            "lat": 18.9106768,
            "lng": 172.4458955
          }
        },
        "location": {
          "lat": 37.09024,
          "lng": -95.712891
        },
        "location_type": "APPROXIMATE",
        "viewport": {
          "northeast": {
            "lat": 49.38,
            "lng": -66.94
          },
          "southwest": {
            "lat": 25.82,
            "lng": -124.39
          }
        }
      },
      "place_id": "ChIJCzYy5IS16lQRQrfeQ5K5Oxw",
      "types": [
        "country",
        "political"
      ]
    }
  ],
  "status": "OK"
}
