{
  "results": [
    {
      "address_components": [
        {
          "long_name": "141",
          "short_name": "141",
          "types": [
            "street_number"
          ]
        },
        {
          "long_name": "Main Street",
          "short_name": "State Rte 3010",
          "types": [
            "route"
          ]
        },
        {
          "long_name": "New Freeport",
          "short_name": "New Freeport",
          "types": [
            "locality",
            "political"
          ]
        },
        {
          "long_name": "Freeport Township",
          "short_name": "Freeport Township",
          "types": [
            "administrative_area_level_3",
            "political"
          ]
        },
        {
          "long_name": "Greene County",
          "short_name": "Greene County",
          "types": [
            "administrative_area_level_2",
            "political"
          ]
        },
        {
          "long_name": "Pennsylvania",
          "short_name": "PA",
          "types": [
            "administrative_area_level_1",
            "political"
          ]
        },
        {
          "long_name": "United States",
          "short_name": "US",
          "types": [
            "country",
            "political"
          ]
        },
        {
          "long_name": "15352",
          "short_name": "15352",
          "types": [
            "postal_code"
          ]
        }
      ],
      "formatted_address": "141 State Rte 3010, New Freeport, PA 15352, USA",
      "geometry": {
        "bounds": {
          "northeast": {
            "lat": 39.760335,
            "lng": -80.4276198
          },
          "southwest": {
            "lat": 39.7597069,
            "lng": -80.4296849
          }
        },
        "location": {
          "lat": 39.7597141,
          "lng": -80.4276922
        },
        "location_type": "RANGE_INTERPOLATED",
        "viewport": {
          "northeast": {
            "lat": 39.76136993029149,
            "lng": -80.4273033697085
          },
          "southwest": {
            "lat": 39.75867196970849,
            "lng": -80.4300013302915
          }
        }
      },
      "place_id": "EigxNDEgTWFpbiBTdCwgTmV3IEZyZWVwb3J0LCBQQSAxNTM1MiwgVVNB",
      "types": [
        "street_address"
      ]
    },
    {
      "address_components": [
        {
          "long_name": "Freeport Township",
          "short_name": "Freeport Township",
          "types": [
            "administrative_area_level_3",
            "political"
          ]
        },
        {
          "long_name": "Greene County",
          "short_name": "Greene County",
          "types": [
            "administrative_area_level_2",
            "political"
          ]
        },
        {
          "long_name": "Pennsylvania",
          "short_name": "PA",
          "types": [
            "administrative_area_level_1",
            "political"
          ]
        },
        {
          "long_name": "United States",
          "short_name": "US",
          "types": [
            "country",
            "political"
          ]
        }
      ],
      "formatted_address": "Freeport Township, PA, USA",
      "geometry": {
        "bounds": {
          "northeast": {
            "lat": 39.7889709,
            "lng": -80.393176
          },
          "southwest": {
            "lat": 39.72117,
            "lng": -80.45238289999999
          }
        },
        "location": {
          "lat": 39.7391008,
          "lng": -80.42152460000001
        },
        "location_type": "APPROXIMATE",
        "viewport": {
          "northeast": {
            "lat": 39.7889709,
            "lng": -80.393176
          },
          "southwest": {
            "lat": 39.72117,
            "lng": -80.45238289999999
          }
        }
      },
      "place_id": "ChIJ-7xqw5ySNYgR7jtG6BJ7VjY",
      "types": [
        "administrative_area_level_3",
        "political"
      ]
    },
    {
      "address_components": [
        {
          "long_name": "15352",
          "short_name": "15352",
          "types": [
            "postal_code"
          ]
        },
        {
          "long_name": "New Freeport",
          "short_name": "New Freeport",
          "types": [
            "locality",
            "political"
          ]
        },
        {
          "long_name": "Pennsylvania",
          "short_name": "PA",
          "types": [
            "administrative_area_level_1",
            "political"
          ]
        },
        {
          "long_name": "United States",
          "short_name": "US",
          "types": [
            "country",
            "political"
          ]
        }
      ],
      "formatted_address": "New Freeport, PA 15352, USA",
      "geometry": {
        "bounds": {
          "northeast": {
            "lat": 39.8368979,
            "lng": -80.2601759
          },
          "southwest": {
            "lat": 39.721074,
            "lng": -80.5194949
          }
        },
        "location": {
          "lat": 39.7558244,
          "lng": -80.3769999
        },
        "location_type": "APPROXIMATE",
        "viewport": {
          "northeast": {
            "lat": 39.8368979,
            "lng": -80.2601759
          },
          "southwest": {
            "lat": 39.721074,
            "lng": -80.5194949
          }
        }
      },
      "place_id": "ChIJe4dKsHmSNYgRfAHwvLZdy7U",
      "postcode_localities": [
        "New Freeport",
        "Pine Bank"
      ],
      "types": [
        "postal_code"
      ]
    },
    {
      "address_components": [
        {
          "long_name": "Greene County",
          "short_name": "Greene County",
          "types": [
            "administrative_area_level_2",
            "political"
          ]
        },
        {
          "long_name": "Pennsylvania",
          "short_name": "PA",
          "types": [
            "administrative_area_level_1",
            "political"
          ]
        },
        {
          "long_name": "United States",
          "short_name": "US",
          "types": [
            "country",
            "political"
          ]
        }
      ],
      "formatted_address": "Greene County, PA, USA",
      "geometry": {
        "bounds": {
          "northeast": {
            "lat": 40.02059089999999,
            "lng": -79.9031789
          },
          "southwest": {
            "lat": 39.72067089999999,
            "lng": -80.5194969
          }
        },
        "location": {
          "lat": 39.8113005,
          "lng": -80.1875065
        },
        "location_type": "APPROXIMATE",
        "viewport": {
          "northeast": {
            "lat": 40.02059089999999,
            "lng": -79.9031789
          },
          "southwest": {
            "lat": 39.72067089999999,
            "lng": -80.5194969
          }
        }
      },
      "place_id": "ChIJfblbgYyjNYgRlxbyOee8jhc",
      "types": [
        "administrative_area_level_2",
        "political"
      ]
    },
    {
      "address_components": [
        {
          "long_name": "Pennsylvania",
          "short_name": "PA",
          "types": [
            "administrative_area_level_1",
            "political"
          ]
        },
        {
          "long_name": "United States",
          "short_name": "US",
          "types": [
            "country",
            "political"
          ]
        }
      ],
      "formatted_address": "Pennsylvania, USA",
      "geometry": {
        "bounds": {
          "northeast": {
            "lat": 42.2693866,
            "lng": -74.6895018
          },
          "southwest": {
            "lat": 39.7197989,
            "lng": -80.51989499999999
          }
        },
        "location": {
          "lat": 41.2033216,
          "lng": -77.1945247
        },
        "location_type": "APPROXIMATE",
        "viewport": {
          "northeast": {
            "lat": 42.2693866,
            "lng": -74.6895018
          },
          "southwest": {
            "lat": 39.7197989,
            "lng": -80.51989499999999
          }
        }
      },
      "place_id": "ChIJieUyHiaALYgRPbQiUEchRsI",
      "types": [
        "administrative_area_level_1",
        "political"
      ]
    },
    {
      "address_components": [
        {
          "long_name": "United States",
          "short_name": "US",
          "types": [
            "country",
            "political"
          ]
        }
      ],
      "formatted_address": "United States",
      "geometry": {
        "bounds": {
          "northeast": {
            "lat": 71.3867745,
            "lng": -66.9502861
          },
          "southwest": {
            "lat": 18.9106768,
            "lng": 172.4458955
          }
        },
        "location": {
          "lat": 37.09024,
          "lng": -95.712891
        },
        "location_type": "APPROXIMATE",
        "viewport": {
          "northeast": {
            "lat": 49.38,
            "lng": -66.94
          },
          "southwest": {
            "lat": 25.82,
            "lng": -124.39
          }
        }
      },
      "place_id": "ChIJCzYy5IS16lQRQrfeQ5K5Oxw",
      "types": [
        "country",
        "political"
      ]
    }
  ],
  "status": "OK"
}
