{
  "results": [
    {
      "address_components": [
        {
          "long_name": "612",
          "short_name": "612",
          "types": [
            "street_number"
          ]
        },
        {
          "long_name": "Pequot Avenue",
          "short_name": "Pequot Ave",
          "types": [
            "route"
          ]
        },
        {
          "long_name": "Southport",
          "short_name": "Southport",
          "types": [
            "neighborhood",
            "political"
          ]
        },
        {
          "long_name": "Fairfield",
          "short_name": "Fairfield",
          "types": [
            "locality",
            "political"
          ]
        },
        {
          "long_name": "Fairfield County",
          "short_name": "Fairfield County",
          "types": [
            "administrative_area_level_2",
            "political"
          ]
        },
        {
          "long_name": "Connecticut",
          "short_name": "CT",
          "types": [
            "administrative_area_level_1",
            "political"
          ]
        },
        {
          "long_name": "United States",
          "short_name": "US",
          "types": [
            "country",
            "political"
          ]
        },
        {
          "long_name": "06890",
          "short_name": "06890",
          "types": [
            "postal_code"
          ]
        }
      ],
      "formatted_address": "612 Pequot Ave, Southport, CT 06890, USA",
      "geometry": {
        "location": {
          "lat": 41.1341228,
          "lng": -73.2875212
        },
        "location_type": "ROOFTOP",
        "viewport": {
          "northeast": {
            "lat": 41.1354717802915,
            "lng": -73.28617221970849
          },
          "southwest": {
            "lat": 41.1327738197085,
            "lng": -73.28887018029151
          }
        }
      },
      "place_id": "ChIJna0ecIUa6IkRubpeR_g5mKo",
      "types": [
        "street_address"
      ]
    },
    {
      "address_components": [
        {
          "long_name": "Southport",
          "short_name": "Southport",
          "types": [
            "neighborhood",
            "political"
          ]
        },
        {
          "long_name": "Fairfield",
          "short_name": "Fairfield",
          "types": [
            "locality",
            "political"
          ]
        },
        {
          "long_name": "Fairfield County",
          "short_name": "Fairfield County",
          "types": [
            "administrative_area_level_2",
            "political"
          ]
        },
        {
          "long_name": "Connecticut",
          "short_name": "CT",
          "types": [
            "administrative_area_level_1",
            "political"
          ]
        },
        {
          "long_name": "United States",
          "short_name": "US",
          "types": [
            "country",
            "political"
          ]
        }
      ],
      "formatted_address": "Southport, Fairfield, CT, USA",
      "geometry": {
        "bounds": {
          "northeast": {
            "lat": 41.14292289999999,
            "lng": -73.2740829
          },
          "southwest": {
            "lat": 41.1238229,
            "lng": -73.2990228
          }
        },
        "location": {
          "lat": 41.1367397,
          "lng": -73.28348729999999
        },
        "location_type": "APPROXIMATE",
        "viewport": {
          "northeast": {
            "lat": 41.14292289999999,
            "lng": -73.2740829
          },
          "southwest": {
            "lat": 41.1238229,
            "lng": -73.2990228
          }
        }
      },
      "place_id": "ChIJKSSu85Qa6IkRxVFEJnYvnlc",
      "types": [
        "neighborhood",
        "political"
      ]
    },
    {
      "address_components": [
        {
          "long_name": "Fairfield",
          "short_name": "Fairfield",
          "types": [
            "locality",
            "political"
          ]
        },
        {
          "long_name": "Fairfield County",
          "short_name": "Fairfield County",
          "types": [
            "administrative_area_level_2",
            "political"
          ]
        },
        {
          "long_name": "Connecticut",
          "short_name": "CT",
          "types": [
            "administrative_area_level_1",
            "political"
          ]
        },
        {
          "long_name": "United States",
          "short_name": "US",
          "types": [
            "country",
            "political"
          ]
        }
      ],
      "formatted_address": "Fairfield, CT, USA",
      "geometry": {
        "bounds": {
          "northeast": {
            "lat": 41.2319929,
            "lng": -73.2178071
          },
          "southwest": {
            "lat": 41.1178203,
            "lng": -73.3384286
          }
        },
        "location": {
          "lat": 41.1408363,
          "lng": -73.2612615
        },
        "location_type": "APPROXIMATE",
        "viewport": {
          "northeast": {
            "lat": 41.2319929,
            "lng": -73.2178071
          },
          "southwest": {
            "lat": 41.1178203,
            "lng": -73.3384286
          }
        }
      },
      "place_id": "ChIJLepsjVcF6IkR1adm-IS1QhQ",
      "types": [
        "locality",
        "political"
      ]
    },
    {
      "address_components": [
        {
          "long_name": "06890",
          "short_name": "06890",
          "types": [
            "postal_code"
          ]
        },
        {
          "long_name": "Southport",
          "short_name": "Southport",
          "types": [
            "neighborhood",
            "political"
          ]
        },
        {
          "long_name": "Fairfield County",
          "short_name": "Fairfield County",
          "types": [
            "administrative_area_level_2",
            "political"
          ]
        },
        {
          "long_name": "Connecticut",
          "short_name": "CT",
          "types": [
            "administrative_area_level_1",
            "political"
          ]
        },
        {
          "long_name": "United States",
          "short_name": "US",
          "types": [
            "country",
            "political"
          ]
        }
      ],
      "formatted_address": "Southport, CT 06890, USA",
      "geometry": {
        "bounds": {
          "northeast": {
            "lat": 41.1669669,
            "lng": -73.2722431
          },
          "southwest": {
            "lat": 41.1203519,
            "lng": -73.3066111
          }
        },
        "location": {
          "lat": 41.1401164,
          "lng": -73.28243309999999
        },
        "location_type": "APPROXIMATE",
        "viewport": {
          "northeast": {
            "lat": 41.1669669,
            "lng": -73.2722431
          },
          "southwest": {
            "lat": 41.1203519,
            "lng": -73.3066111
          }
        }
      },
      "place_id": "ChIJIfRSPL0a6IkRfQ1ayFipgYY",
      "types": [
        "postal_code"
      ]
    },
    {
      "address_components": [
        {
          "long_name": "Fairfield County",
          "short_name": "Fairfield County",
          "types": [
            "administrative_area_level_2",
            "political"
          ]
        },
        {
          "long_name": "Connecticut",
          "short_name": "CT",
          "types": [
            "administrative_area_level_1",
            "political"
          ]
        },
        {
          "long_name": "United States",
          "short_name": "US",
          "types": [
            "country",
            "political"
          ]
        }
      ],
      "formatted_address": "Fairfield County, CT, USA",
      "geometry": {
        "bounds": {
          "northeast": {
            "lat": 41.66683,
            "lng": -73.065051
          },
          "southwest": {
            "lat": 40.98697,
            "lng": -73.727775
          }
        },
        "location": {
          "lat": 41.2559654,
          "lng": -73.37086959999999
        },
        "location_type": "APPROXIMATE",
        "viewport": {
          "northeast": {
            "lat": 41.66683,
            "lng": -73.065051
          },
          "southwest": {
            "lat": 40.98697,
            "lng": -73.727775
          }
        }
      },
      "place_id": "ChIJmeTbuDYH6IkR3xgeNvszpgg",
      "types": [
        "administrative_area_level_2",
        "political"
      ]
    },
    {
      "address_components": [
        {
          "long_name": "Connecticut",
          "short_name": "CT",
          "types": [
            "administrative_area_level_1",
            "political"
          ]
        },
        {
          "long_name": "United States",
          "short_name": "US",
          "types": [
            "country",
            "political"
          ]
        }
      ],
      "formatted_address": "Connecticut, USA",
      "geometry": {
        "bounds": {
          "northeast": {
            "lat": 42.050587,
            "lng": -71.787239
          },
          "southwest": {
            "lat": 40.9869801,
            "lng": -73.727775
          }
        },
        "location": {
          "lat": 41.6032207,
          "lng": -73.087749
        },
        "location_type": "APPROXIMATE",
        "viewport": {
          "northeast": {
            "lat": 42.050587,
            "lng": -71.787239
          },
          "southwest": {
            "lat": 40.9869801,
            "lng": -73.727775
          }
        }
      },
      "place_id": "ChIJpVER8hFT5okR5XBhBVttmq4",
      "types": [
        "administrative_area_level_1",
        "political"
      ]
    },
    {
      "address_components": [
        {
          "long_name": "United States",
          "short_name": "US",
          "types": [
            "country",
            "political"
          ]
        }
      ],
      "formatted_address": "United States",
      "geometry": {
        "bounds": {
          "northeast": {
            "lat": 71.3867745,
            "lng": -66.9502861
          },
          "southwest": {
            "lat": 18.9106768,
            "lng": 172.4458955
          }
        },
        "location": {
          "lat": 37.09024,
          "lng": -95.712891
        },
        "location_type": "APPROXIMATE",
        "viewport": {
          "northeast": {
            "lat": 49.38,
            "lng": -66.94
          },
          "southwest": {
            "lat": 25.82,
            "lng": -124.39
          }
        }
      },
      "place_id": "ChIJCzYy5IS16lQRQrfeQ5K5Oxw",
      "types": [
        "country",
        "political"
      ]
    }
  ],
  "status": "OK"
}
