{
  "results": [
    {
      "address_components": [
        {
          "long_name": "324-398",
          "short_name": "324-398",
          "types": [
            "street_number"
          ]
        },
        {
          "long_name": "South Saint Louis Avenue",
          "short_name": "S St Louis Ave",
          "types": [
            "route"
          ]
        },
        {
          "long_name": "Kampsville",
          "short_name": "Kampsville",
          "types": [
            "locality",
            "political"
          ]
        },
        {
          "long_name": "Crater Precinct",
          "short_name": "Crater Precinct",
          "types": [
            "administrative_area_level_3",
            "political"
          ]
        },
        {
          "long_name": "Calhoun County",
          "short_name": "Calhoun County",
          "types": [
            "administrative_area_level_2",
            "political"
          ]
        },
        {
          "long_name": "Illinois",
          "short_name": "IL",
          "types": [
            "administrative_area_level_1",
            "political"
          ]
        },
        {
          "long_name": "United States",
          "short_name": "US",
          "types": [
            "country",
            "political"
          ]
        },
        {
          "long_name": "62053",
          "short_name": "62053",
          "types": [
            "postal_code"
          ]
        }
      ],
      "formatted_address": "324-398 S St Louis Ave, Kampsville, IL 62053, USA",
      "geometry": {
        "location": {
          "lat": 39.2960196,
          "lng": -90.61193
        },
        "location_type": "ROOFTOP",
        "viewport": {
          "northeast": {
            "lat": 39.2973685802915,
            "lng": -90.61058101970849
          },
          "southwest": {
            "lat": 39.2946706197085,
            "lng": -90.6132789802915
          }
        }
      },
      "place_id": "ChIJU0Yk3ML_3ocRHdxt4rZte0s",
      "types": [
        "street_address"
      ]
    },
    {
      "address_components": [
        {
          "long_name": "Kampsville",
          "short_name": "Kampsville",
          "types": [
            "locality",
            "political"
          ]
        },
        {
          "long_name": "Crater Precinct",
          "short_name": "Crater Precinct",
          "types": [
            "administrative_area_level_3",
            "political"
          ]
        },
        {
          "long_name": "Calhoun County",
          "short_name": "Calhoun County",
          "types": [
            "administrative_area_level_2",
            "political"
          ]
        },
        {
          "long_name": "Illinois",
          "short_name": "IL",
          "types": [
            "administrative_area_level_1",
            "political"
          ]
        },
        {
          "long_name": "United States",
          "short_name": "US",
          "types": [
            "country",
            "political"
          ]
        },
        {
          "long_name": "62053",
          "short_name": "62053",
          "types": [
            "postal_code"
          ]
        }
      ],
      "formatted_address": "Kampsville, IL 62053, USA",
      "geometry": {
        "bounds": {
          "northeast": {
            "lat": 39.311494,
            "lng": -90.602254
          },
          "southwest": {
            "lat": 39.2841838,
            "lng": -90.624978
          }
        },
        "location": {
          "lat": 39.29782549999999,
          "lng": -90.6090117
        },
        "location_type": "APPROXIMATE",
        "viewport": {
          "northeast": {
            "lat": 39.311494,
            "lng": -90.602254
          },
          "southwest": {
            "lat": 39.2841838,
            "lng": -90.624978
          }
        }
      },
      "place_id": "ChIJM1yKe_NV3ocRIXh96bsuWQ4",
      "types": [
        "locality",
        "political"
      ]
    },
    {
      "address_components": [
        {
          "long_name": "Crater Precinct",
          "short_name": "Crater Precinct",
          "types": [
            "administrative_area_level_3",
            "political"
          ]
        },
        {
          "long_name": "Calhoun County",
          "short_name": "Calhoun County",
          "types": [
            "administrative_area_level_2",
            "political"
          ]
        },
        {
          "long_name": "Illinois",
          "short_name": "IL",
          "types": [
            "administrative_area_level_1",
            "political"
          ]
        },
        {
          "long_name": "United States",
          "short_name": "US",
          "types": [
            "country",
            "political"
          ]
        }
      ],
      "formatted_address": "Crater Precinct, IL, USA",
      "geometry": {
        "bounds": {
          "northeast": {
            "lat": 39.307249,
            "lng": -90.592984
          },
          "southwest": {
            "lat": 39.22052499999999,
            "lng": -90.6717741
          }
        },
        "location": {
          "lat": 39.2670194,
          "lng": -90.6298922
        },
        "location_type": "APPROXIMATE",
        "viewport": {
          "northeast": {
            "lat": 39.307249,
            "lng": -90.592984
          },
          "southwest": {
            "lat": 39.22052499999999,
            "lng": -90.6717741
          }
        }
      },
      "place_id": "ChIJz0cjSmT-3ocRrx3nhrNoOeo",
      "types": [
        "administrative_area_level_3",
        "political"
      ]
    },
    {
      "address_components": [
        {
          "long_name": "62053",
          "short_name": "62053",
          "types": [
            "postal_code"
          ]
        },
        {
          "long_name": "Kampsville",
          "short_name": "Kampsville",
          "types": [
            "locality",
            "political"
          ]
        },
        {
          "long_name": "Illinois",
          "short_name": "IL",
          "types": [
            "administrative_area_level_1",
            "political"
          ]
        },
        {
          "long_name": "United States",
          "short_name": "US",
          "types": [
            "country",
            "political"
          ]
        }
      ],
      "formatted_address": "Kampsville, IL 62053, USA",
      "geometry": {
        "bounds": {
          "northeast": {
            "lat": 39.395146,
            "lng": -90.5691879
          },
          "southwest": {
            "lat": 39.2502938,
            "lng": -90.7405951
          }
        },
        "location": {
          "lat": 39.2980122,
          "lng": -90.658333
        },
        "location_type": "APPROXIMATE",
        "viewport": {
          "northeast": {
            "lat": 39.395146,
            "lng": -90.5691879
          },
          "southwest": {
            "lat": 39.2502938,
            "lng": -90.7405951
          }
        }
      },
      "place_id": "ChIJ72kQ6vBV3ocR6wVTZGGUhQI",
      "types": [
        "postal_code"
      ]
    },
    {
      "address_components": [
        {
          "long_name": "Calhoun County",
          "short_name": "Calhoun County",
          "types": [
            "administrative_area_level_2",
            "political"
          ]
        },
        {
          "long_name": "Illinois",
          "short_name": "IL",
          "types": [
            "administrative_area_level_1",
            "political"
          ]
        },
        {
          "long_name": "United States",
          "short_name": "US",
          "types": [
            "country",
            "political"
          ]
        }
      ],
      "formatted_address": "Calhoun County, IL, USA",
      "geometry": {
        "bounds": {
          "northeast": {
            "lat": 39.400205,
            "lng": -90.450813
          },
          "southwest": {
            "lat": 38.868336,
            "lng": -90.936728
          }
        },
        "location": {
          "lat": 39.1733216,
          "lng": -90.658333
        },
        "location_type": "APPROXIMATE",
        "viewport": {
          "northeast": {
            "lat": 39.400205,
            "lng": -90.450813
          },
          "southwest": {
            "lat": 38.868336,
            "lng": -90.936728
          }
        }
      },
      "place_id": "ChIJWVpi1r7k3ocRPQIrPxyef0w",
      "types": [
        "administrative_area_level_2",
        "political"
      ]
    },
    {
      "address_components": [
        {
          "long_name": "St. Louis",
          "short_name": "St. Louis",
          "types": [
            "political"
          ]
        },
        {
          "long_name": "United States",
          "short_name": "US",
          "types": [
            "country",
            "political"
          ]
        }
      ],
      "formatted_address": "St. Louis, USA",
      "geometry": {
        "bounds": {
          "northeast": {
            "lat": 39.5233661,
            "lng": -89.138356
          },
          "southwest": {
            "lat": 37.7341961,
            "lng": -91.4186371
          }
        },
        "location": {
          "lat": 38.8196814,
          "lng": -90.4502368
        },
        "location_type": "APPROXIMATE",
        "viewport": {
          "northeast": {
            "lat": 39.5233661,
            "lng": -89.138356
          },
          "southwest": {
            "lat": 37.7341961,
            "lng": -91.4186371
          }
        }
      },
      "place_id": "ChIJneBzzj4z34cRFGg2ez6q57o",
      "types": [
        "political"
      ]
    },
    {
      "address_components": [
        {
          "long_name": "Illinois",
          "short_name": "IL",
          "types": [
            "administrative_area_level_1",
            "political"
          ]
        },
        {
          "long_name": "United States",
          "short_name": "US",
          "types": [
            "country",
            "political"
          ]
        }
      ],
      "formatted_address": "Illinois, USA",
      "geometry": {
        "bounds": {
          "northeast": {
            "lat": 42.5083379,
            "lng": -87.4951991
          },
          "southwest": {
            "lat": 36.970298,
            "lng": -91.5130789
          }
        },
        "location": {
          "lat": 40.6331249,
          "lng": -89.3985283
        },
        "location_type": "APPROXIMATE",
        "viewport": {
          "northeast": {
            "lat": 42.5083379,
            "lng": -87.4951991
          },
          "southwest": {
            "lat": 36.970298,
            "lng": -91.5130789
          }
        }
      },
      "place_id": "ChIJGSZubzgtC4gRVlkRZFCCFX8",
      "types": [
        "administrative_area_level_1",
        "political"
      ]
    },
    {
      "address_components": [
        {
          "long_name": "United States",
          "short_name": "US",
          "types": [
            "country",
            "political"
          ]
        }
      ],
      "formatted_address": "United States",
      "geometry": {
        "bounds": {
          "northeast": {
            "lat": 71.3867745,
            "lng": -66.9502861
          },
          "southwest": {
            "lat": 18.9106768,
            "lng": 172.4458955
          }
        },
        "location": {
          "lat": 37.09024,
          "lng": -95.712891
        },
        "location_type": "APPROXIMATE",
        "viewport": {
          "northeast": {
            "lat": 49.38,
            "lng": -66.94
          },
          "southwest": {
            "lat": 25.82,
            "lng": -124.39
          }
        }
      },
      "place_id": "ChIJCzYy5IS16lQRQrfeQ5K5Oxw",
      "types": [
        "country",
        "political"
      ]
    }
  ],
  "status": "OK"
}
