{
  "results": [
    {
      "address_components": [
        {
          "long_name": "200",
          "short_name": "200",
          "types": [
            "street_number"
          ]
        },
        {
          "long_name": "Amp Drive",
          "short_name": "Amp Dr",
          "types": [
            "route"
          ]
        },
        {
          "long_name": "Harrisburg",
          "short_name": "Harrisburg",
          "types": [
            "locality",
            "political"
          ]
        },
        {
          "long_name": "Lower Paxton Township",
          "short_name": "Lower Paxton Township",
          "types": [
            "administrative_area_level_3",
            "political"
          ]
        },
        {
          "long_name": "Dauphin County",
          "short_name": "Dauphin County",
          "types": [
            "administrative_area_level_2",
            "political"
          ]
        },
        {
          "long_name": "Pennsylvania",
          "short_name": "PA",
          "types": [
            "administrative_area_level_1",
            "political"
          ]
        },
        {
          "long_name": "United States",
          "short_name": "US",
          "types": [
            "country",
            "political"
          ]
        },
        {
          "long_name": "17112",
          "short_name": "17112",
          "types": [
            "postal_code"
          ]
        }
      ],
      "formatted_address": "200 Amp Dr, Harrisburg, PA 17112, USA",
      "geometry": {
        "location": {
          "lat": 40.315725,
          "lng": -76.78710600000001
        },
        "location_type": "ROOFTOP",
        "viewport": {
          "northeast": {
            "lat": 40.3170739802915,
            "lng": -76.78575701970851
          },
          "southwest": {
            "lat": 40.3143760197085,
            "lng": -76.78845498029152
          }
        }
      },
      "place_id": "ChIJo9Meavm4yIkRRuK8HwpRr2U",
      "types": [
        "street_address"
      ]
    },
    {
      "address_components": [
        {
          "long_name": "Paxtonia",
          "short_name": "Paxtonia",
          "types": [
            "locality",
            "political"
          ]
        },
        {
          "long_name": "Lower Paxton Township",
          "short_name": "Lower Paxton Township",
          "types": [
            "administrative_area_level_3",
            "political"
          ]
        },
        {
          "long_name": "Dauphin County",
          "short_name": "Dauphin County",
          "types": [
            "administrative_area_level_2",
            "political"
          ]
        },
        {
          "long_name": "Pennsylvania",
          "short_name": "PA",
          "types": [
            "administrative_area_level_1",
            "political"
          ]
        },
        {
          "long_name": "United States",
          "short_name": "US",
          "types": [
            "country",
            "political"
          ]
        }
      ],
      "formatted_address": "Paxtonia, PA, USA",
      "geometry": {
        "bounds": {
          "northeast": {
            "lat": 40.3283878,
            "lng": -76.7665921
          },
          "southwest": {
            "lat": 40.30518900000001,
            "lng": -76.810593
          }
        },
        "location": {
          "lat": 40.3173109,
          "lng": -76.7944155
        },
        "location_type": "APPROXIMATE",
        "viewport": {
          "northeast": {
            "lat": 40.3283878,
            "lng": -76.7665921
          },
          "southwest": {
            "lat": 40.30518900000001,
            "lng": -76.810593
          }
        }
      },
      "place_id": "ChIJsfeL5vm4yIkRv-I_r7NzB7Y",
      "types": [
        "locality",
        "political"
      ]
    },
    {
      "address_components": [
        {
          "long_name": "Lower Paxton Township",
          "short_name": "Lower Paxton Township",
          "types": [
            "administrative_area_level_3",
            "political"
          ]
        },
        {
          "long_name": "Dauphin County",
          "short_name": "Dauphin County",
          "types": [
            "administrative_area_level_2",
            "political"
          ]
        },
        {
          "long_name": "Pennsylvania",
          "short_name": "PA",
          "types": [
            "administrative_area_level_1",
            "political"
          ]
        },
        {
          "long_name": "United States",
          "short_name": "US",
          "types": [
            "country",
            "political"
          ]
        }
      ],
      "formatted_address": "Lower Paxton Township, PA, USA",
      "geometry": {
        "bounds": {
          "northeast": {
            "lat": 40.372364,
            "lng": -76.741692
          },
          "southwest": {
            "lat": 40.267089,
            "lng": -76.8583949
          }
        },
        "location": {
          "lat": 40.3102395,
          "lng": -76.79135579999999
        },
        "location_type": "APPROXIMATE",
        "viewport": {
          "northeast": {
            "lat": 40.372364,
            "lng": -76.741692
          },
          "southwest": {
            "lat": 40.267089,
            "lng": -76.8583949
          }
        }
      },
      "place_id": "ChIJb7FWine3yIkRtx2J0Df8SpQ",
      "types": [
        "administrative_area_level_3",
        "political"
      ]
    },
    {
      "address_components": [
        {
          "long_name": "17112",
          "short_name": "17112",
          "types": [
            "postal_code"
          ]
        },
        {
          "long_name": "Harrisburg",
          "short_name": "Harrisburg",
          "types": [
            "locality",
            "political"
          ]
        },
        {
          "long_name": "Dauphin County",
          "short_name": "Dauphin County",
          "types": [
            "administrative_area_level_2",
            "political"
          ]
        },
        {
          "long_name": "Pennsylvania",
          "short_name": "PA",
          "types": [
            "administrative_area_level_1",
            "political"
          ]
        },
        {
          "long_name": "United States",
          "short_name": "US",
          "types": [
            "country",
            "political"
          ]
        }
      ],
      "formatted_address": "Harrisburg, PA 17112, USA",
      "geometry": {
        "bounds": {
          "northeast": {
            "lat": 40.42040890000001,
            "lng": -76.68298980000002
          },
          "southwest": {
            "lat": 40.2683588,
            "lng": -76.92616009999999
          }
        },
        "location": {
          "lat": 40.3416765,
          "lng": -76.8028933
        },
        "location_type": "APPROXIMATE",
        "viewport": {
          "northeast": {
            "lat": 40.42040890000001,
            "lng": -76.68298980000002
          },
          "southwest": {
            "lat": 40.29759,
            "lng": -76.92616009999999
          }
        }
      },
      "place_id": "ChIJj_gKVYS3yIkRfaMy0w6VJt0",
      "postcode_localities": [
        "Harrisburg",
        "Linglestown",
        "Paxtonia"
      ],
      "types": [
        "postal_code"
      ]
    },
    {
      "address_components": [
        {
          "long_name": "Dauphin County",
          "short_name": "Dauphin County",
          "types": [
            "administrative_area_level_2",
            "political"
          ]
        },
        {
          "long_name": "Pennsylvania",
          "short_name": "PA",
          "types": [
            "administrative_area_level_1",
            "political"
          ]
        },
        {
          "long_name": "United States",
          "short_name": "US",
          "types": [
            "country",
            "political"
          ]
        }
      ],
      "formatted_address": "Dauphin County, PA, USA",
      "geometry": {
        "bounds": {
          "northeast": {
            "lat": 40.65959489999999,
            "lng": -76.5354139
          },
          "southwest": {
            "lat": 40.12007,
            "lng": -77.029341
          }
        },
        "location": {
          "lat": 40.2734277,
          "lng": -76.7336521
        },
        "location_type": "APPROXIMATE",
        "viewport": {
          "northeast": {
            "lat": 40.65959489999999,
            "lng": -76.5354139
          },
          "southwest": {
            "lat": 40.12007,
            "lng": -77.029341
          }
        }
      },
      "place_id": "ChIJVdIHI9KzyIkRmZL4uXjXGU8",
      "types": [
        "administrative_area_level_2",
        "political"
      ]
    },
    {
      "address_components": [
        {
          "long_name": "Pennsylvania",
          "short_name": "PA",
          "types": [
            "administrative_area_level_1",
            "political"
          ]
        },
        {
          "long_name": "United States",
          "short_name": "US",
          "types": [
            "country",
            "political"
          ]
        }
      ],
      "formatted_address": "Pennsylvania, USA",
      "geometry": {
        "bounds": {
          "northeast": {
            "lat": 42.2693866,
            "lng": -74.6895018
          },
          "southwest": {
            "lat": 39.7197989,
            "lng": -80.51989499999999
          }
        },
        "location": {
          "lat": 41.2033216,
          "lng": -77.1945247
        },
        "location_type": "APPROXIMATE",
        "viewport": {
          "northeast": {
            "lat": 42.2693866,
            "lng": -74.6895018
          },
          "southwest": {
            "lat": 39.7197989,
            "lng": -80.51989499999999
          }
        }
      },
      "place_id": "ChIJieUyHiaALYgRPbQiUEchRsI",
      "types": [
        "administrative_area_level_1",
        "political"
      ]
    },
    {
      "address_components": [
        {
          "long_name": "United States",
          "short_name": "US",
          "types": [
            "country",
            "political"
          ]
        }
      ],
      "formatted_address": "United States",
      "geometry": {
        "bounds": {
          "northeast": {
            "lat": 71.3867745,
            "lng": -66.9502861
          },
          "southwest": {
            "lat": 18.9106768,
            "lng": 172.4458955
          }
        },
        "location": {
          "lat": 37.09024,
          "lng": -95.712891
        },
        "location_type": "APPROXIMATE",
        "viewport": {
          "northeast": {
            "lat": 49.38,
            "lng": -66.94
          },
          "southwest": {
            "lat": 25.82,
            "lng": -124.39
          }
        }
      },
      "place_id": "ChIJCzYy5IS16lQRQrfeQ5K5Oxw",
      "types": [
        "country",
        "political"
      ]
    }
  ],
  "status": "OK"
}
