{
  "results": [
    {
      "address_components": [
        {
          "long_name": "16",
          "short_name": "16",
          "types": [
            "street_number"
          ]
        },
        {
          "long_name": "Netherlands Drive",
          "short_name": "Netherlands Dr",
          "types": [
            "route"
          ]
        },
        {
          "long_name": "Southampton",
          "short_name": "Southampton",
          "types": [
            "locality",
            "political"
          ]
        },
        {
          "long_name": "Northampton Township",
          "short_name": "Northampton Township",
          "types": [
            "administrative_area_level_3",
            "political"
          ]
        },
        {
          "long_name": "Bucks County",
          "short_name": "Bucks County",
          "types": [
            "administrative_area_level_2",
            "political"
          ]
        },
        {
          "long_name": "Pennsylvania",
          "short_name": "PA",
          "types": [
            "administrative_area_level_1",
            "political"
          ]
        },
        {
          "long_name": "United States",
          "short_name": "US",
          "types": [
            "country",
            "political"
          ]
        },
        {
          "long_name": "18966",
          "short_name": "18966",
          "types": [
            "postal_code"
          ]
        },
        {
          "long_name": "2315",
          "short_name": "2315",
          "types": [
            "postal_code_suffix"
          ]
        }
      ],
      "formatted_address": "16 Netherlands Dr, Southampton, PA 18966, USA",
      "geometry": {
        "location": {
          "lat": 40.2018195,
          "lng": -74.9705415
        },
        "location_type": "ROOFTOP",
        "viewport": {
          "northeast": {
            "lat": 40.2031684802915,
            "lng": -74.96919251970849
          },
          "southwest": {
            "lat": 40.2004705197085,
            "lng": -74.9718904802915
          }
        }
      },
      "place_id": "ChIJZ12mALOsxokRZAuZfecMV6I",
      "types": [
        "street_address"
      ]
    },
    {
      "address_components": [
        {
          "long_name": "18966",
          "short_name": "18966",
          "types": [
            "postal_code"
          ]
        },
        {
          "long_name": "Southampton",
          "short_name": "Southampton",
          "types": [
            "locality",
            "political"
          ]
        },
        {
          "long_name": "Pennsylvania",
          "short_name": "PA",
          "types": [
            "administrative_area_level_1",
            "political"
          ]
        },
        {
          "long_name": "United States",
          "short_name": "US",
          "types": [
            "country",
            "political"
          ]
        }
      ],
      "formatted_address": "Southampton, PA 18966, USA",
      "geometry": {
        "bounds": {
          "northeast": {
            "lat": 40.224092,
            "lng": -74.9404079
          },
          "southwest": {
            "lat": 40.151273,
            "lng": -75.071198
          }
        },
        "location": {
          "lat": 40.19191199999999,
          "lng": -75.0260667
        },
        "location_type": "APPROXIMATE",
        "viewport": {
          "northeast": {
            "lat": 40.224092,
            "lng": -74.9404079
          },
          "southwest": {
            "lat": 40.151273,
            "lng": -75.071198
          }
        }
      },
      "place_id": "ChIJg50dEuWsxokRlfgPx815Pw8",
      "postcode_localities": [
        "Churchville",
        "Holland",
        "Southampton"
      ],
      "types": [
        "postal_code"
      ]
    },
    {
      "address_components": [
        {
          "long_name": "Northampton Township",
          "short_name": "Northampton Township",
          "types": [
            "administrative_area_level_3",
            "political"
          ]
        },
        {
          "long_name": "Bucks County",
          "short_name": "Bucks County",
          "types": [
            "administrative_area_level_2",
            "political"
          ]
        },
        {
          "long_name": "Pennsylvania",
          "short_name": "PA",
          "types": [
            "administrative_area_level_1",
            "political"
          ]
        },
        {
          "long_name": "United States",
          "short_name": "US",
          "types": [
            "country",
            "political"
          ]
        }
      ],
      "formatted_address": "Northampton Township, PA, USA",
      "geometry": {
        "bounds": {
          "northeast": {
            "lat": 40.25585,
            "lng": -74.92250109999999
          },
          "southwest": {
            "lat": 40.16312,
            "lng": -75.0726149
          }
        },
        "location": {
          "lat": 40.208838,
          "lng": -75.0026972
        },
        "location_type": "APPROXIMATE",
        "viewport": {
          "northeast": {
            "lat": 40.25585,
            "lng": -74.92250109999999
          },
          "southwest": {
            "lat": 40.16312,
            "lng": -75.0726149
          }
        }
      },
      "place_id": "ChIJQbV3PZqsxokRKrFlsaC4N_o",
      "types": [
        "administrative_area_level_3",
        "political"
      ]
    },
    {
      "address_components": [
        {
          "long_name": "Bucks County",
          "short_name": "Bucks County",
          "types": [
            "administrative_area_level_2",
            "political"
          ]
        },
        {
          "long_name": "Pennsylvania",
          "short_name": "PA",
          "types": [
            "administrative_area_level_1",
            "political"
          ]
        },
        {
          "long_name": "United States",
          "short_name": "US",
          "types": [
            "country",
            "political"
          ]
        }
      ],
      "formatted_address": "Bucks County, PA, USA",
      "geometry": {
        "bounds": {
          "northeast": {
            "lat": 40.6085799,
            "lng": -74.7236868
          },
          "southwest": {
            "lat": 40.0521467,
            "lng": -75.48405679999999
          }
        },
        "location": {
          "lat": 40.4107964,
          "lng": -75.2479061
        },
        "location_type": "APPROXIMATE",
        "viewport": {
          "northeast": {
            "lat": 40.6085799,
            "lng": -74.7236868
          },
          "southwest": {
            "lat": 40.0521467,
            "lng": -75.48405679999999
          }
        }
      },
      "place_id": "ChIJHw5nt85GxIkRE6dc-_7kG54",
      "types": [
        "administrative_area_level_2",
        "political"
      ]
    },
    {
      "address_components": [
        {
          "long_name": "Pennsylvania",
          "short_name": "PA",
          "types": [
            "administrative_area_level_1",
            "political"
          ]
        },
        {
          "long_name": "United States",
          "short_name": "US",
          "types": [
            "country",
            "political"
          ]
        }
      ],
      "formatted_address": "Pennsylvania, USA",
      "geometry": {
        "bounds": {
          "northeast": {
            "lat": 42.2693866,
            "lng": -74.6895018
          },
          "southwest": {
            "lat": 39.7197989,
            "lng": -80.51989499999999
          }
        },
        "location": {
          "lat": 41.2033216,
          "lng": -77.1945247
        },
        "location_type": "APPROXIMATE",
        "viewport": {
          "northeast": {
            "lat": 42.2693866,
            "lng": -74.6895018
          },
          "southwest": {
            "lat": 39.7197989,
            "lng": -80.51989499999999
          }
        }
      },
      "place_id": "ChIJieUyHiaALYgRPbQiUEchRsI",
      "types": [
        "administrative_area_level_1",
        "political"
      ]
    },
    {
      "address_components": [
        {
          "long_name": "United States",
          "short_name": "US",
          "types": [
            "country",
            "political"
          ]
        }
      ],
      "formatted_address": "United States",
      "geometry": {
        "bounds": {
          "northeast": {
            "lat": 71.3867745,
            "lng": -66.9502861
          },
          "southwest": {
            "lat": 18.9106768,
            "lng": 172.4458955
          }
        },
        "location": {
          "lat": 37.09024,
          "lng": -95.712891
        },
        "location_type": "APPROXIMATE",
        "viewport": {
          "northeast": {
            "lat": 49.38,
            "lng": -66.94
          },
          "southwest": {
            "lat": 25.82,
            "lng": -124.39
          }
        }
      },
      "place_id": "ChIJCzYy5IS16lQRQrfeQ5K5Oxw",
      "types": [
        "country",
        "political"
      ]
    }
  ],
  "status": "OK"
}
