{
  "results": [
    {
      "address_components": [
        {
          "long_name": "201-299",
          "short_name": "201-299",
          "types": [
            "street_number"
          ]
        },
        {
          "long_name": "Main Street",
          "short_name": "Co Rd 9",
          "types": [
            "route"
          ]
        },
        {
          "long_name": "Gorham",
          "short_name": "Gorham",
          "types": [
            "locality",
            "political"
          ]
        },
        {
          "long_name": "Sand Ridge Township",
          "short_name": "Sand Ridge Township",
          "types": [
            "administrative_area_level_3",
            "political"
          ]
        },
        {
          "long_name": "Jackson County",
          "short_name": "Jackson County",
          "types": [
            "administrative_area_level_2",
            "political"
          ]
        },
        {
          "long_name": "Illinois",
          "short_name": "IL",
          "types": [
            "administrative_area_level_1",
            "political"
          ]
        },
        {
          "long_name": "United States",
          "short_name": "US",
          "types": [
            "country",
            "political"
          ]
        },
        {
          "long_name": "62940",
          "short_name": "62940",
          "types": [
            "postal_code"
          ]
        }
      ],
      "formatted_address": "201-299 Main St, Gorham, IL 62940, USA",
      "geometry": {
        "bounds": {
          "northeast": {
            "lat": 37.714195,
            "lng": -89.48384829999999
          },
          "southwest": {
            "lat": 37.713233,
            "lng": -89.48554759999999
          }
        },
        "location": {
          "lat": 37.7135995,
          "lng": -89.4844634
        },
        "location_type": "RANGE_INTERPOLATED",
        "viewport": {
          "northeast": {
            "lat": 37.7150629802915,
            "lng": -89.48334896970847
          },
          "southwest": {
            "lat": 37.7123650197085,
            "lng": -89.4860469302915
          }
        }
      },
      "place_id": "EiYyMDEtMjk5IE1haW4gU3QsIEdvcmhhbSwgSUwgNjI5NDAsIFVTQQ",
      "types": [
        "street_address"
      ]
    },
    {
      "address_components": [
        {
          "long_name": "Gorham",
          "short_name": "Gorham",
          "types": [
            "locality",
            "political"
          ]
        },
        {
          "long_name": "Sand Ridge Township",
          "short_name": "Sand Ridge Township",
          "types": [
            "administrative_area_level_3",
            "political"
          ]
        },
        {
          "long_name": "Jackson County",
          "short_name": "Jackson County",
          "types": [
            "administrative_area_level_2",
            "political"
          ]
        },
        {
          "long_name": "Illinois",
          "short_name": "IL",
          "types": [
            "administrative_area_level_1",
            "political"
          ]
        },
        {
          "long_name": "United States",
          "short_name": "US",
          "types": [
            "country",
            "political"
          ]
        },
        {
          "long_name": "62940",
          "short_name": "62940",
          "types": [
            "postal_code"
          ]
        }
      ],
      "formatted_address": "Gorham, IL 62940, USA",
      "geometry": {
        "bounds": {
          "northeast": {
            "lat": 37.7253649,
            "lng": -89.47310390000001
          },
          "southwest": {
            "lat": 37.7030881,
            "lng": -89.49099679999999
          }
        },
        "location": {
          "lat": 37.718384,
          "lng": -89.4859292
        },
        "location_type": "APPROXIMATE",
        "viewport": {
          "northeast": {
            "lat": 37.7253649,
            "lng": -89.47310390000001
          },
          "southwest": {
            "lat": 37.7030881,
            "lng": -89.49099679999999
          }
        }
      },
      "place_id": "ChIJUZAe8_mjd4gR1nZR_AVpXLk",
      "types": [
        "locality",
        "political"
      ]
    },
    {
      "address_components": [
        {
          "long_name": "62940",
          "short_name": "62940",
          "types": [
            "postal_code"
          ]
        },
        {
          "long_name": "Gorham",
          "short_name": "Gorham",
          "types": [
            "locality",
            "political"
          ]
        },
        {
          "long_name": "Jackson County",
          "short_name": "Jackson County",
          "types": [
            "administrative_area_level_2",
            "political"
          ]
        },
        {
          "long_name": "Illinois",
          "short_name": "IL",
          "types": [
            "administrative_area_level_1",
            "political"
          ]
        },
        {
          "long_name": "United States",
          "short_name": "US",
          "types": [
            "country",
            "political"
          ]
        }
      ],
      "formatted_address": "Gorham, IL 62940, USA",
      "geometry": {
        "bounds": {
          "northeast": {
            "lat": 37.77929900000001,
            "lng": -89.4060861
          },
          "southwest": {
            "lat": 37.6894441,
            "lng": -89.5275769
          }
        },
        "location": {
          "lat": 37.7331887,
          "lng": -89.46476439999999
        },
        "location_type": "APPROXIMATE",
        "viewport": {
          "northeast": {
            "lat": 37.77929900000001,
            "lng": -89.4060861
          },
          "southwest": {
            "lat": 37.6894441,
            "lng": -89.5275769
          }
        }
      },
      "place_id": "ChIJ-_XO1qWmd4gR_NPO4T1MdTw",
      "types": [
        "postal_code"
      ]
    },
    {
      "address_components": [
        {
          "long_name": "Sand Ridge Township",
          "short_name": "Sand Ridge Township",
          "types": [
            "administrative_area_level_3",
            "political"
          ]
        },
        {
          "long_name": "Jackson County",
          "short_name": "Jackson County",
          "types": [
            "administrative_area_level_2",
            "political"
          ]
        },
        {
          "long_name": "Illinois",
          "short_name": "IL",
          "types": [
            "administrative_area_level_1",
            "political"
          ]
        },
        {
          "long_name": "United States",
          "short_name": "US",
          "types": [
            "country",
            "political"
          ]
        }
      ],
      "formatted_address": "Sand Ridge Township, IL, USA",
      "geometry": {
        "bounds": {
          "northeast": {
            "lat": 37.7808871,
            "lng": -89.3790349
          },
          "southwest": {
            "lat": 37.688,
            "lng": -89.5006499
          }
        },
        "location": {
          "lat": 37.7435945,
          "lng": -89.41746409999999
        },
        "location_type": "APPROXIMATE",
        "viewport": {
          "northeast": {
            "lat": 37.7808871,
            "lng": -89.3790349
          },
          "southwest": {
            "lat": 37.688,
            "lng": -89.5006499
          }
        }
      },
      "place_id": "ChIJLx6Ov9mmd4gRIZut4Iragpc",
      "types": [
        "administrative_area_level_3",
        "political"
      ]
    },
    {
      "address_components": [
        {
          "long_name": "Carbondale",
          "short_name": "Carbondale",
          "types": [
            "political"
          ]
        },
        {
          "long_name": "United States",
          "short_name": "US",
          "types": [
            "country",
            "political"
          ]
        }
      ],
      "formatted_address": "Carbondale, USA",
      "geometry": {
        "bounds": {
          "northeast": {
            "lat": 37.9553099,
            "lng": -89.1505789
          },
          "southwest": {
            "lat": 37.5621161,
            "lng": -89.681084
          }
        },
        "location": {
          "lat": 37.7218304,
          "lng": -89.3226954
        },
        "location_type": "APPROXIMATE",
        "viewport": {
          "northeast": {
            "lat": 37.9553099,
            "lng": -89.1505789
          },
          "southwest": {
            "lat": 37.5621161,
            "lng": -89.681084
          }
        }
      },
      "place_id": "ChIJwez4Mj4Id4gRiSgynOzBd74",
      "types": [
        "political"
      ]
    },
    {
      "address_components": [
        {
          "long_name": "Jackson County",
          "short_name": "Jackson County",
          "types": [
            "administrative_area_level_2",
            "political"
          ]
        },
        {
          "long_name": "Illinois",
          "short_name": "IL",
          "types": [
            "administrative_area_level_1",
            "political"
          ]
        },
        {
          "long_name": "United States",
          "short_name": "US",
          "types": [
            "country",
            "political"
          ]
        }
      ],
      "formatted_address": "Jackson County, IL, USA",
      "geometry": {
        "bounds": {
          "northeast": {
            "lat": 37.95531,
            "lng": -89.1505789
          },
          "southwest": {
            "lat": 37.561982,
            "lng": -89.680919
          }
        },
        "location": {
          "lat": 37.7218304,
          "lng": -89.3226954
        },
        "location_type": "APPROXIMATE",
        "viewport": {
          "northeast": {
            "lat": 37.95531,
            "lng": -89.1505789
          },
          "southwest": {
            "lat": 37.561982,
            "lng": -89.680919
          }
        }
      },
      "place_id": "ChIJ1WJkfj4Jd4gR9R3Up6pTtrc",
      "types": [
        "administrative_area_level_2",
        "political"
      ]
    },
    {
      "address_components": [
        {
          "long_name": "Illinois",
          "short_name": "IL",
          "types": [
            "administrative_area_level_1",
            "political"
          ]
        },
        {
          "long_name": "United States",
          "short_name": "US",
          "types": [
            "country",
            "political"
          ]
        }
      ],
      "formatted_address": "Illinois, USA",
      "geometry": {
        "bounds": {
          "northeast": {
            "lat": 42.5083379,
            "lng": -87.4951991
          },
          "southwest": {
            "lat": 36.970298,
            "lng": -91.5130789
          }
        },
        "location": {
          "lat": 40.6331249,
          "lng": -89.3985283
        },
        "location_type": "APPROXIMATE",
        "viewport": {
          "northeast": {
            "lat": 42.5083379,
            "lng": -87.4951991
          },
          "southwest": {
            "lat": 36.970298,
            "lng": -91.5130789
          }
        }
      },
      "place_id": "ChIJGSZubzgtC4gRVlkRZFCCFX8",
      "types": [
        "administrative_area_level_1",
        "political"
      ]
    },
    {
      "address_components": [
        {
          "long_name": "United States",
          "short_name": "US",
          "types": [
            "country",
            "political"
          ]
        }
      ],
      "formatted_address": "United States",
      "geometry": {
        "bounds": {
          "northeast": {
            "lat": 71.3867745,
            "lng": -66.9502861
          },
          "southwest": {
            "lat": 18.9106768,
            "lng": 172.4458955
          }
        },
        "location": {
          "lat": 37.09024,
          "lng": -95.712891
        },
        "location_type": "APPROXIMATE",
        "viewport": {
          "northeast": {
            "lat": 49.38,
            "lng": -66.94
          },
          "southwest": {
            "lat": 25.82,
            "lng": -124.39
          }
        }
      },
      "place_id": "ChIJCzYy5IS16lQRQrfeQ5K5Oxw",
      "types": [
        "country",
        "political"
      ]
    }
  ],
  "status": "OK"
}
