{
  "results": [
    {
      "address_components": [
        {
          "long_name": "4314",
          "short_name": "4314",
          "types": [
            "street_number"
          ]
        },
        {
          "long_name": "Willowbrook Road",
          "short_name": "Willowbrook Rd",
          "types": [
            "route"
          ]
        },
        {
          "long_name": "Long Grove",
          "short_name": "Long Grove",
          "types": [
            "locality",
            "political"
          ]
        },
        {
          "long_name": "Vernon Township",
          "short_name": "Vernon Township",
          "types": [
            "administrative_area_level_3",
            "political"
          ]
        },
        {
          "long_name": "Lake County",
          "short_name": "Lake County",
          "types": [
            "administrative_area_level_2",
            "political"
          ]
        },
        {
          "long_name": "Illinois",
          "short_name": "IL",
          "types": [
            "administrative_area_level_1",
            "political"
          ]
        },
        {
          "long_name": "United States",
          "short_name": "US",
          "types": [
            "country",
            "political"
          ]
        },
        {
          "long_name": "60047",
          "short_name": "60047",
          "types": [
            "postal_code"
          ]
        },
        {
          "long_name": "5225",
          "short_name": "5225",
          "types": [
            "postal_code_suffix"
          ]
        }
      ],
      "formatted_address": "4314 Willowbrook Rd, Long Grove, IL 60047, USA",
      "geometry": {
        "location": {
          "lat": 42.1964362,
          "lng": -88.0029319
        },
        "location_type": "ROOFTOP",
        "viewport": {
          "northeast": {
            "lat": 42.1977851802915,
            "lng": -88.00158291970848
          },
          "southwest": {
            "lat": 42.1950872197085,
            "lng": -88.00428088029149
          }
        }
      },
      "place_id": "ChIJ-U6xdje9D4gROWmUhbWUaNE",
      "types": [
        "street_address"
      ]
    },
    {
      "address_components": [
        {
          "long_name": "Long Grove",
          "short_name": "Long Grove",
          "types": [
            "locality",
            "political"
          ]
        },
        {
          "long_name": "Lake County",
          "short_name": "Lake County",
          "types": [
            "administrative_area_level_2",
            "political"
          ]
        },
        {
          "long_name": "Illinois",
          "short_name": "IL",
          "types": [
            "administrative_area_level_1",
            "political"
          ]
        },
        {
          "long_name": "United States",
          "short_name": "US",
          "types": [
            "country",
            "political"
          ]
        }
      ],
      "formatted_address": "Long Grove, IL, USA",
      "geometry": {
        "bounds": {
          "northeast": {
            "lat": 42.2526429,
            "lng": -87.96518499999999
          },
          "southwest": {
            "lat": 42.1537109,
            "lng": -88.0433269
          }
        },
        "location": {
          "lat": 42.1783584,
          "lng": -87.99785179999999
        },
        "location_type": "APPROXIMATE",
        "viewport": {
          "northeast": {
            "lat": 42.2526429,
            "lng": -87.96518499999999
          },
          "southwest": {
            "lat": 42.1537109,
            "lng": -88.0433269
          }
        }
      },
      "place_id": "ChIJty9Ge8yXD4gR9UurUck4ej8",
      "types": [
        "locality",
        "political"
      ]
    },
    {
      "address_components": [
        {
          "long_name": "Ela Township",
          "short_name": "Ela Township",
          "types": [
            "administrative_area_level_3",
            "political"
          ]
        },
        {
          "long_name": "Lake County",
          "short_name": "Lake County",
          "types": [
            "administrative_area_level_2",
            "political"
          ]
        },
        {
          "long_name": "Illinois",
          "short_name": "IL",
          "types": [
            "administrative_area_level_1",
            "political"
          ]
        },
        {
          "long_name": "United States",
          "short_name": "US",
          "types": [
            "country",
            "political"
          ]
        }
      ],
      "formatted_address": "Ela Township, IL, USA",
      "geometry": {
        "bounds": {
          "northeast": {
            "lat": 42.241112,
            "lng": -88.003742
          },
          "southwest": {
            "lat": 42.15365800000001,
            "lng": -88.121788
          }
        },
        "location": {
          "lat": 42.2003412,
          "lng": -88.0705319
        },
        "location_type": "APPROXIMATE",
        "viewport": {
          "northeast": {
            "lat": 42.241112,
            "lng": -88.003742
          },
          "southwest": {
            "lat": 42.15365800000001,
            "lng": -88.121788
          }
        }
      },
      "place_id": "ChIJdz6iBUOiD4gRT7AVH-l8bTU",
      "types": [
        "administrative_area_level_3",
        "political"
      ]
    },
    {
      "address_components": [
        {
          "long_name": "60047",
          "short_name": "60047",
          "types": [
            "postal_code"
          ]
        },
        {
          "long_name": "Lake Zurich",
          "short_name": "Lake Zurich",
          "types": [
            "locality",
            "political"
          ]
        },
        {
          "long_name": "Illinois",
          "short_name": "IL",
          "types": [
            "administrative_area_level_1",
            "political"
          ]
        },
        {
          "long_name": "United States",
          "short_name": "US",
          "types": [
            "country",
            "political"
          ]
        }
      ],
      "formatted_address": "Lake Zurich, IL 60047, USA",
      "geometry": {
        "bounds": {
          "northeast": {
            "lat": 42.26625900000001,
            "lng": -87.964945
          },
          "southwest": {
            "lat": 42.1525399,
            "lng": -88.120775
          }
        },
        "location": {
          "lat": 42.1970343,
          "lng": -88.0935013
        },
        "location_type": "APPROXIMATE",
        "viewport": {
          "northeast": {
            "lat": 42.26625900000001,
            "lng": -87.964945
          },
          "southwest": {
            "lat": 42.1525399,
            "lng": -88.120775
          }
        }
      },
      "place_id": "ChIJ87VdhISiD4gRMMcm34X7_kQ",
      "postcode_localities": [
        "Hawthorn Woods",
        "Kildeer",
        "Lake Zurich",
        "Long Grove"
      ],
      "types": [
        "postal_code"
      ]
    },
    {
      "address_components": [
        {
          "long_name": "Lake County",
          "short_name": "Lake County",
          "types": [
            "administrative_area_level_2",
            "political"
          ]
        },
        {
          "long_name": "Illinois",
          "short_name": "IL",
          "types": [
            "administrative_area_level_1",
            "political"
          ]
        },
        {
          "long_name": "United States",
          "short_name": "US",
          "types": [
            "country",
            "political"
          ]
        }
      ],
      "formatted_address": "Lake County, IL, USA",
      "geometry": {
        "bounds": {
          "northeast": {
            "lat": 42.49563699999999,
            "lng": -87.75900469999999
          },
          "southwest": {
            "lat": 42.152361,
            "lng": -88.1997628
          }
        },
        "location": {
          "lat": 42.3689363,
          "lng": -87.8271534
        },
        "location_type": "APPROXIMATE",
        "viewport": {
          "northeast": {
            "lat": 42.49563699999999,
            "lng": -87.75900469999999
          },
          "southwest": {
            "lat": 42.152361,
            "lng": -88.1997628
          }
        }
      },
      "place_id": "ChIJKdUvmscAD4gRZsVGNFFqkhs",
      "types": [
        "administrative_area_level_2",
        "political"
      ]
    },
    {
      "address_components": [
        {
          "long_name": "Chicago Metropolitan Area",
          "short_name": "Chicago Metropolitan Area",
          "types": [
            "political"
          ]
        },
        {
          "long_name": "United States",
          "short_name": "US",
          "types": [
            "country",
            "political"
          ]
        }
      ],
      "formatted_address": "Chicago Metropolitan Area, USA",
      "geometry": {
        "bounds": {
          "northeast": {
            "lat": 42.670123,
            "lng": -86.92925699999999
          },
          "southwest": {
            "lat": 40.7364641,
            "lng": -88.942292
          }
        },
        "location": {
          "lat": 41.7435073,
          "lng": -88.0118473
        },
        "location_type": "APPROXIMATE",
        "viewport": {
          "northeast": {
            "lat": 42.670123,
            "lng": -86.92925699999999
          },
          "southwest": {
            "lat": 40.7364641,
            "lng": -88.942292
          }
        }
      },
      "place_id": "ChIJg-CZjExEDogRNJNXmgqEe9o",
      "types": [
        "political"
      ]
    },
    {
      "address_components": [
        {
          "long_name": "Illinois",
          "short_name": "IL",
          "types": [
            "administrative_area_level_1",
            "political"
          ]
        },
        {
          "long_name": "United States",
          "short_name": "US",
          "types": [
            "country",
            "political"
          ]
        }
      ],
      "formatted_address": "Illinois, USA",
      "geometry": {
        "bounds": {
          "northeast": {
            "lat": 42.5083379,
            "lng": -87.4951991
          },
          "southwest": {
            "lat": 36.970298,
            "lng": -91.5130789
          }
        },
        "location": {
          "lat": 40.6331249,
          "lng": -89.3985283
        },
        "location_type": "APPROXIMATE",
        "viewport": {
          "northeast": {
            "lat": 42.5083379,
            "lng": -87.4951991
          },
          "southwest": {
            "lat": 36.970298,
            "lng": -91.5130789
          }
        }
      },
      "place_id": "ChIJGSZubzgtC4gRVlkRZFCCFX8",
      "types": [
        "administrative_area_level_1",
        "political"
      ]
    },
    {
      "address_components": [
        {
          "long_name": "United States",
          "short_name": "US",
          "types": [
            "country",
            "political"
          ]
        }
      ],
      "formatted_address": "United States",
      "geometry": {
        "bounds": {
          "northeast": {
            "lat": 71.3867745,
            "lng": -66.9502861
          },
          "southwest": {
            "lat": 18.9106768,
            "lng": 172.4458955
          }
        },
        "location": {
          "lat": 37.09024,
          "lng": -95.712891
        },
        "location_type": "APPROXIMATE",
        "viewport": {
          "northeast": {
            "lat": 49.38,
            "lng": -66.94
          },
          "southwest": {
            "lat": 25.82,
            "lng": -124.39
          }
        }
      },
      "place_id": "ChIJCzYy5IS16lQRQrfeQ5K5Oxw",
      "types": [
        "country",
        "political"
      ]
    }
  ],
  "status": "OK"
}
