{
  "results": [
    {
      "address_components": [
        {
          "long_name": "195",
          "short_name": "195",
          "types": [
            "street_number"
          ]
        },
        {
          "long_name": "White Horse Avenue",
          "short_name": "White Horse Ave",
          "types": [
            "route"
          ]
        },
        {
          "long_name": "White Horse",
          "short_name": "White Horse",
          "types": [
            "neighborhood",
            "political"
          ]
        },
        {
          "long_name": "Trenton",
          "short_name": "Trenton",
          "types": [
            "locality",
            "political"
          ]
        },
        {
          "long_name": "Mercer County",
          "short_name": "Mercer County",
          "types": [
            "administrative_area_level_2",
            "political"
          ]
        },
        {
          "long_name": "New Jersey",
          "short_name": "NJ",
          "types": [
            "administrative_area_level_1",
            "political"
          ]
        },
        {
          "long_name": "United States",
          "short_name": "US",
          "types": [
            "country",
            "political"
          ]
        },
        {
          "long_name": "08610",
          "short_name": "08610",
          "types": [
            "postal_code"
          ]
        },
        {
          "long_name": "2643",
          "short_name": "2643",
          "types": [
            "postal_code_suffix"
          ]
        }
      ],
      "formatted_address": "195 White Horse Ave, Trenton, NJ 08610, USA",
      "geometry": {
        "location": {
          "lat": 40.191977,
          "lng": -74.701944
        },
        "location_type": "ROOFTOP",
        "viewport": {
          "northeast": {
            "lat": 40.1933259802915,
            "lng": -74.70059501970849
          },
          "southwest": {
            "lat": 40.1906280197085,
            "lng": -74.70329298029151
          }
        }
      },
      "place_id": "ChIJj2xiTkRZwYkRngMpOkJj4kg",
      "types": [
        "street_address"
      ]
    },
    {
      "address_components": [
        {
          "long_name": "White Horse",
          "short_name": "White Horse",
          "types": [
            "neighborhood",
            "political"
          ]
        },
        {
          "long_name": "Hamilton Township",
          "short_name": "Hamilton Township",
          "types": [
            "locality",
            "political"
          ]
        },
        {
          "long_name": "Mercer County",
          "short_name": "Mercer County",
          "types": [
            "administrative_area_level_2",
            "political"
          ]
        },
        {
          "long_name": "New Jersey",
          "short_name": "NJ",
          "types": [
            "administrative_area_level_1",
            "political"
          ]
        },
        {
          "long_name": "United States",
          "short_name": "US",
          "types": [
            "country",
            "political"
          ]
        }
      ],
      "formatted_address": "White Horse, Hamilton Township, NJ, USA",
      "geometry": {
        "bounds": {
          "northeast": {
            "lat": 40.2073478,
            "lng": -74.6618369
          },
          "southwest": {
            "lat": 40.17568989999999,
            "lng": -74.744788
          }
        },
        "location": {
          "lat": 40.1906652,
          "lng": -74.7023816
        },
        "location_type": "APPROXIMATE",
        "viewport": {
          "northeast": {
            "lat": 40.2073478,
            "lng": -74.6618369
          },
          "southwest": {
            "lat": 40.17568989999999,
            "lng": -74.744788
          }
        }
      },
      "place_id": "ChIJBwWjYkNZwYkR3XZK5gFocrg",
      "types": [
        "neighborhood",
        "political"
      ]
    },
    {
      "address_components": [
        {
          "long_name": "Hamilton Township",
          "short_name": "Hamilton Township",
          "types": [
            "locality",
            "political"
          ]
        },
        {
          "long_name": "Mercer County",
          "short_name": "Mercer County",
          "types": [
            "administrative_area_level_2",
            "political"
          ]
        },
        {
          "long_name": "New Jersey",
          "short_name": "NJ",
          "types": [
            "administrative_area_level_1",
            "political"
          ]
        },
        {
          "long_name": "United States",
          "short_name": "US",
          "types": [
            "country",
            "political"
          ]
        }
      ],
      "formatted_address": "Hamilton Township, NJ, USA",
      "geometry": {
        "bounds": {
          "northeast": {
            "lat": 40.2709029,
            "lng": -74.587847
          },
          "southwest": {
            "lat": 40.136843,
            "lng": -74.752766
          }
        },
        "location": {
          "lat": 40.2115109,
          "lng": -74.6796651
        },
        "location_type": "APPROXIMATE",
        "viewport": {
          "northeast": {
            "lat": 40.2709029,
            "lng": -74.587847
          },
          "southwest": {
            "lat": 40.136843,
            "lng": -74.752766
          }
        }
      },
      "place_id": "ChIJvZRLQttewYkR9jioW_s46sY",
      "types": [
        "locality",
        "political"
      ]
    },
    {
      "address_components": [
        {
          "long_name": "08610",
          "short_name": "08610",
          "types": [
            "postal_code"
          ]
        },
        {
          "long_name": "Trenton",
          "short_name": "Trenton",
          "types": [
            "locality",
            "political"
          ]
        },
        {
          "long_name": "New Jersey",
          "short_name": "NJ",
          "types": [
            "administrative_area_level_1",
            "political"
          ]
        },
        {
          "long_name": "United States",
          "short_name": "US",
          "types": [
            "country",
            "political"
          ]
        }
      ],
      "formatted_address": "Trenton, NJ 08610, USA",
      "geometry": {
        "bounds": {
          "northeast": {
            "lat": 40.223088,
            "lng": -74.670079
          },
          "southwest": {
            "lat": 40.175044,
            "lng": -74.752841
          }
        },
        "location": {
          "lat": 40.1956132,
          "lng": -74.7161489
        },
        "location_type": "APPROXIMATE",
        "viewport": {
          "northeast": {
            "lat": 40.223088,
            "lng": -74.670079
          },
          "southwest": {
            "lat": 40.175044,
            "lng": -74.752841
          }
        }
      },
      "place_id": "ChIJ7SJOJWFZwYkRndzlVZifYFY",
      "postcode_localities": [
        "Hamilton Township",
        "Trenton"
      ],
      "types": [
        "postal_code"
      ]
    },
    {
      "address_components": [
        {
          "long_name": "Mercer County",
          "short_name": "Mercer County",
          "types": [
            "administrative_area_level_2",
            "political"
          ]
        },
        {
          "long_name": "New Jersey",
          "short_name": "NJ",
          "types": [
            "administrative_area_level_1",
            "political"
          ]
        },
        {
          "long_name": "United States",
          "short_name": "US",
          "types": [
            "country",
            "political"
          ]
        }
      ],
      "formatted_address": "Mercer County, NJ, USA",
      "geometry": {
        "bounds": {
          "northeast": {
            "lat": 40.424156,
            "lng": -74.481202
          },
          "southwest": {
            "lat": 40.136843,
            "lng": -74.941622
          }
        },
        "location": {
          "lat": 40.3028533,
          "lng": -74.7337069
        },
        "location_type": "APPROXIMATE",
        "viewport": {
          "northeast": {
            "lat": 40.424156,
            "lng": -74.481202
          },
          "southwest": {
            "lat": 40.136843,
            "lng": -74.941622
          }
        }
      },
      "place_id": "ChIJDX6oD-ZgwYkR7p55mCOiTMo",
      "types": [
        "administrative_area_level_2",
        "political"
      ]
    },
    {
      "address_components": [
        {
          "long_name": "New Jersey",
          "short_name": "NJ",
          "types": [
            "administrative_area_level_1",
            "political"
          ]
        },
        {
          "long_name": "United States",
          "short_name": "US",
          "types": [
            "country",
            "political"
          ]
        }
      ],
      "formatted_address": "New Jersey, USA",
      "geometry": {
        "bounds": {
          "northeast": {
            "lat": 41.357423,
            "lng": -73.9024391
          },
          "southwest": {
            "lat": 38.9285589,
            "lng": -75.5597921
          }
        },
        "location": {
          "lat": 40.0583238,
          "lng": -74.4056612
        },
        "location_type": "APPROXIMATE",
        "viewport": {
          "northeast": {
            "lat": 41.357423,
            "lng": -73.9024391
          },
          "southwest": {
            "lat": 38.9286032,
            "lng": -75.5597921
          }
        }
      },
      "place_id": "ChIJn0AAnpX7wIkRjW0_-Ad70iw",
      "types": [
        "administrative_area_level_1",
        "political"
      ]
    },
    {
      "address_components": [
        {
          "long_name": "United States",
          "short_name": "US",
          "types": [
            "country",
            "political"
          ]
        }
      ],
      "formatted_address": "United States",
      "geometry": {
        "bounds": {
          "northeast": {
            "lat": 71.3867745,
            "lng": -66.9502861
          },
          "southwest": {
            "lat": 18.9106768,
            "lng": 172.4458955
          }
        },
        "location": {
          "lat": 37.09024,
          "lng": -95.712891
        },
        "location_type": "APPROXIMATE",
        "viewport": {
          "northeast": {
            "lat": 49.38,
            "lng": -66.94
          },
          "southwest": {
            "lat": 25.82,
            "lng": -124.39
          }
        }
      },
      "place_id": "ChIJCzYy5IS16lQRQrfeQ5K5Oxw",
      "types": [
        "country",
        "political"
      ]
    }
  ],
  "status": "OK"
}
