{
  "results": [
    {
      "address_components": [
        {
          "long_name": "432-450",
          "short_name": "432-450",
          "types": [
            "street_number"
          ]
        },
        {
          "long_name": "Shady Lane",
          "short_name": "Shady Ln",
          "types": [
            "route"
          ]
        },
        {
          "long_name": "North Barrington",
          "short_name": "North Barrington",
          "types": [
            "locality",
            "political"
          ]
        },
        {
          "long_name": "Cuba Township",
          "short_name": "Cuba Township",
          "types": [
            "administrative_area_level_3",
            "political"
          ]
        },
        {
          "long_name": "Lake County",
          "short_name": "Lake County",
          "types": [
            "administrative_area_level_2",
            "political"
          ]
        },
        {
          "long_name": "Illinois",
          "short_name": "IL",
          "types": [
            "administrative_area_level_1",
            "political"
          ]
        },
        {
          "long_name": "United States",
          "short_name": "US",
          "types": [
            "country",
            "political"
          ]
        },
        {
          "long_name": "60010",
          "short_name": "60010",
          "types": [
            "postal_code"
          ]
        },
        {
          "long_name": "2163",
          "short_name": "2163",
          "types": [
            "postal_code_suffix"
          ]
        }
      ],
      "formatted_address": "432-450 Shady Ln, North Barrington, IL 60010, USA",
      "geometry": {
        "bounds": {
          "northeast": {
            "lat": 42.208929,
            "lng": -88.1308789
          },
          "southwest": {
            "lat": 42.206221,
            "lng": -88.131867
          }
        },
        "location": {
          "lat": 42.2065084,
          "lng": -88.1316542
        },
        "location_type": "RANGE_INTERPOLATED",
        "viewport": {
          "northeast": {
            "lat": 42.208929,
            "lng": -88.13002396970849
          },
          "southwest": {
            "lat": 42.206221,
            "lng": -88.13272193029151
          }
        }
      },
      "place_id": "EjE0MzItNDUwIFNoYWR5IExuLCBOb3J0aCBCYXJyaW5ndG9uLCBJTCA2MDAxMCwgVVNB",
      "types": [
        "street_address"
      ]
    },
    {
      "address_components": [
        {
          "long_name": "North Barrington",
          "short_name": "North Barrington",
          "types": [
            "locality",
            "political"
          ]
        },
        {
          "long_name": "Cuba Township",
          "short_name": "Cuba Township",
          "types": [
            "administrative_area_level_3",
            "political"
          ]
        },
        {
          "long_name": "Lake County",
          "short_name": "Lake County",
          "types": [
            "administrative_area_level_2",
            "political"
          ]
        },
        {
          "long_name": "Illinois",
          "short_name": "IL",
          "types": [
            "administrative_area_level_1",
            "political"
          ]
        },
        {
          "long_name": "United States",
          "short_name": "US",
          "types": [
            "country",
            "political"
          ]
        }
      ],
      "formatted_address": "North Barrington, IL, USA",
      "geometry": {
        "bounds": {
          "northeast": {
            "lat": 42.2412269,
            "lng": -88.11163189999999
          },
          "southwest": {
            "lat": 42.181256,
            "lng": -88.159757
          }
        },
        "location": {
          "lat": 42.207802,
          "lng": -88.1406349
        },
        "location_type": "APPROXIMATE",
        "viewport": {
          "northeast": {
            "lat": 42.2412269,
            "lng": -88.11163189999999
          },
          "southwest": {
            "lat": 42.181256,
            "lng": -88.159757
          }
        }
      },
      "place_id": "ChIJh2tf1i-gD4gRQERQz5W1Cgc",
      "types": [
        "locality",
        "political"
      ]
    },
    {
      "address_components": [
        {
          "long_name": "Cuba Township",
          "short_name": "Cuba Township",
          "types": [
            "administrative_area_level_3",
            "political"
          ]
        },
        {
          "long_name": "Lake County",
          "short_name": "Lake County",
          "types": [
            "administrative_area_level_2",
            "political"
          ]
        },
        {
          "long_name": "Illinois",
          "short_name": "IL",
          "types": [
            "administrative_area_level_1",
            "political"
          ]
        },
        {
          "long_name": "United States",
          "short_name": "US",
          "types": [
            "country",
            "political"
          ]
        }
      ],
      "formatted_address": "Cuba Township, IL, USA",
      "geometry": {
        "bounds": {
          "northeast": {
            "lat": 42.2457651,
            "lng": -88.120173
          },
          "southwest": {
            "lat": 42.1541821,
            "lng": -88.1997628
          }
        },
        "location": {
          "lat": 42.2016244,
          "lng": -88.14865700000001
        },
        "location_type": "APPROXIMATE",
        "viewport": {
          "northeast": {
            "lat": 42.2457651,
            "lng": -88.120173
          },
          "southwest": {
            "lat": 42.1541821,
            "lng": -88.1997628
          }
        }
      },
      "place_id": "ChIJ5x0N8XKgD4gRMBCvQBC0W4g",
      "types": [
        "administrative_area_level_3",
        "political"
      ]
    },
    {
      "address_components": [
        {
          "long_name": "60010",
          "short_name": "60010",
          "types": [
            "postal_code"
          ]
        },
        {
          "long_name": "Barrington",
          "short_name": "Barrington",
          "types": [
            "locality",
            "political"
          ]
        },
        {
          "long_name": "Illinois",
          "short_name": "IL",
          "types": [
            "administrative_area_level_1",
            "political"
          ]
        },
        {
          "long_name": "United States",
          "short_name": "US",
          "types": [
            "country",
            "political"
          ]
        }
      ],
      "formatted_address": "Barrington, IL 60010, USA",
      "geometry": {
        "bounds": {
          "northeast": {
            "lat": 42.2556419,
            "lng": -88.0505299
          },
          "southwest": {
            "lat": 42.0563379,
            "lng": -88.262743
          }
        },
        "location": {
          "lat": 42.1621397,
          "lng": -88.14865700000001
        },
        "location_type": "APPROXIMATE",
        "viewport": {
          "northeast": {
            "lat": 42.2556419,
            "lng": -88.0505299
          },
          "southwest": {
            "lat": 42.0563379,
            "lng": -88.262743
          }
        }
      },
      "place_id": "ChIJmdK54aigD4gRfYjsiHGFfgE",
      "postcode_localities": [
        "Barrington",
        "Deer Park",
        "FOX RV VLY GN",
        "HOFFMAN EST",
        "Hoffman Estates",
        "Inverness",
        "Kildeer",
        "Lake Barrington",
        "North Barrington",
        "Port Barrington"
      ],
      "types": [
        "postal_code"
      ]
    },
    {
      "address_components": [
        {
          "long_name": "Lake County",
          "short_name": "Lake County",
          "types": [
            "administrative_area_level_2",
            "political"
          ]
        },
        {
          "long_name": "Illinois",
          "short_name": "IL",
          "types": [
            "administrative_area_level_1",
            "political"
          ]
        },
        {
          "long_name": "United States",
          "short_name": "US",
          "types": [
            "country",
            "political"
          ]
        }
      ],
      "formatted_address": "Lake County, IL, USA",
      "geometry": {
        "bounds": {
          "northeast": {
            "lat": 42.49563699999999,
            "lng": -87.75900469999999
          },
          "southwest": {
            "lat": 42.152361,
            "lng": -88.1997628
          }
        },
        "location": {
          "lat": 42.3689363,
          "lng": -87.8271534
        },
        "location_type": "APPROXIMATE",
        "viewport": {
          "northeast": {
            "lat": 42.49563699999999,
            "lng": -87.75900469999999
          },
          "southwest": {
            "lat": 42.152361,
            "lng": -88.1997628
          }
        }
      },
      "place_id": "ChIJKdUvmscAD4gRZsVGNFFqkhs",
      "types": [
        "administrative_area_level_2",
        "political"
      ]
    },
    {
      "address_components": [
        {
          "long_name": "Chicago Metropolitan Area",
          "short_name": "Chicago Metropolitan Area",
          "types": [
            "political"
          ]
        },
        {
          "long_name": "United States",
          "short_name": "US",
          "types": [
            "country",
            "political"
          ]
        }
      ],
      "formatted_address": "Chicago Metropolitan Area, USA",
      "geometry": {
        "bounds": {
          "northeast": {
            "lat": 42.670123,
            "lng": -86.92925699999999
          },
          "southwest": {
            "lat": 40.7364641,
            "lng": -88.942292
          }
        },
        "location": {
          "lat": 41.7435073,
          "lng": -88.0118473
        },
        "location_type": "APPROXIMATE",
        "viewport": {
          "northeast": {
            "lat": 42.670123,
            "lng": -86.92925699999999
          },
          "southwest": {
            "lat": 40.7364641,
            "lng": -88.942292
          }
        }
      },
      "place_id": "ChIJg-CZjExEDogRNJNXmgqEe9o",
      "types": [
        "political"
      ]
    },
    {
      "address_components": [
        {
          "long_name": "Illinois",
          "short_name": "IL",
          "types": [
            "administrative_area_level_1",
            "political"
          ]
        },
        {
          "long_name": "United States",
          "short_name": "US",
          "types": [
            "country",
            "political"
          ]
        }
      ],
      "formatted_address": "Illinois, USA",
      "geometry": {
        "bounds": {
          "northeast": {
            "lat": 42.5083379,
            "lng": -87.4951991
          },
          "southwest": {
            "lat": 36.970298,
            "lng": -91.5130789
          }
        },
        "location": {
          "lat": 40.6331249,
          "lng": -89.3985283
        },
        "location_type": "APPROXIMATE",
        "viewport": {
          "northeast": {
            "lat": 42.5083379,
            "lng": -87.4951991
          },
          "southwest": {
            "lat": 36.970298,
            "lng": -91.5130789
          }
        }
      },
      "place_id": "ChIJGSZubzgtC4gRVlkRZFCCFX8",
      "types": [
        "administrative_area_level_1",
        "political"
      ]
    },
    {
      "address_components": [
        {
          "long_name": "United States",
          "short_name": "US",
          "types": [
            "country",
            "political"
          ]
        }
      ],
      "formatted_address": "United States",
      "geometry": {
        "bounds": {
          "northeast": {
            "lat": 71.3867745,
            "lng": -66.9502861
          },
          "southwest": {
            "lat": 18.9106768,
            "lng": 172.4458955
          }
        },
        "location": {
          "lat": 37.09024,
          "lng": -95.712891
        },
        "location_type": "APPROXIMATE",
        "viewport": {
          "northeast": {
            "lat": 49.38,
            "lng": -66.94
          },
          "southwest": {
            "lat": 25.82,
            "lng": -124.39
          }
        }
      },
      "place_id": "ChIJCzYy5IS16lQRQrfeQ5K5Oxw",
      "types": [
        "country",
        "political"
      ]
    }
  ],
  "status": "OK"
}
