{
  "results": [
    {
      "address_components": [
        {
          "long_name": "3054",
          "short_name": "3054",
          "types": [
            "street_number"
          ]
        },
        {
          "long_name": "Willardshire Road",
          "short_name": "Willardshire Rd",
          "types": [
            "route"
          ]
        },
        {
          "long_name": "Joliet",
          "short_name": "Joliet",
          "types": [
            "locality",
            "political"
          ]
        },
        {
          "long_name": "Plainfield Township",
          "short_name": "Plainfield Township",
          "types": [
            "administrative_area_level_3",
            "political"
          ]
        },
        {
          "long_name": "Will County",
          "short_name": "Will County",
          "types": [
            "administrative_area_level_2",
            "political"
          ]
        },
        {
          "long_name": "Illinois",
          "short_name": "IL",
          "types": [
            "administrative_area_level_1",
            "political"
          ]
        },
        {
          "long_name": "United States",
          "short_name": "US",
          "types": [
            "country",
            "political"
          ]
        },
        {
          "long_name": "60431",
          "short_name": "60431",
          "types": [
            "postal_code"
          ]
        },
        {
          "long_name": "1247",
          "short_name": "1247",
          "types": [
            "postal_code_suffix"
          ]
        }
      ],
      "formatted_address": "3054 Willardshire Rd, Joliet, IL 60431, USA",
      "geometry": {
        "location": {
          "lat": 41.568397,
          "lng": -88.1638059
        },
        "location_type": "ROOFTOP",
        "viewport": {
          "northeast": {
            "lat": 41.5697459802915,
            "lng": -88.16245691970849
          },
          "southwest": {
            "lat": 41.5670480197085,
            "lng": -88.16515488029151
          }
        }
      },
      "place_id": "ChIJNbFAMB9gDogRYzqKFLY-_Pg",
      "types": [
        "street_address"
      ]
    },
    {
      "address_components": [
        {
          "long_name": "Crystal Lawns",
          "short_name": "Crystal Lawns",
          "types": [
            "locality",
            "political"
          ]
        },
        {
          "long_name": "Plainfield Township",
          "short_name": "Plainfield Township",
          "types": [
            "administrative_area_level_3",
            "political"
          ]
        },
        {
          "long_name": "Will County",
          "short_name": "Will County",
          "types": [
            "administrative_area_level_2",
            "political"
          ]
        },
        {
          "long_name": "Illinois",
          "short_name": "IL",
          "types": [
            "administrative_area_level_1",
            "political"
          ]
        },
        {
          "long_name": "United States",
          "short_name": "US",
          "types": [
            "country",
            "political"
          ]
        }
      ],
      "formatted_address": "Crystal Lawns, IL, USA",
      "geometry": {
        "bounds": {
          "northeast": {
            "lat": 41.582392,
            "lng": -88.1406611
          },
          "southwest": {
            "lat": 41.5651299,
            "lng": -88.181062
          }
        },
        "location": {
          "lat": 41.5703083,
          "lng": -88.1581178
        },
        "location_type": "APPROXIMATE",
        "viewport": {
          "northeast": {
            "lat": 41.582392,
            "lng": -88.1406611
          },
          "southwest": {
            "lat": 41.5651299,
            "lng": -88.181062
          }
        }
      },
      "place_id": "ChIJz6M3WhdgDogRDfZjVuH5ZpM",
      "types": [
        "locality",
        "political"
      ]
    },
    {
      "address_components": [
        {
          "long_name": "60431",
          "short_name": "60431",
          "types": [
            "postal_code"
          ]
        },
        {
          "long_name": "Joliet",
          "short_name": "Joliet",
          "types": [
            "locality",
            "political"
          ]
        },
        {
          "long_name": "Illinois",
          "short_name": "IL",
          "types": [
            "administrative_area_level_1",
            "political"
          ]
        },
        {
          "long_name": "United States",
          "short_name": "US",
          "types": [
            "country",
            "political"
          ]
        }
      ],
      "formatted_address": "Joliet, IL 60431, USA",
      "geometry": {
        "bounds": {
          "northeast": {
            "lat": 41.583918,
            "lng": -88.142988
          },
          "southwest": {
            "lat": 41.48082,
            "lng": -88.2946001
          }
        },
        "location": {
          "lat": 41.5119669,
          "lng": -88.1827931
        },
        "location_type": "APPROXIMATE",
        "viewport": {
          "northeast": {
            "lat": 41.583918,
            "lng": -88.142988
          },
          "southwest": {
            "lat": 41.48082,
            "lng": -88.19949
          }
        }
      },
      "place_id": "ChIJWQuXABGKDogRYmjDXz2lrr0",
      "postcode_localities": [
        "Joliet",
        "Shorewood"
      ],
      "types": [
        "postal_code"
      ]
    },
    {
      "address_components": [
        {
          "long_name": "Plainfield Township",
          "short_name": "Plainfield Township",
          "types": [
            "administrative_area_level_3",
            "political"
          ]
        },
        {
          "long_name": "Will County",
          "short_name": "Will County",
          "types": [
            "administrative_area_level_2",
            "political"
          ]
        },
        {
          "long_name": "Illinois",
          "short_name": "IL",
          "types": [
            "administrative_area_level_1",
            "political"
          ]
        },
        {
          "long_name": "United States",
          "short_name": "US",
          "types": [
            "country",
            "political"
          ]
        }
      ],
      "formatted_address": "Plainfield Township, IL, USA",
      "geometry": {
        "bounds": {
          "northeast": {
            "lat": 41.6384299,
            "lng": -88.141735
          },
          "southwest": {
            "lat": 41.55013,
            "lng": -88.2590671
          }
        },
        "location": {
          "lat": 41.6069061,
          "lng": -88.1876676
        },
        "location_type": "APPROXIMATE",
        "viewport": {
          "northeast": {
            "lat": 41.6384299,
            "lng": -88.141735
          },
          "southwest": {
            "lat": 41.55013,
            "lng": -88.2590671
          }
        }
      },
      "place_id": "ChIJYc3eTC71DogRKbdIG13v1nc",
      "types": [
        "administrative_area_level_3",
        "political"
      ]
    },
    {
      "address_components": [
        {
          "long_name": "Will County",
          "short_name": "Will County",
          "types": [
            "administrative_area_level_2",
            "political"
          ]
        },
        {
          "long_name": "Illinois",
          "short_name": "IL",
          "types": [
            "administrative_area_level_1",
            "political"
          ]
        },
        {
          "long_name": "United States",
          "short_name": "US",
          "types": [
            "country",
            "political"
          ]
        }
      ],
      "formatted_address": "Will County, IL, USA",
      "geometry": {
        "bounds": {
          "northeast": {
            "lat": 41.72893,
            "lng": -87.52530209999999
          },
          "southwest": {
            "lat": 41.2015529,
            "lng": -88.2614679
          }
        },
        "location": {
          "lat": 41.5054724,
          "lng": -88.0900762
        },
        "location_type": "APPROXIMATE",
        "viewport": {
          "northeast": {
            "lat": 41.72893,
            "lng": -87.52530209999999
          },
          "southwest": {
            "lat": 41.2015529,
            "lng": -88.2614679
          }
        }
      },
      "place_id": "ChIJuwvCvgOLDogRSNhOfXa7wKA",
      "types": [
        "administrative_area_level_2",
        "political"
      ]
    },
    {
      "address_components": [
        {
          "long_name": "Chicago Metropolitan Area",
          "short_name": "Chicago Metropolitan Area",
          "types": [
            "political"
          ]
        },
        {
          "long_name": "United States",
          "short_name": "US",
          "types": [
            "country",
            "political"
          ]
        }
      ],
      "formatted_address": "Chicago Metropolitan Area, USA",
      "geometry": {
        "bounds": {
          "northeast": {
            "lat": 42.670123,
            "lng": -86.92925699999999
          },
          "southwest": {
            "lat": 40.7364641,
            "lng": -88.942292
          }
        },
        "location": {
          "lat": 41.7435073,
          "lng": -88.0118473
        },
        "location_type": "APPROXIMATE",
        "viewport": {
          "northeast": {
            "lat": 42.670123,
            "lng": -86.92925699999999
          },
          "southwest": {
            "lat": 40.7364641,
            "lng": -88.942292
          }
        }
      },
      "place_id": "ChIJg-CZjExEDogRNJNXmgqEe9o",
      "types": [
        "political"
      ]
    },
    {
      "address_components": [
        {
          "long_name": "Illinois",
          "short_name": "IL",
          "types": [
            "administrative_area_level_1",
            "political"
          ]
        },
        {
          "long_name": "United States",
          "short_name": "US",
          "types": [
            "country",
            "political"
          ]
        }
      ],
      "formatted_address": "Illinois, USA",
      "geometry": {
        "bounds": {
          "northeast": {
            "lat": 42.5083379,
            "lng": -87.4951991
          },
          "southwest": {
            "lat": 36.970298,
            "lng": -91.5130789
          }
        },
        "location": {
          "lat": 40.6331249,
          "lng": -89.3985283
        },
        "location_type": "APPROXIMATE",
        "viewport": {
          "northeast": {
            "lat": 42.5083379,
            "lng": -87.4951991
          },
          "southwest": {
            "lat": 36.970298,
            "lng": -91.5130789
          }
        }
      },
      "place_id": "ChIJGSZubzgtC4gRVlkRZFCCFX8",
      "types": [
        "administrative_area_level_1",
        "political"
      ]
    },
    {
      "address_components": [
        {
          "long_name": "United States",
          "short_name": "US",
          "types": [
            "country",
            "political"
          ]
        }
      ],
      "formatted_address": "United States",
      "geometry": {
        "bounds": {
          "northeast": {
            "lat": 71.3867745,
            "lng": -66.9502861
          },
          "southwest": {
            "lat": 18.9106768,
            "lng": 172.4458955
          }
        },
        "location": {
          "lat": 37.09024,
          "lng": -95.712891
        },
        "location_type": "APPROXIMATE",
        "viewport": {
          "northeast": {
            "lat": 49.38,
            "lng": -66.94
          },
          "southwest": {
            "lat": 25.82,
            "lng": -124.39
          }
        }
      },
      "place_id": "ChIJCzYy5IS16lQRQrfeQ5K5Oxw",
      "types": [
        "country",
        "political"
      ]
    }
  ],
  "status": "OK"
}
