{
  "results": [
    {
      "address_components": [
        {
          "long_name": "21701",
          "short_name": "21701",
          "types": [
            "street_number"
          ]
        },
        {
          "long_name": "Hintze Road",
          "short_name": "Hintze Rd",
          "types": [
            "route"
          ]
        },
        {
          "long_name": "Wilmington",
          "short_name": "Wilmington",
          "types": [
            "locality",
            "political"
          ]
        },
        {
          "long_name": "Wesley Township",
          "short_name": "Wesley Township",
          "types": [
            "administrative_area_level_3",
            "political"
          ]
        },
        {
          "long_name": "Will County",
          "short_name": "Will County",
          "types": [
            "administrative_area_level_2",
            "political"
          ]
        },
        {
          "long_name": "Illinois",
          "short_name": "IL",
          "types": [
            "administrative_area_level_1",
            "political"
          ]
        },
        {
          "long_name": "United States",
          "short_name": "US",
          "types": [
            "country",
            "political"
          ]
        },
        {
          "long_name": "60481",
          "short_name": "60481",
          "types": [
            "postal_code"
          ]
        },
        {
          "long_name": "1764",
          "short_name": "1764",
          "types": [
            "postal_code_suffix"
          ]
        }
      ],
      "formatted_address": "21701 Hintze Rd, Wilmington, IL 60481, USA",
      "geometry": {
        "location": {
          "lat": 41.270997,
          "lng": -88.1334
        },
        "location_type": "ROOFTOP",
        "viewport": {
          "northeast": {
            "lat": 41.2723459802915,
            "lng": -88.1320510197085
          },
          "southwest": {
            "lat": 41.26964801970851,
            "lng": -88.1347489802915
          }
        }
      },
      "place_id": "ChIJ04Ay44N_DogRbgf3RZHLlXM",
      "types": [
        "street_address"
      ]
    },
    {
      "address_components": [
        {
          "long_name": "Lakewood Shores",
          "short_name": "Lakewood Shores",
          "types": [
            "locality",
            "political"
          ]
        },
        {
          "long_name": "Wesley Township",
          "short_name": "Wesley Township",
          "types": [
            "administrative_area_level_3",
            "political"
          ]
        },
        {
          "long_name": "Will County",
          "short_name": "Will County",
          "types": [
            "administrative_area_level_2",
            "political"
          ]
        },
        {
          "long_name": "Illinois",
          "short_name": "IL",
          "types": [
            "administrative_area_level_1",
            "political"
          ]
        },
        {
          "long_name": "United States",
          "short_name": "US",
          "types": [
            "country",
            "political"
          ]
        },
        {
          "long_name": "60481",
          "short_name": "60481",
          "types": [
            "postal_code"
          ]
        }
      ],
      "formatted_address": "Lakewood Shores, IL 60481, USA",
      "geometry": {
        "bounds": {
          "northeast": {
            "lat": 41.290895,
            "lng": -88.1249069
          },
          "southwest": {
            "lat": 41.245711,
            "lng": -88.1507649
          }
        },
        "location": {
          "lat": 41.2816984,
          "lng": -88.14477939999999
        },
        "location_type": "APPROXIMATE",
        "viewport": {
          "northeast": {
            "lat": 41.290895,
            "lng": -88.1249069
          },
          "southwest": {
            "lat": 41.245711,
            "lng": -88.1507649
          }
        }
      },
      "place_id": "ChIJ2Rw2OIZ_DogRYh_xJpfqoiM",
      "types": [
        "locality",
        "political"
      ]
    },
    {
      "address_components": [
        {
          "long_name": "Wesley Township",
          "short_name": "Wesley Township",
          "types": [
            "administrative_area_level_3",
            "political"
          ]
        },
        {
          "long_name": "Will County",
          "short_name": "Will County",
          "types": [
            "administrative_area_level_2",
            "political"
          ]
        },
        {
          "long_name": "Illinois",
          "short_name": "IL",
          "types": [
            "administrative_area_level_1",
            "political"
          ]
        },
        {
          "long_name": "United States",
          "short_name": "US",
          "types": [
            "country",
            "political"
          ]
        }
      ],
      "formatted_address": "Wesley Township, IL, USA",
      "geometry": {
        "bounds": {
          "northeast": {
            "lat": 41.2922919,
            "lng": -88.011865
          },
          "southwest": {
            "lat": 41.2076579,
            "lng": -88.1537659
          }
        },
        "location": {
          "lat": 41.2548716,
          "lng": -88.08030509999999
        },
        "location_type": "APPROXIMATE",
        "viewport": {
          "northeast": {
            "lat": 41.2922919,
            "lng": -88.011865
          },
          "southwest": {
            "lat": 41.2076579,
            "lng": -88.1537659
          }
        }
      },
      "place_id": "ChIJN69m9ArXDYgRPpi5gBCB45o",
      "types": [
        "administrative_area_level_3",
        "political"
      ]
    },
    {
      "address_components": [
        {
          "long_name": "60481",
          "short_name": "60481",
          "types": [
            "postal_code"
          ]
        },
        {
          "long_name": "Wilmington",
          "short_name": "Wilmington",
          "types": [
            "locality",
            "political"
          ]
        },
        {
          "long_name": "Illinois",
          "short_name": "IL",
          "types": [
            "administrative_area_level_1",
            "political"
          ]
        },
        {
          "long_name": "United States",
          "short_name": "US",
          "types": [
            "country",
            "political"
          ]
        }
      ],
      "formatted_address": "Wilmington, IL 60481, USA",
      "geometry": {
        "bounds": {
          "northeast": {
            "lat": 41.430273,
            "lng": -87.976359
          },
          "southwest": {
            "lat": 41.18971510000001,
            "lng": -88.26705799999999
          }
        },
        "location": {
          "lat": 41.3058508,
          "lng": -88.1291387
        },
        "location_type": "APPROXIMATE",
        "viewport": {
          "northeast": {
            "lat": 41.430273,
            "lng": -87.976359
          },
          "southwest": {
            "lat": 41.18971510000001,
            "lng": -88.26705799999999
          }
        }
      },
      "place_id": "ChIJ5SHqfVTVDYgRrjf0GXa4ab4",
      "postcode_localities": [
        "Custer Park",
        "Wilmington"
      ],
      "types": [
        "postal_code"
      ]
    },
    {
      "address_components": [
        {
          "long_name": "Will County",
          "short_name": "Will County",
          "types": [
            "administrative_area_level_2",
            "political"
          ]
        },
        {
          "long_name": "Illinois",
          "short_name": "IL",
          "types": [
            "administrative_area_level_1",
            "political"
          ]
        },
        {
          "long_name": "United States",
          "short_name": "US",
          "types": [
            "country",
            "political"
          ]
        }
      ],
      "formatted_address": "Will County, IL, USA",
      "geometry": {
        "bounds": {
          "northeast": {
            "lat": 41.72893,
            "lng": -87.52530209999999
          },
          "southwest": {
            "lat": 41.2015529,
            "lng": -88.2614679
          }
        },
        "location": {
          "lat": 41.5054724,
          "lng": -88.0900762
        },
        "location_type": "APPROXIMATE",
        "viewport": {
          "northeast": {
            "lat": 41.72893,
            "lng": -87.52530209999999
          },
          "southwest": {
            "lat": 41.2015529,
            "lng": -88.2614679
          }
        }
      },
      "place_id": "ChIJuwvCvgOLDogRSNhOfXa7wKA",
      "types": [
        "administrative_area_level_2",
        "political"
      ]
    },
    {
      "address_components": [
        {
          "long_name": "Chicago Metropolitan Area",
          "short_name": "Chicago Metropolitan Area",
          "types": [
            "political"
          ]
        },
        {
          "long_name": "United States",
          "short_name": "US",
          "types": [
            "country",
            "political"
          ]
        }
      ],
      "formatted_address": "Chicago Metropolitan Area, USA",
      "geometry": {
        "bounds": {
          "northeast": {
            "lat": 42.670123,
            "lng": -86.92925699999999
          },
          "southwest": {
            "lat": 40.7364641,
            "lng": -88.942292
          }
        },
        "location": {
          "lat": 41.7435073,
          "lng": -88.0118473
        },
        "location_type": "APPROXIMATE",
        "viewport": {
          "northeast": {
            "lat": 42.670123,
            "lng": -86.92925699999999
          },
          "southwest": {
            "lat": 40.7364641,
            "lng": -88.942292
          }
        }
      },
      "place_id": "ChIJg-CZjExEDogRNJNXmgqEe9o",
      "types": [
        "political"
      ]
    },
    {
      "address_components": [
        {
          "long_name": "Illinois",
          "short_name": "IL",
          "types": [
            "administrative_area_level_1",
            "political"
          ]
        },
        {
          "long_name": "United States",
          "short_name": "US",
          "types": [
            "country",
            "political"
          ]
        }
      ],
      "formatted_address": "Illinois, USA",
      "geometry": {
        "bounds": {
          "northeast": {
            "lat": 42.5083379,
            "lng": -87.4951991
          },
          "southwest": {
            "lat": 36.970298,
            "lng": -91.5130789
          }
        },
        "location": {
          "lat": 40.6331249,
          "lng": -89.3985283
        },
        "location_type": "APPROXIMATE",
        "viewport": {
          "northeast": {
            "lat": 42.5083379,
            "lng": -87.4951991
          },
          "southwest": {
            "lat": 36.970298,
            "lng": -91.5130789
          }
        }
      },
      "place_id": "ChIJGSZubzgtC4gRVlkRZFCCFX8",
      "types": [
        "administrative_area_level_1",
        "political"
      ]
    },
    {
      "address_components": [
        {
          "long_name": "United States",
          "short_name": "US",
          "types": [
            "country",
            "political"
          ]
        }
      ],
      "formatted_address": "United States",
      "geometry": {
        "bounds": {
          "northeast": {
            "lat": 71.3867745,
            "lng": -66.9502861
          },
          "southwest": {
            "lat": 18.9106768,
            "lng": 172.4458955
          }
        },
        "location": {
          "lat": 37.09024,
          "lng": -95.712891
        },
        "location_type": "APPROXIMATE",
        "viewport": {
          "northeast": {
            "lat": 49.38,
            "lng": -66.94
          },
          "southwest": {
            "lat": 25.82,
            "lng": -124.39
          }
        }
      },
      "place_id": "ChIJCzYy5IS16lQRQrfeQ5K5Oxw",
      "types": [
        "country",
        "political"
      ]
    }
  ],
  "status": "OK"
}
