{
  "results": [
    {
      "address_components": [
        {
          "long_name": "960",
          "short_name": "960",
          "types": [
            "street_number"
          ]
        },
        {
          "long_name": "Lincoln Street",
          "short_name": "Lincoln St",
          "types": [
            "route"
          ]
        },
        {
          "long_name": "Saint Libory",
          "short_name": "St Libory",
          "types": [
            "locality",
            "political"
          ]
        },
        {
          "long_name": "Fayetteville Township",
          "short_name": "Fayetteville Township",
          "types": [
            "administrative_area_level_3",
            "political"
          ]
        },
        {
          "long_name": "St. Clair County",
          "short_name": "St Clair County",
          "types": [
            "administrative_area_level_2",
            "political"
          ]
        },
        {
          "long_name": "Illinois",
          "short_name": "IL",
          "types": [
            "administrative_area_level_1",
            "political"
          ]
        },
        {
          "long_name": "United States",
          "short_name": "US",
          "types": [
            "country",
            "political"
          ]
        },
        {
          "long_name": "62282",
          "short_name": "62282",
          "types": [
            "postal_code"
          ]
        }
      ],
      "formatted_address": "960 Lincoln St, St Libory, IL 62282, USA",
      "geometry": {
        "location": {
          "lat": 38.36302999999999,
          "lng": -89.712874
        },
        "location_type": "ROOFTOP",
        "viewport": {
          "northeast": {
            "lat": 38.3643789802915,
            "lng": -89.71152501970849
          },
          "southwest": {
            "lat": 38.3616810197085,
            "lng": -89.7142229802915
          }
        }
      },
      "place_id": "ChIJzQlxZdkUdogRtUzNbkwSwmc",
      "types": [
        "street_address"
      ]
    },
    {
      "address_components": [
        {
          "long_name": "Saint Libory",
          "short_name": "St Libory",
          "types": [
            "locality",
            "political"
          ]
        },
        {
          "long_name": "Fayetteville Township",
          "short_name": "Fayetteville Township",
          "types": [
            "administrative_area_level_3",
            "political"
          ]
        },
        {
          "long_name": "St. Clair County",
          "short_name": "St Clair County",
          "types": [
            "administrative_area_level_2",
            "political"
          ]
        },
        {
          "long_name": "Illinois",
          "short_name": "IL",
          "types": [
            "administrative_area_level_1",
            "political"
          ]
        },
        {
          "long_name": "United States",
          "short_name": "US",
          "types": [
            "country",
            "political"
          ]
        }
      ],
      "formatted_address": "St Libory, IL, USA",
      "geometry": {
        "bounds": {
          "northeast": {
            "lat": 38.372855,
            "lng": -89.70401199999999
          },
          "southwest": {
            "lat": 38.3521208,
            "lng": -89.7270399
          }
        },
        "location": {
          "lat": 38.3625488,
          "lng": -89.7098187
        },
        "location_type": "APPROXIMATE",
        "viewport": {
          "northeast": {
            "lat": 38.372855,
            "lng": -89.70401199999999
          },
          "southwest": {
            "lat": 38.3521208,
            "lng": -89.7270399
          }
        }
      },
      "place_id": "ChIJuZc4_tcUdogRUj9CTQiAtTo",
      "types": [
        "locality",
        "political"
      ]
    },
    {
      "address_components": [
        {
          "long_name": "Fayetteville Township",
          "short_name": "Fayetteville Township",
          "types": [
            "administrative_area_level_3",
            "political"
          ]
        },
        {
          "long_name": "St. Clair County",
          "short_name": "St Clair County",
          "types": [
            "administrative_area_level_2",
            "political"
          ]
        },
        {
          "long_name": "Illinois",
          "short_name": "IL",
          "types": [
            "administrative_area_level_1",
            "political"
          ]
        },
        {
          "long_name": "United States",
          "short_name": "US",
          "types": [
            "country",
            "political"
          ]
        }
      ],
      "formatted_address": "Fayetteville Township, IL, USA",
      "geometry": {
        "bounds": {
          "northeast": {
            "lat": 38.42491589999999,
            "lng": -89.7037199
          },
          "southwest": {
            "lat": 38.305505,
            "lng": -89.817201
          }
        },
        "location": {
          "lat": 38.3795286,
          "lng": -89.7567693
        },
        "location_type": "APPROXIMATE",
        "viewport": {
          "northeast": {
            "lat": 38.42491589999999,
            "lng": -89.7037199
          },
          "southwest": {
            "lat": 38.305505,
            "lng": -89.817201
          }
        }
      },
      "place_id": "ChIJ4URIyjYUdogR74_589Pi9Ks",
      "types": [
        "administrative_area_level_3",
        "political"
      ]
    },
    {
      "address_components": [
        {
          "long_name": "62257",
          "short_name": "62257",
          "types": [
            "postal_code"
          ]
        },
        {
          "long_name": "Marissa",
          "short_name": "Marissa",
          "types": [
            "locality",
            "political"
          ]
        },
        {
          "long_name": "Illinois",
          "short_name": "IL",
          "types": [
            "administrative_area_level_1",
            "political"
          ]
        },
        {
          "long_name": "United States",
          "short_name": "US",
          "types": [
            "country",
            "political"
          ]
        }
      ],
      "formatted_address": "Marissa, IL 62257, USA",
      "geometry": {
        "bounds": {
          "northeast": {
            "lat": 38.411919,
            "lng": -89.629244
          },
          "southwest": {
            "lat": 38.1904508,
            "lng": -89.856197
          }
        },
        "location": {
          "lat": 38.2529707,
          "lng": -89.7192132
        },
        "location_type": "APPROXIMATE",
        "viewport": {
          "northeast": {
            "lat": 38.411919,
            "lng": -89.629244
          },
          "southwest": {
            "lat": 38.1904508,
            "lng": -89.856197
          }
        }
      },
      "place_id": "ChIJR4n8EJIUdogRsTJ4Rk_b9Pg",
      "types": [
        "postal_code"
      ]
    },
    {
      "address_components": [
        {
          "long_name": "St. Clair County",
          "short_name": "St Clair County",
          "types": [
            "administrative_area_level_2",
            "political"
          ]
        },
        {
          "long_name": "Illinois",
          "short_name": "IL",
          "types": [
            "administrative_area_level_1",
            "political"
          ]
        },
        {
          "long_name": "United States",
          "short_name": "US",
          "types": [
            "country",
            "political"
          ]
        }
      ],
      "formatted_address": "St Clair County, IL, USA",
      "geometry": {
        "bounds": {
          "northeast": {
            "lat": 38.6606498,
            "lng": -89.7032468
          },
          "southwest": {
            "lat": 38.2194181,
            "lng": -90.26637079999999
          }
        },
        "location": {
          "lat": 38.40081199999999,
          "lng": -89.9253233
        },
        "location_type": "APPROXIMATE",
        "viewport": {
          "northeast": {
            "lat": 38.6606498,
            "lng": -89.7032468
          },
          "southwest": {
            "lat": 38.2194181,
            "lng": -90.26637079999999
          }
        }
      },
      "place_id": "ChIJeRbja679dYgR3ASXSadGyno",
      "types": [
        "administrative_area_level_2",
        "political"
      ]
    },
    {
      "address_components": [
        {
          "long_name": "St. Louis",
          "short_name": "St. Louis",
          "types": [
            "political"
          ]
        },
        {
          "long_name": "United States",
          "short_name": "US",
          "types": [
            "country",
            "political"
          ]
        }
      ],
      "formatted_address": "St. Louis, USA",
      "geometry": {
        "bounds": {
          "northeast": {
            "lat": 39.5233661,
            "lng": -89.138356
          },
          "southwest": {
            "lat": 37.7341961,
            "lng": -91.4186371
          }
        },
        "location": {
          "lat": 38.8196814,
          "lng": -90.4502368
        },
        "location_type": "APPROXIMATE",
        "viewport": {
          "northeast": {
            "lat": 39.5233661,
            "lng": -89.138356
          },
          "southwest": {
            "lat": 37.7341961,
            "lng": -91.4186371
          }
        }
      },
      "place_id": "ChIJneBzzj4z34cRFGg2ez6q57o",
      "types": [
        "political"
      ]
    },
    {
      "address_components": [
        {
          "long_name": "Illinois",
          "short_name": "IL",
          "types": [
            "administrative_area_level_1",
            "political"
          ]
        },
        {
          "long_name": "United States",
          "short_name": "US",
          "types": [
            "country",
            "political"
          ]
        }
      ],
      "formatted_address": "Illinois, USA",
      "geometry": {
        "bounds": {
          "northeast": {
            "lat": 42.5083379,
            "lng": -87.4951991
          },
          "southwest": {
            "lat": 36.970298,
            "lng": -91.5130789
          }
        },
        "location": {
          "lat": 40.6331249,
          "lng": -89.3985283
        },
        "location_type": "APPROXIMATE",
        "viewport": {
          "northeast": {
            "lat": 42.5083379,
            "lng": -87.4951991
          },
          "southwest": {
            "lat": 36.970298,
            "lng": -91.5130789
          }
        }
      },
      "place_id": "ChIJGSZubzgtC4gRVlkRZFCCFX8",
      "types": [
        "administrative_area_level_1",
        "political"
      ]
    },
    {
      "address_components": [
        {
          "long_name": "United States",
          "short_name": "US",
          "types": [
            "country",
            "political"
          ]
        }
      ],
      "formatted_address": "United States",
      "geometry": {
        "bounds": {
          "northeast": {
            "lat": 71.3867745,
            "lng": -66.9502861
          },
          "southwest": {
            "lat": 18.9106768,
            "lng": 172.4458955
          }
        },
        "location": {
          "lat": 37.09024,
          "lng": -95.712891
        },
        "location_type": "APPROXIMATE",
        "viewport": {
          "northeast": {
            "lat": 49.38,
            "lng": -66.94
          },
          "southwest": {
            "lat": 25.82,
            "lng": -124.39
          }
        }
      },
      "place_id": "ChIJCzYy5IS16lQRQrfeQ5K5Oxw",
      "types": [
        "country",
        "political"
      ]
    }
  ],
  "status": "OK"
}
