{
  "results": [
    {
      "address_components": [
        {
          "long_name": "Railroad Avenue",
          "short_name": "Railroad Ave",
          "types": [
            "route"
          ]
        },
        {
          "long_name": "Grand Ridge",
          "short_name": "Grand Ridge",
          "types": [
            "locality",
            "political"
          ]
        },
        {
          "long_name": "Farm Ridge Township",
          "short_name": "Farm Ridge Township",
          "types": [
            "administrative_area_level_3",
            "political"
          ]
        },
        {
          "long_name": "LaSalle County",
          "short_name": "Lasalle County",
          "types": [
            "administrative_area_level_2",
            "political"
          ]
        },
        {
          "long_name": "Illinois",
          "short_name": "IL",
          "types": [
            "administrative_area_level_1",
            "political"
          ]
        },
        {
          "long_name": "United States",
          "short_name": "US",
          "types": [
            "country",
            "political"
          ]
        },
        {
          "long_name": "61325",
          "short_name": "61325",
          "types": [
            "postal_code"
          ]
        }
      ],
      "formatted_address": "Railroad Ave, Grand Ridge, IL 61325, USA",
      "geometry": {
        "bounds": {
          "northeast": {
            "lat": 41.2365249,
            "lng": -88.83085969999999
          },
          "southwest": {
            "lat": 41.2357417,
            "lng": -88.83087549999999
          }
        },
        "location": {
          "lat": 41.2361333,
          "lng": -88.83086759999999
        },
        "location_type": "GEOMETRIC_CENTER",
        "viewport": {
          "northeast": {
            "lat": 41.2374822802915,
            "lng": -88.8295186197085
          },
          "southwest": {
            "lat": 41.2347843197085,
            "lng": -88.8322165802915
          }
        }
      },
      "place_id": "ChIJSfto3lX-C4gRj8rrlfjb-CU",
      "types": [
        "route"
      ]
    },
    {
      "address_components": [
        {
          "long_name": "Grand Ridge",
          "short_name": "Grand Ridge",
          "types": [
            "locality",
            "political"
          ]
        },
        {
          "long_name": "Farm Ridge Township",
          "short_name": "Farm Ridge Township",
          "types": [
            "administrative_area_level_3",
            "political"
          ]
        },
        {
          "long_name": "LaSalle County",
          "short_name": "Lasalle County",
          "types": [
            "administrative_area_level_2",
            "political"
          ]
        },
        {
          "long_name": "Illinois",
          "short_name": "IL",
          "types": [
            "administrative_area_level_1",
            "political"
          ]
        },
        {
          "long_name": "United States",
          "short_name": "US",
          "types": [
            "country",
            "political"
          ]
        },
        {
          "long_name": "61325",
          "short_name": "61325",
          "types": [
            "postal_code"
          ]
        }
      ],
      "formatted_address": "Grand Ridge, IL 61325, USA",
      "geometry": {
        "bounds": {
          "northeast": {
            "lat": 41.241149,
            "lng": -88.8245409
          },
          "southwest": {
            "lat": 41.2310159,
            "lng": -88.8379021
          }
        },
        "location": {
          "lat": 41.2369791,
          "lng": -88.8314652
        },
        "location_type": "APPROXIMATE",
        "viewport": {
          "northeast": {
            "lat": 41.241149,
            "lng": -88.8245409
          },
          "southwest": {
            "lat": 41.2310159,
            "lng": -88.8379021
          }
        }
      },
      "place_id": "ChIJO75zc1b-C4gRBtIdFT2X9GA",
      "types": [
        "locality",
        "political"
      ]
    },
    {
      "address_components": [
        {
          "long_name": "Farm Ridge Township",
          "short_name": "Farm Ridge Township",
          "types": [
            "administrative_area_level_3",
            "political"
          ]
        },
        {
          "long_name": "LaSalle County",
          "short_name": "Lasalle County",
          "types": [
            "administrative_area_level_2",
            "political"
          ]
        },
        {
          "long_name": "Illinois",
          "short_name": "IL",
          "types": [
            "administrative_area_level_1",
            "political"
          ]
        },
        {
          "long_name": "United States",
          "short_name": "US",
          "types": [
            "country",
            "political"
          ]
        }
      ],
      "formatted_address": "Farm Ridge Township, IL, USA",
      "geometry": {
        "bounds": {
          "northeast": {
            "lat": 41.2809169,
            "lng": -88.81675399999999
          },
          "southwest": {
            "lat": 41.192827,
            "lng": -88.933303
          }
        },
        "location": {
          "lat": 41.2553865,
          "lng": -88.8838834
        },
        "location_type": "APPROXIMATE",
        "viewport": {
          "northeast": {
            "lat": 41.2809169,
            "lng": -88.81675399999999
          },
          "southwest": {
            "lat": 41.192827,
            "lng": -88.933303
          }
        }
      },
      "place_id": "ChIJ-REPbc39C4gR7OByLLsMoUs",
      "types": [
        "administrative_area_level_3",
        "political"
      ]
    },
    {
      "address_components": [
        {
          "long_name": "61325",
          "short_name": "61325",
          "types": [
            "postal_code"
          ]
        },
        {
          "long_name": "Grand Ridge",
          "short_name": "Grand Ridge",
          "types": [
            "locality",
            "political"
          ]
        },
        {
          "long_name": "LaSalle County",
          "short_name": "Lasalle County",
          "types": [
            "administrative_area_level_2",
            "political"
          ]
        },
        {
          "long_name": "Illinois",
          "short_name": "IL",
          "types": [
            "administrative_area_level_1",
            "political"
          ]
        },
        {
          "long_name": "United States",
          "short_name": "US",
          "types": [
            "country",
            "political"
          ]
        }
      ],
      "formatted_address": "Grand Ridge, IL 61325, USA",
      "geometry": {
        "bounds": {
          "northeast": {
            "lat": 41.2922409,
            "lng": -88.68418880000002
          },
          "southwest": {
            "lat": 41.179108,
            "lng": -88.94227409999999
          }
        },
        "location": {
          "lat": 41.2546193,
          "lng": -88.8070886
        },
        "location_type": "APPROXIMATE",
        "viewport": {
          "northeast": {
            "lat": 41.2922409,
            "lng": -88.68418880000002
          },
          "southwest": {
            "lat": 41.179108,
            "lng": -88.94227409999999
          }
        }
      },
      "place_id": "ChIJl4Tf96D_C4gR2RN2LhmgU54",
      "types": [
        "postal_code"
      ]
    },
    {
      "address_components": [
        {
          "long_name": "LaSalle County",
          "short_name": "Lasalle County",
          "types": [
            "administrative_area_level_2",
            "political"
          ]
        },
        {
          "long_name": "Illinois",
          "short_name": "IL",
          "types": [
            "administrative_area_level_1",
            "political"
          ]
        },
        {
          "long_name": "United States",
          "short_name": "US",
          "types": [
            "country",
            "political"
          ]
        }
      ],
      "formatted_address": "Lasalle County, IL, USA",
      "geometry": {
        "bounds": {
          "northeast": {
            "lat": 41.631389,
            "lng": -88.5862509
          },
          "southwest": {
            "lat": 40.925953,
            "lng": -89.1672
          }
        },
        "location": {
          "lat": 41.4363987,
          "lng": -88.94138650000001
        },
        "location_type": "APPROXIMATE",
        "viewport": {
          "northeast": {
            "lat": 41.631389,
            "lng": -88.5862509
          },
          "southwest": {
            "lat": 40.925953,
            "lng": -89.1672
          }
        }
      },
      "place_id": "ChIJbROyPvVWCYgR59pvQDH4k5w",
      "types": [
        "administrative_area_level_2",
        "political"
      ]
    },
    {
      "address_components": [
        {
          "long_name": "Illinois",
          "short_name": "IL",
          "types": [
            "administrative_area_level_1",
            "political"
          ]
        },
        {
          "long_name": "United States",
          "short_name": "US",
          "types": [
            "country",
            "political"
          ]
        }
      ],
      "formatted_address": "Illinois, USA",
      "geometry": {
        "bounds": {
          "northeast": {
            "lat": 42.5083379,
            "lng": -87.4951991
          },
          "southwest": {
            "lat": 36.970298,
            "lng": -91.5130789
          }
        },
        "location": {
          "lat": 40.6331249,
          "lng": -89.3985283
        },
        "location_type": "APPROXIMATE",
        "viewport": {
          "northeast": {
            "lat": 42.5083379,
            "lng": -87.4951991
          },
          "southwest": {
            "lat": 36.970298,
            "lng": -91.5130789
          }
        }
      },
      "place_id": "ChIJGSZubzgtC4gRVlkRZFCCFX8",
      "types": [
        "administrative_area_level_1",
        "political"
      ]
    },
    {
      "address_components": [
        {
          "long_name": "United States",
          "short_name": "US",
          "types": [
            "country",
            "political"
          ]
        }
      ],
      "formatted_address": "United States",
      "geometry": {
        "bounds": {
          "northeast": {
            "lat": 71.3867745,
            "lng": -66.9502861
          },
          "southwest": {
            "lat": 18.9106768,
            "lng": 172.4458955
          }
        },
        "location": {
          "lat": 37.09024,
          "lng": -95.712891
        },
        "location_type": "APPROXIMATE",
        "viewport": {
          "northeast": {
            "lat": 49.38,
            "lng": -66.94
          },
          "southwest": {
            "lat": 25.82,
            "lng": -124.39
          }
        }
      },
      "place_id": "ChIJCzYy5IS16lQRQrfeQ5K5Oxw",
      "types": [
        "country",
        "political"
      ]
    }
  ],
  "status": "OK"
}
