{
  "results": [
    {
      "address_components": [
        {
          "long_name": "Ptwnshp 1500 North",
          "short_name": "Ptwnshp 1500 N",
          "types": [
            "route"
          ]
        },
        {
          "long_name": "Pittsfield",
          "short_name": "Pittsfield",
          "types": [
            "locality",
            "political"
          ]
        },
        {
          "long_name": "Newburg Township",
          "short_name": "Newburg Township",
          "types": [
            "administrative_area_level_3",
            "political"
          ]
        },
        {
          "long_name": "Pike County",
          "short_name": "Pike County",
          "types": [
            "administrative_area_level_2",
            "political"
          ]
        },
        {
          "long_name": "Illinois",
          "short_name": "IL",
          "types": [
            "administrative_area_level_1",
            "political"
          ]
        },
        {
          "long_name": "United States",
          "short_name": "US",
          "types": [
            "country",
            "political"
          ]
        },
        {
          "long_name": "62363",
          "short_name": "62363",
          "types": [
            "postal_code"
          ]
        }
      ],
      "formatted_address": "Ptwnshp 1500 N, Pittsfield, IL 62363, USA",
      "geometry": {
        "bounds": {
          "northeast": {
            "lat": 39.61959969999999,
            "lng": -90.7909991
          },
          "southwest": {
            "lat": 39.6195278,
            "lng": -90.7948064
          }
        },
        "location": {
          "lat": 39.6195464,
          "lng": -90.79290189999999
        },
        "location_type": "GEOMETRIC_CENTER",
        "viewport": {
          "northeast": {
            "lat": 39.62091273029149,
            "lng": -90.7909991
          },
          "southwest": {
            "lat": 39.61821476970849,
            "lng": -90.7948064
          }
        }
      },
      "place_id": "ChIJ5UpPQghH3ocRh2D1_1JJqYc",
      "types": [
        "route"
      ]
    },
    {
      "address_components": [
        {
          "long_name": "Newburg Township",
          "short_name": "Newburg Township",
          "types": [
            "administrative_area_level_3",
            "political"
          ]
        },
        {
          "long_name": "Pike County",
          "short_name": "Pike County",
          "types": [
            "administrative_area_level_2",
            "political"
          ]
        },
        {
          "long_name": "Illinois",
          "short_name": "IL",
          "types": [
            "administrative_area_level_1",
            "political"
          ]
        },
        {
          "long_name": "United States",
          "short_name": "US",
          "types": [
            "country",
            "political"
          ]
        }
      ],
      "formatted_address": "Newburg Township, IL, USA",
      "geometry": {
        "bounds": {
          "northeast": {
            "lat": 39.664207,
            "lng": -90.6847839
          },
          "southwest": {
            "lat": 39.5749709,
            "lng": -90.800822
          }
        },
        "location": {
          "lat": 39.6288574,
          "lng": -90.73427339999999
        },
        "location_type": "APPROXIMATE",
        "viewport": {
          "northeast": {
            "lat": 39.664207,
            "lng": -90.6847839
          },
          "southwest": {
            "lat": 39.5749709,
            "lng": -90.800822
          }
        }
      },
      "place_id": "ChIJvTB4fmVI3ocRbP2_q8zGBVY",
      "types": [
        "administrative_area_level_3",
        "political"
      ]
    },
    {
      "address_components": [
        {
          "long_name": "62363",
          "short_name": "62363",
          "types": [
            "postal_code"
          ]
        },
        {
          "long_name": "Pittsfield",
          "short_name": "Pittsfield",
          "types": [
            "locality",
            "political"
          ]
        },
        {
          "long_name": "Illinois",
          "short_name": "IL",
          "types": [
            "administrative_area_level_1",
            "political"
          ]
        },
        {
          "long_name": "United States",
          "short_name": "US",
          "types": [
            "country",
            "political"
          ]
        }
      ],
      "formatted_address": "Pittsfield, IL 62363, USA",
      "geometry": {
        "bounds": {
          "northeast": {
            "lat": 39.68264,
            "lng": -90.60238
          },
          "southwest": {
            "lat": 39.515553,
            "lng": -90.99720289999999
          }
        },
        "location": {
          "lat": 39.5872963,
          "lng": -90.7722974
        },
        "location_type": "APPROXIMATE",
        "viewport": {
          "northeast": {
            "lat": 39.68264,
            "lng": -90.60238
          },
          "southwest": {
            "lat": 39.515553,
            "lng": -90.99720289999999
          }
        }
      },
      "place_id": "ChIJ287krGg13ocRSbLSqa3oMWw",
      "postcode_localities": [
        "Detroit",
        "Pittsfield",
        "Summer Hill"
      ],
      "types": [
        "postal_code"
      ]
    },
    {
      "address_components": [
        {
          "long_name": "Pike County",
          "short_name": "Pike County",
          "types": [
            "administrative_area_level_2",
            "political"
          ]
        },
        {
          "long_name": "Illinois",
          "short_name": "IL",
          "types": [
            "administrative_area_level_1",
            "political"
          ]
        },
        {
          "long_name": "United States",
          "short_name": "US",
          "types": [
            "country",
            "political"
          ]
        }
      ],
      "formatted_address": "Pike County, IL, USA",
      "geometry": {
        "bounds": {
          "northeast": {
            "lat": 39.845075,
            "lng": -90.565737
          },
          "southwest": {
            "lat": 39.3956691,
            "lng": -91.37010190000001
          }
        },
        "location": {
          "lat": 39.5662363,
          "lng": -90.8294002
        },
        "location_type": "APPROXIMATE",
        "viewport": {
          "northeast": {
            "lat": 39.845075,
            "lng": -90.565737
          },
          "southwest": {
            "lat": 39.3956691,
            "lng": -91.37010190000001
          }
        }
      },
      "place_id": "ChIJVSNvkkYS3ocRLB1MrUshm2Y",
      "types": [
        "administrative_area_level_2",
        "political"
      ]
    },
    {
      "address_components": [
        {
          "long_name": "Illinois",
          "short_name": "IL",
          "types": [
            "administrative_area_level_1",
            "political"
          ]
        },
        {
          "long_name": "United States",
          "short_name": "US",
          "types": [
            "country",
            "political"
          ]
        }
      ],
      "formatted_address": "Illinois, USA",
      "geometry": {
        "bounds": {
          "northeast": {
            "lat": 42.5083379,
            "lng": -87.4951991
          },
          "southwest": {
            "lat": 36.970298,
            "lng": -91.5130789
          }
        },
        "location": {
          "lat": 40.6331249,
          "lng": -89.3985283
        },
        "location_type": "APPROXIMATE",
        "viewport": {
          "northeast": {
            "lat": 42.5083379,
            "lng": -87.4951991
          },
          "southwest": {
            "lat": 36.970298,
            "lng": -91.5130789
          }
        }
      },
      "place_id": "ChIJGSZubzgtC4gRVlkRZFCCFX8",
      "types": [
        "administrative_area_level_1",
        "political"
      ]
    },
    {
      "address_components": [
        {
          "long_name": "United States",
          "short_name": "US",
          "types": [
            "country",
            "political"
          ]
        }
      ],
      "formatted_address": "United States",
      "geometry": {
        "bounds": {
          "northeast": {
            "lat": 71.3867745,
            "lng": -66.9502861
          },
          "southwest": {
            "lat": 18.9106768,
            "lng": 172.4458955
          }
        },
        "location": {
          "lat": 37.09024,
          "lng": -95.712891
        },
        "location_type": "APPROXIMATE",
        "viewport": {
          "northeast": {
            "lat": 49.38,
            "lng": -66.94
          },
          "southwest": {
            "lat": 25.82,
            "lng": -124.39
          }
        }
      },
      "place_id": "ChIJCzYy5IS16lQRQrfeQ5K5Oxw",
      "types": [
        "country",
        "political"
      ]
    }
  ],
  "status": "OK"
}
