{
  "results": [
    {
      "address_components": [
        {
          "long_name": "301-343",
          "short_name": "301-343",
          "types": [
            "street_number"
          ]
        },
        {
          "long_name": "Anna Street",
          "short_name": "Anna St",
          "types": [
            "route"
          ]
        },
        {
          "long_name": "Jacksonville",
          "short_name": "Jacksonville",
          "types": [
            "locality",
            "political"
          ]
        },
        {
          "long_name": "Morgan County",
          "short_name": "Morgan County",
          "types": [
            "administrative_area_level_2",
            "political"
          ]
        },
        {
          "long_name": "Illinois",
          "short_name": "IL",
          "types": [
            "administrative_area_level_1",
            "political"
          ]
        },
        {
          "long_name": "United States",
          "short_name": "US",
          "types": [
            "country",
            "political"
          ]
        },
        {
          "long_name": "62650",
          "short_name": "62650",
          "types": [
            "postal_code"
          ]
        },
        {
          "long_name": "2844",
          "short_name": "2844",
          "types": [
            "postal_code_suffix"
          ]
        }
      ],
      "formatted_address": "301-343 Anna St, Jacksonville, IL 62650, USA",
      "geometry": {
        "bounds": {
          "northeast": {
            "lat": 39.7292139,
            "lng": -90.2314776
          },
          "southwest": {
            "lat": 39.7291835,
            "lng": -90.2329536
          }
        },
        "location": {
          "lat": 39.7291775,
          "lng": -90.2318882
        },
        "location_type": "RANGE_INTERPOLATED",
        "viewport": {
          "northeast": {
            "lat": 39.73054768029149,
            "lng": -90.2308666197085
          },
          "southwest": {
            "lat": 39.7278497197085,
            "lng": -90.23356458029151
          }
        }
      },
      "place_id": "EiwzMDEtMzQzIEFubmEgU3QsIEphY2tzb252aWxsZSwgSUwgNjI2NTAsIFVTQQ",
      "types": [
        "street_address"
      ]
    },
    {
      "address_components": [
        {
          "long_name": "Jacksonville",
          "short_name": "Jacksonville",
          "types": [
            "locality",
            "political"
          ]
        },
        {
          "long_name": "Morgan County",
          "short_name": "Morgan County",
          "types": [
            "administrative_area_level_2",
            "political"
          ]
        },
        {
          "long_name": "Illinois",
          "short_name": "IL",
          "types": [
            "administrative_area_level_1",
            "political"
          ]
        },
        {
          "long_name": "United States",
          "short_name": "US",
          "types": [
            "country",
            "political"
          ]
        },
        {
          "long_name": "62650",
          "short_name": "62650",
          "types": [
            "postal_code"
          ]
        }
      ],
      "formatted_address": "Jacksonville, IL 62650, USA",
      "geometry": {
        "bounds": {
          "northeast": {
            "lat": 39.75766,
            "lng": -90.1715639
          },
          "southwest": {
            "lat": 39.693945,
            "lng": -90.2922909
          }
        },
        "location": {
          "lat": 39.733936,
          "lng": -90.2290098
        },
        "location_type": "APPROXIMATE",
        "viewport": {
          "northeast": {
            "lat": 39.75766,
            "lng": -90.1715639
          },
          "southwest": {
            "lat": 39.693945,
            "lng": -90.2922909
          }
        }
      },
      "place_id": "ChIJPQt5VODr34cR3k7CpZoLrTs",
      "types": [
        "locality",
        "political"
      ]
    },
    {
      "address_components": [
        {
          "long_name": "62650",
          "short_name": "62650",
          "types": [
            "postal_code"
          ]
        },
        {
          "long_name": "Jacksonville",
          "short_name": "Jacksonville",
          "types": [
            "locality",
            "political"
          ]
        },
        {
          "long_name": "Illinois",
          "short_name": "IL",
          "types": [
            "administrative_area_level_1",
            "political"
          ]
        },
        {
          "long_name": "United States",
          "short_name": "US",
          "types": [
            "country",
            "political"
          ]
        }
      ],
      "formatted_address": "Jacksonville, IL 62650, USA",
      "geometry": {
        "bounds": {
          "northeast": {
            "lat": 39.875374,
            "lng": -90.038983
          },
          "southwest": {
            "lat": 39.6090959,
            "lng": -90.3727001
          }
        },
        "location": {
          "lat": 39.6929412,
          "lng": -90.1869644
        },
        "location_type": "APPROXIMATE",
        "viewport": {
          "northeast": {
            "lat": 39.875374,
            "lng": -90.038983
          },
          "southwest": {
            "lat": 39.6090959,
            "lng": -90.3727001
          }
        }
      },
      "place_id": "ChIJrdlfrp7r34cRsfwtp1VYYSc",
      "postcode_localities": [
        "Arcadia",
        "Arnold",
        "Jacksonville",
        "Literberry",
        "Lynnville",
        "Merritt",
        "Pisgah",
        "Sinclair"
      ],
      "types": [
        "postal_code"
      ]
    },
    {
      "address_components": [
        {
          "long_name": "Morgan County",
          "short_name": "Morgan County",
          "types": [
            "administrative_area_level_2",
            "political"
          ]
        },
        {
          "long_name": "Illinois",
          "short_name": "IL",
          "types": [
            "administrative_area_level_1",
            "political"
          ]
        },
        {
          "long_name": "United States",
          "short_name": "US",
          "types": [
            "country",
            "political"
          ]
        }
      ],
      "formatted_address": "Morgan County, IL, USA",
      "geometry": {
        "bounds": {
          "northeast": {
            "lat": 39.87675,
            "lng": -89.9239549
          },
          "southwest": {
            "lat": 39.51989289999999,
            "lng": -90.599105
          }
        },
        "location": {
          "lat": 39.7341219,
          "lng": -90.2244662
        },
        "location_type": "APPROXIMATE",
        "viewport": {
          "northeast": {
            "lat": 39.87675,
            "lng": -89.9239549
          },
          "southwest": {
            "lat": 39.51989289999999,
            "lng": -90.599105
          }
        }
      },
      "place_id": "ChIJl00IDEjp34cRMgb8L5m42Ok",
      "types": [
        "administrative_area_level_2",
        "political"
      ]
    },
    {
      "address_components": [
        {
          "long_name": "Jacksonville",
          "short_name": "Jacksonville",
          "types": [
            "political"
          ]
        },
        {
          "long_name": "Illinois",
          "short_name": "IL",
          "types": [
            "administrative_area_level_1",
            "political"
          ]
        },
        {
          "long_name": "United States",
          "short_name": "US",
          "types": [
            "country",
            "political"
          ]
        }
      ],
      "formatted_address": "Jacksonville, IL, USA",
      "geometry": {
        "bounds": {
          "northeast": {
            "lat": 39.87675,
            "lng": -89.9239549
          },
          "southwest": {
            "lat": 39.5198721,
            "lng": -90.646112
          }
        },
        "location": {
          "lat": 39.7341219,
          "lng": -90.2244662
        },
        "location_type": "APPROXIMATE",
        "viewport": {
          "northeast": {
            "lat": 39.87675,
            "lng": -89.9239549
          },
          "southwest": {
            "lat": 39.5198721,
            "lng": -90.646112
          }
        }
      },
      "place_id": "ChIJ89pi8WHq34cRRyo7hdgOpe8",
      "types": [
        "political"
      ]
    },
    {
      "address_components": [
        {
          "long_name": "Illinois",
          "short_name": "IL",
          "types": [
            "administrative_area_level_1",
            "political"
          ]
        },
        {
          "long_name": "United States",
          "short_name": "US",
          "types": [
            "country",
            "political"
          ]
        }
      ],
      "formatted_address": "Illinois, USA",
      "geometry": {
        "bounds": {
          "northeast": {
            "lat": 42.5083379,
            "lng": -87.4951991
          },
          "southwest": {
            "lat": 36.970298,
            "lng": -91.5130789
          }
        },
        "location": {
          "lat": 40.6331249,
          "lng": -89.3985283
        },
        "location_type": "APPROXIMATE",
        "viewport": {
          "northeast": {
            "lat": 42.5083379,
            "lng": -87.4951991
          },
          "southwest": {
            "lat": 36.970298,
            "lng": -91.5130789
          }
        }
      },
      "place_id": "ChIJGSZubzgtC4gRVlkRZFCCFX8",
      "types": [
        "administrative_area_level_1",
        "political"
      ]
    },
    {
      "address_components": [
        {
          "long_name": "United States",
          "short_name": "US",
          "types": [
            "country",
            "political"
          ]
        }
      ],
      "formatted_address": "United States",
      "geometry": {
        "bounds": {
          "northeast": {
            "lat": 71.3867745,
            "lng": -66.9502861
          },
          "southwest": {
            "lat": 18.9106768,
            "lng": 172.4458955
          }
        },
        "location": {
          "lat": 37.09024,
          "lng": -95.712891
        },
        "location_type": "APPROXIMATE",
        "viewport": {
          "northeast": {
            "lat": 49.38,
            "lng": -66.94
          },
          "southwest": {
            "lat": 25.82,
            "lng": -124.39
          }
        }
      },
      "place_id": "ChIJCzYy5IS16lQRQrfeQ5K5Oxw",
      "types": [
        "country",
        "political"
      ]
    }
  ],
  "status": "OK"
}
