{
  "results": [
    {
      "address_components": [
        {
          "long_name": "20-72",
          "short_name": "20-72",
          "types": [
            "street_number"
          ]
        },
        {
          "long_name": "Library Access Road",
          "short_name": "Library Access Rd",
          "types": [
            "route"
          ]
        },
        {
          "long_name": "Shippensburg",
          "short_name": "Shippensburg",
          "types": [
            "locality",
            "political"
          ]
        },
        {
          "long_name": "Shippensburg Township",
          "short_name": "Shippensburg Township",
          "types": [
            "administrative_area_level_3",
            "political"
          ]
        },
        {
          "long_name": "Cumberland County",
          "short_name": "Cumberland County",
          "types": [
            "administrative_area_level_2",
            "political"
          ]
        },
        {
          "long_name": "Pennsylvania",
          "short_name": "PA",
          "types": [
            "administrative_area_level_1",
            "political"
          ]
        },
        {
          "long_name": "United States",
          "short_name": "US",
          "types": [
            "country",
            "political"
          ]
        },
        {
          "long_name": "17257",
          "short_name": "17257",
          "types": [
            "postal_code"
          ]
        }
      ],
      "formatted_address": "20-72 Library Access Rd, Shippensburg, PA 17257, USA",
      "geometry": {
        "bounds": {
          "northeast": {
            "lat": 40.0625903,
            "lng": -77.52231640000001
          },
          "southwest": {
            "lat": 40.0617111,
            "lng": -77.52276239999999
          }
        },
        "location": {
          "lat": 40.0618595,
          "lng": -77.52252299999999
        },
        "location_type": "RANGE_INTERPOLATED",
        "viewport": {
          "northeast": {
            "lat": 40.06349968029149,
            "lng": -77.5211904197085
          },
          "southwest": {
            "lat": 40.06080171970849,
            "lng": -77.52388838029151
          }
        }
      },
      "place_id": "EjQyMC03MiBMaWJyYXJ5IEFjY2VzcyBSZCwgU2hpcHBlbnNidXJnLCBQQSAxNzI1NywgVVNB",
      "types": [
        "street_address"
      ]
    },
    {
      "address_components": [
        {
          "long_name": "Shippensburg Township",
          "short_name": "Shippensburg Township",
          "types": [
            "administrative_area_level_3",
            "political"
          ]
        },
        {
          "long_name": "Cumberland County",
          "short_name": "Cumberland County",
          "types": [
            "administrative_area_level_2",
            "political"
          ]
        },
        {
          "long_name": "Pennsylvania",
          "short_name": "PA",
          "types": [
            "administrative_area_level_1",
            "political"
          ]
        },
        {
          "long_name": "United States",
          "short_name": "US",
          "types": [
            "country",
            "political"
          ]
        },
        {
          "long_name": "17257",
          "short_name": "17257",
          "types": [
            "postal_code"
          ]
        }
      ],
      "formatted_address": "Shippensburg Township, PA 17257, USA",
      "geometry": {
        "bounds": {
          "northeast": {
            "lat": 40.0711029,
            "lng": -77.47395
          },
          "southwest": {
            "lat": 40.0374069,
            "lng": -77.5331361
          }
        },
        "location": {
          "lat": 40.06109439999999,
          "lng": -77.5074774
        },
        "location_type": "APPROXIMATE",
        "viewport": {
          "northeast": {
            "lat": 40.0711029,
            "lng": -77.47395
          },
          "southwest": {
            "lat": 40.0374069,
            "lng": -77.5331361
          }
        }
      },
      "place_id": "ChIJSaKyo2gMyYkRblEt6oltuL8",
      "types": [
        "administrative_area_level_3",
        "political"
      ]
    },
    {
      "address_components": [
        {
          "long_name": "17257",
          "short_name": "17257",
          "types": [
            "postal_code"
          ]
        },
        {
          "long_name": "Shippensburg",
          "short_name": "Shippensburg",
          "types": [
            "locality",
            "political"
          ]
        },
        {
          "long_name": "Pennsylvania",
          "short_name": "PA",
          "types": [
            "administrative_area_level_1",
            "political"
          ]
        },
        {
          "long_name": "United States",
          "short_name": "US",
          "types": [
            "country",
            "political"
          ]
        }
      ],
      "formatted_address": "Shippensburg, PA 17257, USA",
      "geometry": {
        "bounds": {
          "northeast": {
            "lat": 40.146662,
            "lng": -77.362254
          },
          "southwest": {
            "lat": 39.93519209999999,
            "lng": -77.6343699
          }
        },
        "location": {
          "lat": 40.0570046,
          "lng": -77.4931403
        },
        "location_type": "APPROXIMATE",
        "viewport": {
          "northeast": {
            "lat": 40.146662,
            "lng": -77.362254
          },
          "southwest": {
            "lat": 39.93519209999999,
            "lng": -77.6343699
          }
        }
      },
      "place_id": "ChIJJZjE7xQMyYkRsgdiL5OeBFU",
      "types": [
        "postal_code"
      ]
    },
    {
      "address_components": [
        {
          "long_name": "Cumberland County",
          "short_name": "Cumberland County",
          "types": [
            "administrative_area_level_2",
            "political"
          ]
        },
        {
          "long_name": "Pennsylvania",
          "short_name": "PA",
          "types": [
            "administrative_area_level_1",
            "political"
          ]
        },
        {
          "long_name": "United States",
          "short_name": "US",
          "types": [
            "country",
            "political"
          ]
        }
      ],
      "formatted_address": "Cumberland County, PA, USA",
      "geometry": {
        "bounds": {
          "northeast": {
            "lat": 40.3284838,
            "lng": -76.8588671
          },
          "southwest": {
            "lat": 39.944077,
            "lng": -77.6275519
          }
        },
        "location": {
          "lat": 40.1299841,
          "lng": -77.2405153
        },
        "location_type": "APPROXIMATE",
        "viewport": {
          "northeast": {
            "lat": 40.3284838,
            "lng": -76.8588671
          },
          "southwest": {
            "lat": 39.944077,
            "lng": -77.6275519
          }
        }
      },
      "place_id": "ChIJgWYAHnYeyYkR4YrBSt8OEcs",
      "types": [
        "administrative_area_level_2",
        "political"
      ]
    },
    {
      "address_components": [
        {
          "long_name": "Pennsylvania",
          "short_name": "PA",
          "types": [
            "administrative_area_level_1",
            "political"
          ]
        },
        {
          "long_name": "United States",
          "short_name": "US",
          "types": [
            "country",
            "political"
          ]
        }
      ],
      "formatted_address": "Pennsylvania, USA",
      "geometry": {
        "bounds": {
          "northeast": {
            "lat": 42.2693866,
            "lng": -74.6895018
          },
          "southwest": {
            "lat": 39.7197989,
            "lng": -80.51989499999999
          }
        },
        "location": {
          "lat": 41.2033216,
          "lng": -77.1945247
        },
        "location_type": "APPROXIMATE",
        "viewport": {
          "northeast": {
            "lat": 42.2693866,
            "lng": -74.6895018
          },
          "southwest": {
            "lat": 39.7197989,
            "lng": -80.51989499999999
          }
        }
      },
      "place_id": "ChIJieUyHiaALYgRPbQiUEchRsI",
      "types": [
        "administrative_area_level_1",
        "political"
      ]
    },
    {
      "address_components": [
        {
          "long_name": "United States",
          "short_name": "US",
          "types": [
            "country",
            "political"
          ]
        }
      ],
      "formatted_address": "United States",
      "geometry": {
        "bounds": {
          "northeast": {
            "lat": 71.3867745,
            "lng": -66.9502861
          },
          "southwest": {
            "lat": 18.9106768,
            "lng": 172.4458955
          }
        },
        "location": {
          "lat": 37.09024,
          "lng": -95.712891
        },
        "location_type": "APPROXIMATE",
        "viewport": {
          "northeast": {
            "lat": 49.38,
            "lng": -66.94
          },
          "southwest": {
            "lat": 25.82,
            "lng": -124.39
          }
        }
      },
      "place_id": "ChIJCzYy5IS16lQRQrfeQ5K5Oxw",
      "types": [
        "country",
        "political"
      ]
    }
  ],
  "status": "OK"
}
