{
  "results": [
    {
      "address_components": [
        {
          "long_name": "County Road 1600 North",
          "short_name": "County Rd 1600 N",
          "types": [
            "route"
          ]
        },
        {
          "long_name": "Hollowayville",
          "short_name": "Hollowayville",
          "types": [
            "locality",
            "political"
          ]
        },
        {
          "long_name": "Selby Township",
          "short_name": "Selby Township",
          "types": [
            "administrative_area_level_3",
            "political"
          ]
        },
        {
          "long_name": "Bureau County",
          "short_name": "Bureau County",
          "types": [
            "administrative_area_level_2",
            "political"
          ]
        },
        {
          "long_name": "Illinois",
          "short_name": "IL",
          "types": [
            "administrative_area_level_1",
            "political"
          ]
        },
        {
          "long_name": "United States",
          "short_name": "US",
          "types": [
            "country",
            "political"
          ]
        },
        {
          "long_name": "61356",
          "short_name": "61356",
          "types": [
            "postal_code"
          ]
        }
      ],
      "formatted_address": "County Rd 1600 N, Hollowayville, IL 61356, USA",
      "geometry": {
        "bounds": {
          "northeast": {
            "lat": 41.36502,
            "lng": -89.2933499
          },
          "southwest": {
            "lat": 41.3649509,
            "lng": -89.29593539999999
          }
        },
        "location": {
          "lat": 41.364979,
          "lng": -89.29464229999999
        },
        "location_type": "GEOMETRIC_CENTER",
        "viewport": {
          "northeast": {
            "lat": 41.3663344302915,
            "lng": -89.29329366970848
          },
          "southwest": {
            "lat": 41.3636364697085,
            "lng": -89.2959916302915
          }
        }
      },
      "place_id": "ChIJwWlnXI97CYgRLzZNk_fuofE",
      "types": [
        "route"
      ]
    },
    {
      "address_components": [
        {
          "long_name": "Hollowayville",
          "short_name": "Hollowayville",
          "types": [
            "locality",
            "political"
          ]
        },
        {
          "long_name": "Selby Township",
          "short_name": "Selby Township",
          "types": [
            "administrative_area_level_3",
            "political"
          ]
        },
        {
          "long_name": "Bureau County",
          "short_name": "Bureau County",
          "types": [
            "administrative_area_level_2",
            "political"
          ]
        },
        {
          "long_name": "Illinois",
          "short_name": "IL",
          "types": [
            "administrative_area_level_1",
            "political"
          ]
        },
        {
          "long_name": "United States",
          "short_name": "US",
          "types": [
            "country",
            "political"
          ]
        },
        {
          "long_name": "61356",
          "short_name": "61356",
          "types": [
            "postal_code"
          ]
        }
      ],
      "formatted_address": "Hollowayville, IL 61356, USA",
      "geometry": {
        "bounds": {
          "northeast": {
            "lat": 41.3667609,
            "lng": -89.28637189999999
          },
          "southwest": {
            "lat": 41.3636811,
            "lng": -89.298902
          }
        },
        "location": {
          "lat": 41.3650353,
          "lng": -89.29703230000001
        },
        "location_type": "APPROXIMATE",
        "viewport": {
          "northeast": {
            "lat": 41.3667609,
            "lng": -89.293336
          },
          "southwest": {
            "lat": 41.3636929,
            "lng": -89.298902
          }
        }
      },
      "place_id": "ChIJ9fqCIo97CYgREsDPhecsnwY",
      "types": [
        "locality",
        "political"
      ]
    },
    {
      "address_components": [
        {
          "long_name": "Selby Township",
          "short_name": "Selby Township",
          "types": [
            "administrative_area_level_3",
            "political"
          ]
        },
        {
          "long_name": "Bureau County",
          "short_name": "Bureau County",
          "types": [
            "administrative_area_level_2",
            "political"
          ]
        },
        {
          "long_name": "Illinois",
          "short_name": "IL",
          "types": [
            "administrative_area_level_1",
            "political"
          ]
        },
        {
          "long_name": "United States",
          "short_name": "US",
          "types": [
            "country",
            "political"
          ]
        }
      ],
      "formatted_address": "Selby Township, IL, USA",
      "geometry": {
        "bounds": {
          "northeast": {
            "lat": 41.4078911,
            "lng": -89.2773919
          },
          "southwest": {
            "lat": 41.320397,
            "lng": -89.39358589999999
          }
        },
        "location": {
          "lat": 41.3792817,
          "lng": -89.341667
        },
        "location_type": "APPROXIMATE",
        "viewport": {
          "northeast": {
            "lat": 41.4078911,
            "lng": -89.2773919
          },
          "southwest": {
            "lat": 41.320397,
            "lng": -89.39358589999999
          }
        }
      },
      "place_id": "ChIJlX22IEx5CYgRfL7POTRu0SY",
      "types": [
        "administrative_area_level_3",
        "political"
      ]
    },
    {
      "address_components": [
        {
          "long_name": "61356",
          "short_name": "61356",
          "types": [
            "postal_code"
          ]
        },
        {
          "long_name": "Princeton",
          "short_name": "Princeton",
          "types": [
            "locality",
            "political"
          ]
        },
        {
          "long_name": "Bureau County",
          "short_name": "Bureau County",
          "types": [
            "administrative_area_level_2",
            "political"
          ]
        },
        {
          "long_name": "Illinois",
          "short_name": "IL",
          "types": [
            "administrative_area_level_1",
            "political"
          ]
        },
        {
          "long_name": "United States",
          "short_name": "US",
          "types": [
            "country",
            "political"
          ]
        }
      ],
      "formatted_address": "Princeton, IL 61356, USA",
      "geometry": {
        "bounds": {
          "northeast": {
            "lat": 41.5246061,
            "lng": -89.25818199999999
          },
          "southwest": {
            "lat": 41.24867,
            "lng": -89.6270579
          }
        },
        "location": {
          "lat": 41.39982089999999,
          "lng": -89.436391
        },
        "location_type": "APPROXIMATE",
        "viewport": {
          "northeast": {
            "lat": 41.5246061,
            "lng": -89.25818199999999
          },
          "southwest": {
            "lat": 41.24867,
            "lng": -89.6270579
          }
        }
      },
      "place_id": "ChIJBfOHC62DCYgR_buemENZ3iE",
      "postcode_localities": [
        "Hollowayville",
        "Princeton"
      ],
      "types": [
        "postal_code"
      ]
    },
    {
      "address_components": [
        {
          "long_name": "Bureau County",
          "short_name": "Bureau County",
          "types": [
            "administrative_area_level_2",
            "political"
          ]
        },
        {
          "long_name": "Illinois",
          "short_name": "IL",
          "types": [
            "administrative_area_level_1",
            "political"
          ]
        },
        {
          "long_name": "United States",
          "short_name": "US",
          "types": [
            "country",
            "political"
          ]
        }
      ],
      "formatted_address": "Bureau County, IL, USA",
      "geometry": {
        "bounds": {
          "northeast": {
            "lat": 41.585383,
            "lng": -89.1637049
          },
          "southwest": {
            "lat": 41.14850999999999,
            "lng": -89.86244099999999
          }
        },
        "location": {
          "lat": 41.35991560000001,
          "lng": -89.4742177
        },
        "location_type": "APPROXIMATE",
        "viewport": {
          "northeast": {
            "lat": 41.585383,
            "lng": -89.1637049
          },
          "southwest": {
            "lat": 41.14850999999999,
            "lng": -89.86244099999999
          }
        }
      },
      "place_id": "ChIJsZxijf6DCYgRnUJLc3G2mGU",
      "types": [
        "administrative_area_level_2",
        "political"
      ]
    },
    {
      "address_components": [
        {
          "long_name": "Illinois",
          "short_name": "IL",
          "types": [
            "administrative_area_level_1",
            "political"
          ]
        },
        {
          "long_name": "United States",
          "short_name": "US",
          "types": [
            "country",
            "political"
          ]
        }
      ],
      "formatted_address": "Illinois, USA",
      "geometry": {
        "bounds": {
          "northeast": {
            "lat": 42.5083379,
            "lng": -87.4951991
          },
          "southwest": {
            "lat": 36.970298,
            "lng": -91.5130789
          }
        },
        "location": {
          "lat": 40.6331249,
          "lng": -89.3985283
        },
        "location_type": "APPROXIMATE",
        "viewport": {
          "northeast": {
            "lat": 42.5083379,
            "lng": -87.4951991
          },
          "southwest": {
            "lat": 36.970298,
            "lng": -91.5130789
          }
        }
      },
      "place_id": "ChIJGSZubzgtC4gRVlkRZFCCFX8",
      "types": [
        "administrative_area_level_1",
        "political"
      ]
    },
    {
      "address_components": [
        {
          "long_name": "United States",
          "short_name": "US",
          "types": [
            "country",
            "political"
          ]
        }
      ],
      "formatted_address": "United States",
      "geometry": {
        "bounds": {
          "northeast": {
            "lat": 71.3867745,
            "lng": -66.9502861
          },
          "southwest": {
            "lat": 18.9106768,
            "lng": 172.4458955
          }
        },
        "location": {
          "lat": 37.09024,
          "lng": -95.712891
        },
        "location_type": "APPROXIMATE",
        "viewport": {
          "northeast": {
            "lat": 49.38,
            "lng": -66.94
          },
          "southwest": {
            "lat": 25.82,
            "lng": -124.39
          }
        }
      },
      "place_id": "ChIJCzYy5IS16lQRQrfeQ5K5Oxw",
      "types": [
        "country",
        "political"
      ]
    }
  ],
  "status": "OK"
}
