{
  "results": [
    {
      "address_components": [
        {
          "long_name": "6218",
          "short_name": "6218",
          "types": [
            "street_number"
          ]
        },
        {
          "long_name": "Yock Wock Road",
          "short_name": "Yock Wock Rd",
          "types": [
            "route"
          ]
        },
        {
          "long_name": "Port Norris",
          "short_name": "Port Norris",
          "types": [
            "neighborhood",
            "political"
          ]
        },
        {
          "long_name": "Commercial Township",
          "short_name": "Commercial Township",
          "types": [
            "locality",
            "political"
          ]
        },
        {
          "long_name": "Cumberland County",
          "short_name": "Cumberland County",
          "types": [
            "administrative_area_level_2",
            "political"
          ]
        },
        {
          "long_name": "New Jersey",
          "short_name": "NJ",
          "types": [
            "administrative_area_level_1",
            "political"
          ]
        },
        {
          "long_name": "United States",
          "short_name": "US",
          "types": [
            "country",
            "political"
          ]
        },
        {
          "long_name": "08349",
          "short_name": "08349",
          "types": [
            "postal_code"
          ]
        }
      ],
      "formatted_address": "6218 Yock Wock Rd, Port Norris, NJ 08349, USA",
      "geometry": {
        "location": {
          "lat": 39.249507,
          "lng": -75.042006
        },
        "location_type": "ROOFTOP",
        "viewport": {
          "northeast": {
            "lat": 39.2508559802915,
            "lng": -75.0406570197085
          },
          "southwest": {
            "lat": 39.24815801970851,
            "lng": -75.04335498029151
          }
        }
      },
      "place_id": "ChIJEYowRwxMx4kR-TAyvz_HXGo",
      "types": [
        "street_address"
      ]
    },
    {
      "address_components": [
        {
          "long_name": "Port Norris",
          "short_name": "Port Norris",
          "types": [
            "neighborhood",
            "political"
          ]
        },
        {
          "long_name": "Commercial Township",
          "short_name": "Commercial Township",
          "types": [
            "locality",
            "political"
          ]
        },
        {
          "long_name": "Cumberland County",
          "short_name": "Cumberland County",
          "types": [
            "administrative_area_level_2",
            "political"
          ]
        },
        {
          "long_name": "New Jersey",
          "short_name": "NJ",
          "types": [
            "administrative_area_level_1",
            "political"
          ]
        },
        {
          "long_name": "United States",
          "short_name": "US",
          "types": [
            "country",
            "political"
          ]
        }
      ],
      "formatted_address": "Port Norris, Commercial Township, NJ, USA",
      "geometry": {
        "bounds": {
          "northeast": {
            "lat": 39.278538,
            "lng": -75.010814
          },
          "southwest": {
            "lat": 39.210965,
            "lng": -75.06572489999999
          }
        },
        "location": {
          "lat": 39.24594769999999,
          "lng": -75.035178
        },
        "location_type": "APPROXIMATE",
        "viewport": {
          "northeast": {
            "lat": 39.278538,
            "lng": -75.010814
          },
          "southwest": {
            "lat": 39.210965,
            "lng": -75.06572489999999
          }
        }
      },
      "place_id": "ChIJS5vZ-WxIx4kRfLwVdm7mIGo",
      "types": [
        "neighborhood",
        "political"
      ]
    },
    {
      "address_components": [
        {
          "long_name": "Commercial Township",
          "short_name": "Commercial Township",
          "types": [
            "locality",
            "political"
          ]
        },
        {
          "long_name": "Cumberland County",
          "short_name": "Cumberland County",
          "types": [
            "administrative_area_level_2",
            "political"
          ]
        },
        {
          "long_name": "New Jersey",
          "short_name": "NJ",
          "types": [
            "administrative_area_level_1",
            "political"
          ]
        },
        {
          "long_name": "United States",
          "short_name": "US",
          "types": [
            "country",
            "political"
          ]
        }
      ],
      "formatted_address": "Commercial Township, NJ, USA",
      "geometry": {
        "bounds": {
          "northeast": {
            "lat": 39.347509,
            "lng": -74.9787011
          },
          "southwest": {
            "lat": 39.21184969999999,
            "lng": -75.1159745
          }
        },
        "location": {
          "lat": 39.27597069999999,
          "lng": -75.03775019999999
        },
        "location_type": "APPROXIMATE",
        "viewport": {
          "northeast": {
            "lat": 39.347509,
            "lng": -74.9787011
          },
          "southwest": {
            "lat": 39.21184969999999,
            "lng": -75.1159745
          }
        }
      },
      "place_id": "ChIJfwQomsJLx4kRC-H-5fFRtEw",
      "types": [
        "locality",
        "political"
      ]
    },
    {
      "address_components": [
        {
          "long_name": "08349",
          "short_name": "08349",
          "types": [
            "postal_code"
          ]
        },
        {
          "long_name": "Port Norris",
          "short_name": "Port Norris",
          "types": [
            "neighborhood",
            "political"
          ]
        },
        {
          "long_name": "Cumberland County",
          "short_name": "Cumberland County",
          "types": [
            "administrative_area_level_2",
            "political"
          ]
        },
        {
          "long_name": "New Jersey",
          "short_name": "NJ",
          "types": [
            "administrative_area_level_1",
            "political"
          ]
        },
        {
          "long_name": "United States",
          "short_name": "US",
          "types": [
            "country",
            "political"
          ]
        }
      ],
      "formatted_address": "Port Norris, NJ 08349, USA",
      "geometry": {
        "bounds": {
          "northeast": {
            "lat": 39.32197499999999,
            "lng": -74.980465
          },
          "southwest": {
            "lat": 39.193315,
            "lng": -75.1834109
          }
        },
        "location": {
          "lat": 39.2703967,
          "lng": -75.07279559999999
        },
        "location_type": "APPROXIMATE",
        "viewport": {
          "northeast": {
            "lat": 39.32197499999999,
            "lng": -74.980465
          },
          "southwest": {
            "lat": 39.193315,
            "lng": -75.1834109
          }
        }
      },
      "place_id": "ChIJhWUpPl5Jx4kRKGOIxlQtaQE",
      "types": [
        "postal_code"
      ]
    },
    {
      "address_components": [
        {
          "long_name": "Cumberland County",
          "short_name": "Cumberland County",
          "types": [
            "administrative_area_level_2",
            "political"
          ]
        },
        {
          "long_name": "New Jersey",
          "short_name": "NJ",
          "types": [
            "administrative_area_level_1",
            "political"
          ]
        },
        {
          "long_name": "United States",
          "short_name": "US",
          "types": [
            "country",
            "political"
          ]
        }
      ],
      "formatted_address": "Cumberland County, NJ, USA",
      "geometry": {
        "bounds": {
          "northeast": {
            "lat": 39.568643,
            "lng": -74.8518551
          },
          "southwest": {
            "lat": 39.176202,
            "lng": -75.41945299999999
          }
        },
        "location": {
          "lat": 39.2587106,
          "lng": -75.06111469999999
        },
        "location_type": "APPROXIMATE",
        "viewport": {
          "northeast": {
            "lat": 39.568643,
            "lng": -74.8518551
          },
          "southwest": {
            "lat": 39.1768689,
            "lng": -75.41945299999999
          }
        }
      },
      "place_id": "ChIJ1dp_HiUxx4kR9LbwHVK8Vl4",
      "types": [
        "administrative_area_level_2",
        "political"
      ]
    },
    {
      "address_components": [
        {
          "long_name": "New Jersey",
          "short_name": "NJ",
          "types": [
            "administrative_area_level_1",
            "political"
          ]
        },
        {
          "long_name": "United States",
          "short_name": "US",
          "types": [
            "country",
            "political"
          ]
        }
      ],
      "formatted_address": "New Jersey, USA",
      "geometry": {
        "bounds": {
          "northeast": {
            "lat": 41.357423,
            "lng": -73.9024391
          },
          "southwest": {
            "lat": 38.9285589,
            "lng": -75.5597921
          }
        },
        "location": {
          "lat": 40.0583238,
          "lng": -74.4056612
        },
        "location_type": "APPROXIMATE",
        "viewport": {
          "northeast": {
            "lat": 41.357423,
            "lng": -73.9024391
          },
          "southwest": {
            "lat": 38.9286032,
            "lng": -75.5597921
          }
        }
      },
      "place_id": "ChIJn0AAnpX7wIkRjW0_-Ad70iw",
      "types": [
        "administrative_area_level_1",
        "political"
      ]
    },
    {
      "address_components": [
        {
          "long_name": "United States",
          "short_name": "US",
          "types": [
            "country",
            "political"
          ]
        }
      ],
      "formatted_address": "United States",
      "geometry": {
        "bounds": {
          "northeast": {
            "lat": 71.3867745,
            "lng": -66.9502861
          },
          "southwest": {
            "lat": 18.9106768,
            "lng": 172.4458955
          }
        },
        "location": {
          "lat": 37.09024,
          "lng": -95.712891
        },
        "location_type": "APPROXIMATE",
        "viewport": {
          "northeast": {
            "lat": 49.38,
            "lng": -66.94
          },
          "southwest": {
            "lat": 25.82,
            "lng": -124.39
          }
        }
      },
      "place_id": "ChIJCzYy5IS16lQRQrfeQ5K5Oxw",
      "types": [
        "country",
        "political"
      ]
    }
  ],
  "status": "OK"
}
