{
  "results": [
    {
      "address_components": [
        {
          "long_name": "56",
          "short_name": "56",
          "types": [
            "street_number"
          ]
        },
        {
          "long_name": "Main Avenue",
          "short_name": "Main Ave",
          "types": [
            "route"
          ]
        },
        {
          "long_name": "Ocean Grove",
          "short_name": "Ocean Grove",
          "types": [
            "neighborhood",
            "political"
          ]
        },
        {
          "long_name": "Neptune Township",
          "short_name": "Neptune Township",
          "types": [
            "administrative_area_level_3",
            "political"
          ]
        },
        {
          "long_name": "Monmouth County",
          "short_name": "Monmouth County",
          "types": [
            "administrative_area_level_2",
            "political"
          ]
        },
        {
          "long_name": "New Jersey",
          "short_name": "NJ",
          "types": [
            "administrative_area_level_1",
            "political"
          ]
        },
        {
          "long_name": "United States",
          "short_name": "US",
          "types": [
            "country",
            "political"
          ]
        },
        {
          "long_name": "07756",
          "short_name": "07756",
          "types": [
            "postal_code"
          ]
        }
      ],
      "formatted_address": "56 Main Ave, Ocean Grove, NJ 07756, USA",
      "geometry": {
        "location": {
          "lat": 40.211853,
          "lng": -74.007243
        },
        "location_type": "ROOFTOP",
        "viewport": {
          "northeast": {
            "lat": 40.21320198029149,
            "lng": -74.00589401970849
          },
          "southwest": {
            "lat": 40.2105040197085,
            "lng": -74.00859198029151
          }
        }
      },
      "place_id": "ChIJpWF95TcmwokRbuYNTObKe0c",
      "types": [
        "street_address"
      ]
    },
    {
      "address_components": [
        {
          "long_name": "Ocean Grove",
          "short_name": "Ocean Grove",
          "types": [
            "neighborhood",
            "political"
          ]
        },
        {
          "long_name": "Neptune Township",
          "short_name": "Neptune Township",
          "types": [
            "administrative_area_level_3",
            "political"
          ]
        },
        {
          "long_name": "Monmouth County",
          "short_name": "Monmouth County",
          "types": [
            "administrative_area_level_2",
            "political"
          ]
        },
        {
          "long_name": "New Jersey",
          "short_name": "NJ",
          "types": [
            "administrative_area_level_1",
            "political"
          ]
        },
        {
          "long_name": "United States",
          "short_name": "US",
          "types": [
            "country",
            "political"
          ]
        }
      ],
      "formatted_address": "Ocean Grove, Neptune Township, NJ, USA",
      "geometry": {
        "bounds": {
          "northeast": {
            "lat": 40.217172,
            "lng": -73.99848109999999
          },
          "southwest": {
            "lat": 40.2068759,
            "lng": -74.01602290000001
          }
        },
        "location": {
          "lat": 40.2120575,
          "lng": -74.00652579999999
        },
        "location_type": "APPROXIMATE",
        "viewport": {
          "northeast": {
            "lat": 40.217172,
            "lng": -73.99848109999999
          },
          "southwest": {
            "lat": 40.2068759,
            "lng": -74.01602290000001
          }
        }
      },
      "place_id": "ChIJu3AJdTcmwokRnUQ7zfESBzI",
      "types": [
        "neighborhood",
        "political"
      ]
    },
    {
      "address_components": [
        {
          "long_name": "07756",
          "short_name": "07756",
          "types": [
            "postal_code"
          ]
        },
        {
          "long_name": "Ocean Grove",
          "short_name": "Ocean Grove",
          "types": [
            "neighborhood",
            "political"
          ]
        },
        {
          "long_name": "Monmouth County",
          "short_name": "Monmouth County",
          "types": [
            "administrative_area_level_2",
            "political"
          ]
        },
        {
          "long_name": "New Jersey",
          "short_name": "NJ",
          "types": [
            "administrative_area_level_1",
            "political"
          ]
        },
        {
          "long_name": "United States",
          "short_name": "US",
          "types": [
            "country",
            "political"
          ]
        }
      ],
      "formatted_address": "Ocean Grove, NJ 07756, USA",
      "geometry": {
        "bounds": {
          "northeast": {
            "lat": 40.217172,
            "lng": -73.99848109999999
          },
          "southwest": {
            "lat": 40.2066039,
            "lng": -74.01602290000001
          }
        },
        "location": {
          "lat": 40.21145610000001,
          "lng": -74.0079781
        },
        "location_type": "APPROXIMATE",
        "viewport": {
          "northeast": {
            "lat": 40.217172,
            "lng": -73.99848109999999
          },
          "southwest": {
            "lat": 40.2066039,
            "lng": -74.01602290000001
          }
        }
      },
      "place_id": "ChIJu3AJdTcmwokRqCvj6RkrzFw",
      "types": [
        "postal_code"
      ]
    },
    {
      "address_components": [
        {
          "long_name": "Neptune Township",
          "short_name": "Neptune Township",
          "types": [
            "administrative_area_level_3",
            "political"
          ]
        },
        {
          "long_name": "Monmouth County",
          "short_name": "Monmouth County",
          "types": [
            "administrative_area_level_2",
            "political"
          ]
        },
        {
          "long_name": "New Jersey",
          "short_name": "NJ",
          "types": [
            "administrative_area_level_1",
            "political"
          ]
        },
        {
          "long_name": "United States",
          "short_name": "US",
          "types": [
            "country",
            "political"
          ]
        }
      ],
      "formatted_address": "Neptune Township, NJ, USA",
      "geometry": {
        "bounds": {
          "northeast": {
            "lat": 40.234395,
            "lng": -73.9999876
          },
          "southwest": {
            "lat": 40.182713,
            "lng": -74.09443379999999
          }
        },
        "location": {
          "lat": 40.2091219,
          "lng": -74.0386271
        },
        "location_type": "APPROXIMATE",
        "viewport": {
          "northeast": {
            "lat": 40.234395,
            "lng": -73.9999876
          },
          "southwest": {
            "lat": 40.182713,
            "lng": -74.09443379999999
          }
        }
      },
      "place_id": "ChIJNypGqJ4rwokRDjc29khsGvc",
      "types": [
        "administrative_area_level_3",
        "political"
      ]
    },
    {
      "address_components": [
        {
          "long_name": "Monmouth County",
          "short_name": "Monmouth County",
          "types": [
            "administrative_area_level_2",
            "political"
          ]
        },
        {
          "long_name": "New Jersey",
          "short_name": "NJ",
          "types": [
            "administrative_area_level_1",
            "political"
          ]
        },
        {
          "long_name": "United States",
          "short_name": "US",
          "types": [
            "country",
            "political"
          ]
        }
      ],
      "formatted_address": "Monmouth County, NJ, USA",
      "geometry": {
        "bounds": {
          "northeast": {
            "lat": 40.4779551,
            "lng": -73.9721844
          },
          "southwest": {
            "lat": 40.07913,
            "lng": -74.613529
          }
        },
        "location": {
          "lat": 40.2589455,
          "lng": -74.12399599999999
        },
        "location_type": "APPROXIMATE",
        "viewport": {
          "northeast": {
            "lat": 40.4779551,
            "lng": -73.9721844
          },
          "southwest": {
            "lat": 40.07913,
            "lng": -74.613529
          }
        }
      },
      "place_id": "ChIJs-wyjgfPw4kRpyM0wCxA5CQ",
      "types": [
        "administrative_area_level_2",
        "political"
      ]
    },
    {
      "address_components": [
        {
          "long_name": "New Jersey",
          "short_name": "NJ",
          "types": [
            "administrative_area_level_1",
            "political"
          ]
        },
        {
          "long_name": "United States",
          "short_name": "US",
          "types": [
            "country",
            "political"
          ]
        }
      ],
      "formatted_address": "New Jersey, USA",
      "geometry": {
        "bounds": {
          "northeast": {
            "lat": 41.357423,
            "lng": -73.9024391
          },
          "southwest": {
            "lat": 38.9285589,
            "lng": -75.5597921
          }
        },
        "location": {
          "lat": 40.0583238,
          "lng": -74.4056612
        },
        "location_type": "APPROXIMATE",
        "viewport": {
          "northeast": {
            "lat": 41.357423,
            "lng": -73.9024391
          },
          "southwest": {
            "lat": 38.9286032,
            "lng": -75.5597921
          }
        }
      },
      "place_id": "ChIJn0AAnpX7wIkRjW0_-Ad70iw",
      "types": [
        "administrative_area_level_1",
        "political"
      ]
    },
    {
      "address_components": [
        {
          "long_name": "United States",
          "short_name": "US",
          "types": [
            "country",
            "political"
          ]
        }
      ],
      "formatted_address": "United States",
      "geometry": {
        "bounds": {
          "northeast": {
            "lat": 71.3867745,
            "lng": -66.9502861
          },
          "southwest": {
            "lat": 18.9106768,
            "lng": 172.4458955
          }
        },
        "location": {
          "lat": 37.09024,
          "lng": -95.712891
        },
        "location_type": "APPROXIMATE",
        "viewport": {
          "northeast": {
            "lat": 49.38,
            "lng": -66.94
          },
          "southwest": {
            "lat": 25.82,
            "lng": -124.39
          }
        }
      },
      "place_id": "ChIJCzYy5IS16lQRQrfeQ5K5Oxw",
      "types": [
        "country",
        "political"
      ]
    }
  ],
  "status": "OK"
}
