{
  "results": [
    {
      "address_components": [
        {
          "long_name": "400",
          "short_name": "400",
          "types": [
            "street_number"
          ]
        },
        {
          "long_name": "Main Street",
          "short_name": "Main St",
          "types": [
            "route"
          ]
        },
        {
          "long_name": "Henning",
          "short_name": "Henning",
          "types": [
            "locality",
            "political"
          ]
        },
        {
          "long_name": "South Ross Township",
          "short_name": "South Ross Township",
          "types": [
            "administrative_area_level_3",
            "political"
          ]
        },
        {
          "long_name": "Vermilion County",
          "short_name": "Vermilion County",
          "types": [
            "administrative_area_level_2",
            "political"
          ]
        },
        {
          "long_name": "Illinois",
          "short_name": "IL",
          "types": [
            "administrative_area_level_1",
            "political"
          ]
        },
        {
          "long_name": "United States",
          "short_name": "US",
          "types": [
            "country",
            "political"
          ]
        },
        {
          "long_name": "61848",
          "short_name": "61848",
          "types": [
            "postal_code"
          ]
        }
      ],
      "formatted_address": "400 Main St, Henning, IL 61848, USA",
      "geometry": {
        "location": {
          "lat": 40.309129,
          "lng": -87.7025465
        },
        "location_type": "ROOFTOP",
        "viewport": {
          "northeast": {
            "lat": 40.31047798029149,
            "lng": -87.70119751970849
          },
          "southwest": {
            "lat": 40.3077800197085,
            "lng": -87.70389548029151
          }
        }
      },
      "place_id": "ChIJZw8ZgHNoDYgRoh9lPIeKxHk",
      "types": [
        "street_address"
      ]
    },
    {
      "address_components": [
        {
          "long_name": "Henning",
          "short_name": "Henning",
          "types": [
            "locality",
            "political"
          ]
        },
        {
          "long_name": "South Ross Township",
          "short_name": "South Ross Township",
          "types": [
            "administrative_area_level_3",
            "political"
          ]
        },
        {
          "long_name": "Vermilion County",
          "short_name": "Vermilion County",
          "types": [
            "administrative_area_level_2",
            "political"
          ]
        },
        {
          "long_name": "Illinois",
          "short_name": "IL",
          "types": [
            "administrative_area_level_1",
            "political"
          ]
        },
        {
          "long_name": "United States",
          "short_name": "US",
          "types": [
            "country",
            "political"
          ]
        }
      ],
      "formatted_address": "Henning, IL, USA",
      "geometry": {
        "bounds": {
          "northeast": {
            "lat": 40.317842,
            "lng": -87.690906
          },
          "southwest": {
            "lat": 40.295839,
            "lng": -87.7110941
          }
        },
        "location": {
          "lat": 40.3050364,
          "lng": -87.7008567
        },
        "location_type": "APPROXIMATE",
        "viewport": {
          "northeast": {
            "lat": 40.317842,
            "lng": -87.690906
          },
          "southwest": {
            "lat": 40.295839,
            "lng": -87.7110941
          }
        }
      },
      "place_id": "ChIJz1oOMgtoDYgRTGsRY6l-xPY",
      "types": [
        "locality",
        "political"
      ]
    },
    {
      "address_components": [
        {
          "long_name": "61848",
          "short_name": "61848",
          "types": [
            "postal_code"
          ]
        },
        {
          "long_name": "Henning",
          "short_name": "Henning",
          "types": [
            "locality",
            "political"
          ]
        },
        {
          "long_name": "South Ross Township",
          "short_name": "South Ross Township",
          "types": [
            "administrative_area_level_3",
            "political"
          ]
        },
        {
          "long_name": "Vermilion County",
          "short_name": "Vermilion County",
          "types": [
            "administrative_area_level_2",
            "political"
          ]
        },
        {
          "long_name": "Illinois",
          "short_name": "IL",
          "types": [
            "administrative_area_level_1",
            "political"
          ]
        },
        {
          "long_name": "United States",
          "short_name": "US",
          "types": [
            "country",
            "political"
          ]
        }
      ],
      "formatted_address": "Henning, IL 61848, USA",
      "geometry": {
        "bounds": {
          "northeast": {
            "lat": 40.314228,
            "lng": -87.69109
          },
          "southwest": {
            "lat": 40.29944,
            "lng": -87.710932
          }
        },
        "location": {
          "lat": 40.3090507,
          "lng": -87.70001789999999
        },
        "location_type": "APPROXIMATE",
        "viewport": {
          "northeast": {
            "lat": 40.314228,
            "lng": -87.69109
          },
          "southwest": {
            "lat": 40.29944,
            "lng": -87.710932
          }
        }
      },
      "place_id": "ChIJC_bmagtoDYgRuvbvSMlN-hc",
      "types": [
        "postal_code"
      ]
    },
    {
      "address_components": [
        {
          "long_name": "South Ross Township",
          "short_name": "South Ross Township",
          "types": [
            "administrative_area_level_3",
            "political"
          ]
        },
        {
          "long_name": "Vermilion County",
          "short_name": "Vermilion County",
          "types": [
            "administrative_area_level_2",
            "political"
          ]
        },
        {
          "long_name": "Illinois",
          "short_name": "IL",
          "types": [
            "administrative_area_level_1",
            "political"
          ]
        },
        {
          "long_name": "United States",
          "short_name": "US",
          "types": [
            "country",
            "political"
          ]
        }
      ],
      "formatted_address": "South Ross Township, IL, USA",
      "geometry": {
        "bounds": {
          "northeast": {
            "lat": 40.357807,
            "lng": -87.528791
          },
          "southwest": {
            "lat": 40.2701268,
            "lng": -87.7592169
          }
        },
        "location": {
          "lat": 40.3052618,
          "lng": -87.6383797
        },
        "location_type": "APPROXIMATE",
        "viewport": {
          "northeast": {
            "lat": 40.357807,
            "lng": -87.528791
          },
          "southwest": {
            "lat": 40.2701268,
            "lng": -87.7592169
          }
        }
      },
      "place_id": "ChIJZUNtxRBnDYgR4KoSggTeDwo",
      "types": [
        "administrative_area_level_3",
        "political"
      ]
    },
    {
      "address_components": [
        {
          "long_name": "Vermilion County",
          "short_name": "Vermilion County",
          "types": [
            "administrative_area_level_2",
            "political"
          ]
        },
        {
          "long_name": "Illinois",
          "short_name": "IL",
          "types": [
            "administrative_area_level_1",
            "political"
          ]
        },
        {
          "long_name": "United States",
          "short_name": "US",
          "types": [
            "country",
            "political"
          ]
        }
      ],
      "formatted_address": "Vermilion County, IL, USA",
      "geometry": {
        "bounds": {
          "northeast": {
            "lat": 40.4912231,
            "lng": -87.526372
          },
          "southwest": {
            "lat": 39.868384,
            "lng": -87.942103
          }
        },
        "location": {
          "lat": 40.122469,
          "lng": -87.697554
        },
        "location_type": "APPROXIMATE",
        "viewport": {
          "northeast": {
            "lat": 40.4912231,
            "lng": -87.526372
          },
          "southwest": {
            "lat": 39.868384,
            "lng": -87.942103
          }
        }
      },
      "place_id": "ChIJUweC53REDYgRGbrgYhqtJQs",
      "types": [
        "administrative_area_level_2",
        "political"
      ]
    },
    {
      "address_components": [
        {
          "long_name": "Danville",
          "short_name": "Danville",
          "types": [
            "political"
          ]
        },
        {
          "long_name": "United States",
          "short_name": "US",
          "types": [
            "country",
            "political"
          ]
        }
      ],
      "formatted_address": "Danville, USA",
      "geometry": {
        "bounds": {
          "northeast": {
            "lat": 40.491574,
            "lng": -87.526376
          },
          "southwest": {
            "lat": 39.868384,
            "lng": -87.9423399
          }
        },
        "location": {
          "lat": 40.122469,
          "lng": -87.697554
        },
        "location_type": "APPROXIMATE",
        "viewport": {
          "northeast": {
            "lat": 40.491574,
            "lng": -87.526376
          },
          "southwest": {
            "lat": 39.868384,
            "lng": -87.9423399
          }
        }
      },
      "place_id": "ChIJEzwElvREDYgRRMXqHo-jS8M",
      "types": [
        "political"
      ]
    },
    {
      "address_components": [
        {
          "long_name": "Illinois",
          "short_name": "IL",
          "types": [
            "administrative_area_level_1",
            "political"
          ]
        },
        {
          "long_name": "United States",
          "short_name": "US",
          "types": [
            "country",
            "political"
          ]
        }
      ],
      "formatted_address": "Illinois, USA",
      "geometry": {
        "bounds": {
          "northeast": {
            "lat": 42.5083379,
            "lng": -87.4951991
          },
          "southwest": {
            "lat": 36.970298,
            "lng": -91.5130789
          }
        },
        "location": {
          "lat": 40.6331249,
          "lng": -89.3985283
        },
        "location_type": "APPROXIMATE",
        "viewport": {
          "northeast": {
            "lat": 42.5083379,
            "lng": -87.4951991
          },
          "southwest": {
            "lat": 36.970298,
            "lng": -91.5130789
          }
        }
      },
      "place_id": "ChIJGSZubzgtC4gRVlkRZFCCFX8",
      "types": [
        "administrative_area_level_1",
        "political"
      ]
    },
    {
      "address_components": [
        {
          "long_name": "United States",
          "short_name": "US",
          "types": [
            "country",
            "political"
          ]
        }
      ],
      "formatted_address": "United States",
      "geometry": {
        "bounds": {
          "northeast": {
            "lat": 71.3867745,
            "lng": -66.9502861
          },
          "southwest": {
            "lat": 18.9106768,
            "lng": 172.4458955
          }
        },
        "location": {
          "lat": 37.09024,
          "lng": -95.712891
        },
        "location_type": "APPROXIMATE",
        "viewport": {
          "northeast": {
            "lat": 49.38,
            "lng": -66.94
          },
          "southwest": {
            "lat": 25.82,
            "lng": -124.39
          }
        }
      },
      "place_id": "ChIJCzYy5IS16lQRQrfeQ5K5Oxw",
      "types": [
        "country",
        "political"
      ]
    }
  ],
  "status": "OK"
}
