{
  "results": [
    {
      "address_components": [
        {
          "long_name": "3995",
          "short_name": "3995",
          "types": [
            "street_number"
          ]
        },
        {
          "long_name": "Route 204",
          "short_name": "PA-204",
          "types": [
            "route"
          ]
        },
        {
          "long_name": "Selinsgrove",
          "short_name": "Selinsgrove",
          "types": [
            "locality",
            "political"
          ]
        },
        {
          "long_name": "Jackson Township",
          "short_name": "Jackson Township",
          "types": [
            "administrative_area_level_3",
            "political"
          ]
        },
        {
          "long_name": "Snyder County",
          "short_name": "Snyder County",
          "types": [
            "administrative_area_level_2",
            "political"
          ]
        },
        {
          "long_name": "Pennsylvania",
          "short_name": "PA",
          "types": [
            "administrative_area_level_1",
            "political"
          ]
        },
        {
          "long_name": "United States",
          "short_name": "US",
          "types": [
            "country",
            "political"
          ]
        },
        {
          "long_name": "17870",
          "short_name": "17870",
          "types": [
            "postal_code"
          ]
        },
        {
          "long_name": "8962",
          "short_name": "8962",
          "types": [
            "postal_code_suffix"
          ]
        }
      ],
      "formatted_address": "3995 PA-204, Selinsgrove, PA 17870, USA",
      "geometry": {
        "location": {
          "lat": 40.859672,
          "lng": -76.893996
        },
        "location_type": "ROOFTOP",
        "viewport": {
          "northeast": {
            "lat": 40.8610209802915,
            "lng": -76.89264701970849
          },
          "southwest": {
            "lat": 40.8583230197085,
            "lng": -76.89534498029151
          }
        }
      },
      "place_id": "ChIJB9VGI40Vz4kRB4AbrbATYtQ",
      "types": [
        "street_address"
      ]
    },
    {
      "address_components": [
        {
          "long_name": "Kratzerville",
          "short_name": "Kratzerville",
          "types": [
            "locality",
            "political"
          ]
        },
        {
          "long_name": "Jackson Township",
          "short_name": "Jackson Township",
          "types": [
            "administrative_area_level_3",
            "political"
          ]
        },
        {
          "long_name": "Snyder County",
          "short_name": "Snyder County",
          "types": [
            "administrative_area_level_2",
            "political"
          ]
        },
        {
          "long_name": "Pennsylvania",
          "short_name": "PA",
          "types": [
            "administrative_area_level_1",
            "political"
          ]
        },
        {
          "long_name": "United States",
          "short_name": "US",
          "types": [
            "country",
            "political"
          ]
        }
      ],
      "formatted_address": "Kratzerville, PA, USA",
      "geometry": {
        "bounds": {
          "northeast": {
            "lat": 40.866454,
            "lng": -76.876725
          },
          "southwest": {
            "lat": 40.85170110000001,
            "lng": -76.9144208
          }
        },
        "location": {
          "lat": 40.8600847,
          "lng": -76.89580380000001
        },
        "location_type": "APPROXIMATE",
        "viewport": {
          "northeast": {
            "lat": 40.866454,
            "lng": -76.876725
          },
          "southwest": {
            "lat": 40.85170110000001,
            "lng": -76.9144208
          }
        }
      },
      "place_id": "ChIJj6SMMY0Vz4kRbfct7PNS9ws",
      "types": [
        "locality",
        "political"
      ]
    },
    {
      "address_components": [
        {
          "long_name": "Jackson Township",
          "short_name": "Jackson Township",
          "types": [
            "administrative_area_level_3",
            "political"
          ]
        },
        {
          "long_name": "Snyder County",
          "short_name": "Snyder County",
          "types": [
            "administrative_area_level_2",
            "political"
          ]
        },
        {
          "long_name": "Pennsylvania",
          "short_name": "PA",
          "types": [
            "administrative_area_level_1",
            "political"
          ]
        },
        {
          "long_name": "United States",
          "short_name": "US",
          "types": [
            "country",
            "political"
          ]
        }
      ],
      "formatted_address": "Jackson Township, PA, USA",
      "geometry": {
        "bounds": {
          "northeast": {
            "lat": 40.888071,
            "lng": -76.8756049
          },
          "southwest": {
            "lat": 40.83954800000001,
            "lng": -77.023485
          }
        },
        "location": {
          "lat": 40.8683509,
          "lng": -76.9527836
        },
        "location_type": "APPROXIMATE",
        "viewport": {
          "northeast": {
            "lat": 40.888071,
            "lng": -76.8756049
          },
          "southwest": {
            "lat": 40.83954800000001,
            "lng": -77.023485
          }
        }
      },
      "place_id": "ChIJ4fABMyQWz4kRdw4BflPY8tk",
      "types": [
        "administrative_area_level_3",
        "political"
      ]
    },
    {
      "address_components": [
        {
          "long_name": "17870",
          "short_name": "17870",
          "types": [
            "postal_code"
          ]
        },
        {
          "long_name": "Selinsgrove",
          "short_name": "Selinsgrove",
          "types": [
            "locality",
            "political"
          ]
        },
        {
          "long_name": "Pennsylvania",
          "short_name": "PA",
          "types": [
            "administrative_area_level_1",
            "political"
          ]
        },
        {
          "long_name": "United States",
          "short_name": "US",
          "types": [
            "country",
            "political"
          ]
        }
      ],
      "formatted_address": "Selinsgrove, PA 17870, USA",
      "geometry": {
        "bounds": {
          "northeast": {
            "lat": 40.906233,
            "lng": -76.79422079999999
          },
          "southwest": {
            "lat": 40.725639,
            "lng": -76.96412699999999
          }
        },
        "location": {
          "lat": 40.8206063,
          "lng": -76.8836261
        },
        "location_type": "APPROXIMATE",
        "viewport": {
          "northeast": {
            "lat": 40.906233,
            "lng": -76.79422079999999
          },
          "southwest": {
            "lat": 40.725639,
            "lng": -76.96412699999999
          }
        }
      },
      "place_id": "ChIJ4041mFk-z4kRx47GmPmgbO0",
      "types": [
        "postal_code"
      ]
    },
    {
      "address_components": [
        {
          "long_name": "Selinsgrove",
          "short_name": "Selinsgrove",
          "types": [
            "political"
          ]
        },
        {
          "long_name": "Pennsylvania",
          "short_name": "PA",
          "types": [
            "administrative_area_level_1",
            "political"
          ]
        },
        {
          "long_name": "United States",
          "short_name": "US",
          "types": [
            "country",
            "political"
          ]
        }
      ],
      "formatted_address": "Selinsgrove, PA, USA",
      "geometry": {
        "bounds": {
          "northeast": {
            "lat": 40.8894859,
            "lng": -76.7984219
          },
          "southwest": {
            "lat": 40.635865,
            "lng": -77.35662789999999
          }
        },
        "location": {
          "lat": 40.750748,
          "lng": -77.0564464
        },
        "location_type": "APPROXIMATE",
        "viewport": {
          "northeast": {
            "lat": 40.8894859,
            "lng": -76.7984219
          },
          "southwest": {
            "lat": 40.635865,
            "lng": -77.35662789999999
          }
        }
      },
      "place_id": "ChIJUSeV_EIkz4kR0e5O-XxYJjo",
      "types": [
        "political"
      ]
    },
    {
      "address_components": [
        {
          "long_name": "Snyder County",
          "short_name": "Snyder County",
          "types": [
            "administrative_area_level_2",
            "political"
          ]
        },
        {
          "long_name": "Pennsylvania",
          "short_name": "PA",
          "types": [
            "administrative_area_level_1",
            "political"
          ]
        },
        {
          "long_name": "United States",
          "short_name": "US",
          "types": [
            "country",
            "political"
          ]
        }
      ],
      "formatted_address": "Snyder County, PA, USA",
      "geometry": {
        "bounds": {
          "northeast": {
            "lat": 40.889621,
            "lng": -76.79871399999999
          },
          "southwest": {
            "lat": 40.63571109999999,
            "lng": -77.35662789999999
          }
        },
        "location": {
          "lat": 40.750748,
          "lng": -77.0564464
        },
        "location_type": "APPROXIMATE",
        "viewport": {
          "northeast": {
            "lat": 40.889621,
            "lng": -76.79871399999999
          },
          "southwest": {
            "lat": 40.63571109999999,
            "lng": -77.35662789999999
          }
        }
      },
      "place_id": "ChIJ68-JifXezokRiBp2TDjLiwc",
      "types": [
        "administrative_area_level_2",
        "political"
      ]
    },
    {
      "address_components": [
        {
          "long_name": "Pennsylvania",
          "short_name": "PA",
          "types": [
            "administrative_area_level_1",
            "political"
          ]
        },
        {
          "long_name": "United States",
          "short_name": "US",
          "types": [
            "country",
            "political"
          ]
        }
      ],
      "formatted_address": "Pennsylvania, USA",
      "geometry": {
        "bounds": {
          "northeast": {
            "lat": 42.2693866,
            "lng": -74.6895018
          },
          "southwest": {
            "lat": 39.7197989,
            "lng": -80.51989499999999
          }
        },
        "location": {
          "lat": 41.2033216,
          "lng": -77.1945247
        },
        "location_type": "APPROXIMATE",
        "viewport": {
          "northeast": {
            "lat": 42.2693866,
            "lng": -74.6895018
          },
          "southwest": {
            "lat": 39.7197989,
            "lng": -80.51989499999999
          }
        }
      },
      "place_id": "ChIJieUyHiaALYgRPbQiUEchRsI",
      "types": [
        "administrative_area_level_1",
        "political"
      ]
    },
    {
      "address_components": [
        {
          "long_name": "United States",
          "short_name": "US",
          "types": [
            "country",
            "political"
          ]
        }
      ],
      "formatted_address": "United States",
      "geometry": {
        "bounds": {
          "northeast": {
            "lat": 71.3867745,
            "lng": -66.9502861
          },
          "southwest": {
            "lat": 18.9106768,
            "lng": 172.4458955
          }
        },
        "location": {
          "lat": 37.09024,
          "lng": -95.712891
        },
        "location_type": "APPROXIMATE",
        "viewport": {
          "northeast": {
            "lat": 49.38,
            "lng": -66.94
          },
          "southwest": {
            "lat": 25.82,
            "lng": -124.39
          }
        }
      },
      "place_id": "ChIJCzYy5IS16lQRQrfeQ5K5Oxw",
      "types": [
        "country",
        "political"
      ]
    }
  ],
  "status": "OK"
}
