{
  "results": [
    {
      "address_components": [
        {
          "long_name": "200-204",
          "short_name": "200-204",
          "types": [
            "street_number"
          ]
        },
        {
          "long_name": "Berry Street",
          "short_name": "Berry St",
          "types": [
            "route"
          ]
        },
        {
          "long_name": "Standard",
          "short_name": "Standard",
          "types": [
            "locality",
            "political"
          ]
        },
        {
          "long_name": "Granville Township",
          "short_name": "Granville Township",
          "types": [
            "administrative_area_level_3",
            "political"
          ]
        },
        {
          "long_name": "Putnam County",
          "short_name": "Putnam County",
          "types": [
            "administrative_area_level_2",
            "political"
          ]
        },
        {
          "long_name": "Illinois",
          "short_name": "IL",
          "types": [
            "administrative_area_level_1",
            "political"
          ]
        },
        {
          "long_name": "United States",
          "short_name": "US",
          "types": [
            "country",
            "political"
          ]
        },
        {
          "long_name": "61363",
          "short_name": "61363",
          "types": [
            "postal_code"
          ]
        }
      ],
      "formatted_address": "200-204 Berry St, Standard, IL 61363, USA",
      "geometry": {
        "bounds": {
          "northeast": {
            "lat": 41.2559062,
            "lng": -89.1811098
          },
          "southwest": {
            "lat": 41.255897,
            "lng": -89.18246649999999
          }
        },
        "location": {
          "lat": 41.2558872,
          "lng": -89.1817413
        },
        "location_type": "RANGE_INTERPOLATED",
        "viewport": {
          "northeast": {
            "lat": 41.2572505802915,
            "lng": -89.18043916970849
          },
          "southwest": {
            "lat": 41.25455261970851,
            "lng": -89.1831371302915
          }
        }
      },
      "place_id": "EikyMDAtMjA0IEJlcnJ5IFN0LCBTdGFuZGFyZCwgSUwgNjEzNjMsIFVTQQ",
      "types": [
        "street_address"
      ]
    },
    {
      "address_components": [
        {
          "long_name": "Standard",
          "short_name": "Standard",
          "types": [
            "locality",
            "political"
          ]
        },
        {
          "long_name": "Granville Township",
          "short_name": "Granville Township",
          "types": [
            "administrative_area_level_3",
            "political"
          ]
        },
        {
          "long_name": "Putnam County",
          "short_name": "Putnam County",
          "types": [
            "administrative_area_level_2",
            "political"
          ]
        },
        {
          "long_name": "Illinois",
          "short_name": "IL",
          "types": [
            "administrative_area_level_1",
            "political"
          ]
        },
        {
          "long_name": "United States",
          "short_name": "US",
          "types": [
            "country",
            "political"
          ]
        }
      ],
      "formatted_address": "Standard, IL, USA",
      "geometry": {
        "bounds": {
          "northeast": {
            "lat": 41.2612461,
            "lng": -89.1676
          },
          "southwest": {
            "lat": 41.250297,
            "lng": -89.1921809
          }
        },
        "location": {
          "lat": 41.2567025,
          "lng": -89.18091849999999
        },
        "location_type": "APPROXIMATE",
        "viewport": {
          "northeast": {
            "lat": 41.2612461,
            "lng": -89.1676
          },
          "southwest": {
            "lat": 41.250297,
            "lng": -89.1921809
          }
        }
      },
      "place_id": "ChIJJcDu3sfYC4gRpPgrZH7SZ7I",
      "types": [
        "locality",
        "political"
      ]
    },
    {
      "address_components": [
        {
          "long_name": "61363",
          "short_name": "61363",
          "types": [
            "postal_code"
          ]
        },
        {
          "long_name": "Standard",
          "short_name": "Standard",
          "types": [
            "locality",
            "political"
          ]
        },
        {
          "long_name": "Granville Township",
          "short_name": "Granville Township",
          "types": [
            "administrative_area_level_3",
            "political"
          ]
        },
        {
          "long_name": "Putnam County",
          "short_name": "Putnam County",
          "types": [
            "administrative_area_level_2",
            "political"
          ]
        },
        {
          "long_name": "Illinois",
          "short_name": "IL",
          "types": [
            "administrative_area_level_1",
            "political"
          ]
        },
        {
          "long_name": "United States",
          "short_name": "US",
          "types": [
            "country",
            "political"
          ]
        }
      ],
      "formatted_address": "Standard, IL 61363, USA",
      "geometry": {
        "bounds": {
          "northeast": {
            "lat": 41.261244,
            "lng": -89.17266579999999
          },
          "southwest": {
            "lat": 41.250299,
            "lng": -89.192188
          }
        },
        "location": {
          "lat": 41.2553741,
          "lng": -89.1825028
        },
        "location_type": "APPROXIMATE",
        "viewport": {
          "northeast": {
            "lat": 41.261244,
            "lng": -89.17266579999999
          },
          "southwest": {
            "lat": 41.250299,
            "lng": -89.192188
          }
        }
      },
      "place_id": "ChIJsan7oMjYC4gRBPlCkmzLABg",
      "types": [
        "postal_code"
      ]
    },
    {
      "address_components": [
        {
          "long_name": "Granville Township",
          "short_name": "Granville Township",
          "types": [
            "administrative_area_level_3",
            "political"
          ]
        },
        {
          "long_name": "Putnam County",
          "short_name": "Putnam County",
          "types": [
            "administrative_area_level_2",
            "political"
          ]
        },
        {
          "long_name": "Illinois",
          "short_name": "IL",
          "types": [
            "administrative_area_level_1",
            "political"
          ]
        },
        {
          "long_name": "United States",
          "short_name": "US",
          "types": [
            "country",
            "political"
          ]
        }
      ],
      "formatted_address": "Granville Township, IL, USA",
      "geometry": {
        "bounds": {
          "northeast": {
            "lat": 41.322531,
            "lng": -89.1625749
          },
          "southwest": {
            "lat": 41.191587,
            "lng": -89.2814339
          }
        },
        "location": {
          "lat": 41.2581956,
          "lng": -89.2277026
        },
        "location_type": "APPROXIMATE",
        "viewport": {
          "northeast": {
            "lat": 41.322531,
            "lng": -89.1625749
          },
          "southwest": {
            "lat": 41.191587,
            "lng": -89.2814339
          }
        }
      },
      "place_id": "ChIJJYbdtkbYC4gR8le7YVWOIsM",
      "types": [
        "administrative_area_level_3",
        "political"
      ]
    },
    {
      "address_components": [
        {
          "long_name": "Putnam County",
          "short_name": "Putnam County",
          "types": [
            "administrative_area_level_2",
            "political"
          ]
        },
        {
          "long_name": "Illinois",
          "short_name": "IL",
          "types": [
            "administrative_area_level_1",
            "political"
          ]
        },
        {
          "long_name": "United States",
          "short_name": "US",
          "types": [
            "country",
            "political"
          ]
        }
      ],
      "formatted_address": "Putnam County, IL, USA",
      "geometry": {
        "bounds": {
          "northeast": {
            "lat": 41.322531,
            "lng": -89.16209479999999
          },
          "southwest": {
            "lat": 41.1036639,
            "lng": -89.4665339
          }
        },
        "location": {
          "lat": 41.238474,
          "lng": -89.28472510000002
        },
        "location_type": "APPROXIMATE",
        "viewport": {
          "northeast": {
            "lat": 41.322531,
            "lng": -89.16209479999999
          },
          "southwest": {
            "lat": 41.1036639,
            "lng": -89.4665339
          }
        }
      },
      "place_id": "ChIJG9cxK6TWC4gR8j5YJ22SRm0",
      "types": [
        "administrative_area_level_2",
        "political"
      ]
    },
    {
      "address_components": [
        {
          "long_name": "Illinois",
          "short_name": "IL",
          "types": [
            "administrative_area_level_1",
            "political"
          ]
        },
        {
          "long_name": "United States",
          "short_name": "US",
          "types": [
            "country",
            "political"
          ]
        }
      ],
      "formatted_address": "Illinois, USA",
      "geometry": {
        "bounds": {
          "northeast": {
            "lat": 42.5083379,
            "lng": -87.4951991
          },
          "southwest": {
            "lat": 36.970298,
            "lng": -91.5130789
          }
        },
        "location": {
          "lat": 40.6331249,
          "lng": -89.3985283
        },
        "location_type": "APPROXIMATE",
        "viewport": {
          "northeast": {
            "lat": 42.5083379,
            "lng": -87.4951991
          },
          "southwest": {
            "lat": 36.970298,
            "lng": -91.5130789
          }
        }
      },
      "place_id": "ChIJGSZubzgtC4gRVlkRZFCCFX8",
      "types": [
        "administrative_area_level_1",
        "political"
      ]
    },
    {
      "address_components": [
        {
          "long_name": "United States",
          "short_name": "US",
          "types": [
            "country",
            "political"
          ]
        }
      ],
      "formatted_address": "United States",
      "geometry": {
        "bounds": {
          "northeast": {
            "lat": 71.3867745,
            "lng": -66.9502861
          },
          "southwest": {
            "lat": 18.9106768,
            "lng": 172.4458955
          }
        },
        "location": {
          "lat": 37.09024,
          "lng": -95.712891
        },
        "location_type": "APPROXIMATE",
        "viewport": {
          "northeast": {
            "lat": 49.38,
            "lng": -66.94
          },
          "southwest": {
            "lat": 25.82,
            "lng": -124.39
          }
        }
      },
      "place_id": "ChIJCzYy5IS16lQRQrfeQ5K5Oxw",
      "types": [
        "country",
        "political"
      ]
    }
  ],
  "status": "OK"
}
