{
  "results": [
    {
      "address_components": [
        {
          "long_name": "117",
          "short_name": "117",
          "types": [
            "street_number"
          ]
        },
        {
          "long_name": "West Prairie Street",
          "short_name": "W Prairie St",
          "types": [
            "route"
          ]
        },
        {
          "long_name": "Jerseyville",
          "short_name": "Jerseyville",
          "types": [
            "locality",
            "political"
          ]
        },
        {
          "long_name": "Jersey Township",
          "short_name": "Jersey Township",
          "types": [
            "administrative_area_level_3",
            "political"
          ]
        },
        {
          "long_name": "Jersey County",
          "short_name": "Jersey County",
          "types": [
            "administrative_area_level_2",
            "political"
          ]
        },
        {
          "long_name": "Illinois",
          "short_name": "IL",
          "types": [
            "administrative_area_level_1",
            "political"
          ]
        },
        {
          "long_name": "United States",
          "short_name": "US",
          "types": [
            "country",
            "political"
          ]
        },
        {
          "long_name": "62052",
          "short_name": "62052",
          "types": [
            "postal_code"
          ]
        },
        {
          "long_name": "1604",
          "short_name": "1604",
          "types": [
            "postal_code_suffix"
          ]
        }
      ],
      "formatted_address": "117 W Prairie St, Jerseyville, IL 62052, USA",
      "geometry": {
        "location": {
          "lat": 39.11774399999999,
          "lng": -90.32735
        },
        "location_type": "ROOFTOP",
        "viewport": {
          "northeast": {
            "lat": 39.11909298029149,
            "lng": -90.32600101970849
          },
          "southwest": {
            "lat": 39.1163950197085,
            "lng": -90.3286989802915
          }
        }
      },
      "place_id": "ChIJ29sgqeQS34cRfKylBz6VRWQ",
      "types": [
        "street_address"
      ]
    },
    {
      "address_components": [
        {
          "long_name": "Jerseyville",
          "short_name": "Jerseyville",
          "types": [
            "locality",
            "political"
          ]
        },
        {
          "long_name": "Jersey Township",
          "short_name": "Jersey Township",
          "types": [
            "administrative_area_level_3",
            "political"
          ]
        },
        {
          "long_name": "Jersey County",
          "short_name": "Jersey County",
          "types": [
            "administrative_area_level_2",
            "political"
          ]
        },
        {
          "long_name": "Illinois",
          "short_name": "IL",
          "types": [
            "administrative_area_level_1",
            "political"
          ]
        },
        {
          "long_name": "United States",
          "short_name": "US",
          "types": [
            "country",
            "political"
          ]
        },
        {
          "long_name": "62052",
          "short_name": "62052",
          "types": [
            "postal_code"
          ]
        }
      ],
      "formatted_address": "Jerseyville, IL 62052, USA",
      "geometry": {
        "bounds": {
          "northeast": {
            "lat": 39.138996,
            "lng": -90.300043
          },
          "southwest": {
            "lat": 39.0867181,
            "lng": -90.3617441
          }
        },
        "location": {
          "lat": 39.1200471,
          "lng": -90.3284479
        },
        "location_type": "APPROXIMATE",
        "viewport": {
          "northeast": {
            "lat": 39.138996,
            "lng": -90.300043
          },
          "southwest": {
            "lat": 39.0867181,
            "lng": -90.3617441
          }
        }
      },
      "place_id": "ChIJT38TWuUS34cRWjd1URxhOQ0",
      "types": [
        "locality",
        "political"
      ]
    },
    {
      "address_components": [
        {
          "long_name": "Jersey Township",
          "short_name": "Jersey Township",
          "types": [
            "administrative_area_level_3",
            "political"
          ]
        },
        {
          "long_name": "Jersey County",
          "short_name": "Jersey County",
          "types": [
            "administrative_area_level_2",
            "political"
          ]
        },
        {
          "long_name": "Illinois",
          "short_name": "IL",
          "types": [
            "administrative_area_level_1",
            "political"
          ]
        },
        {
          "long_name": "United States",
          "short_name": "US",
          "types": [
            "country",
            "political"
          ]
        }
      ],
      "formatted_address": "Jersey Township, IL, USA",
      "geometry": {
        "bounds": {
          "northeast": {
            "lat": 39.2252691,
            "lng": -90.257565
          },
          "southwest": {
            "lat": 39.0867181,
            "lng": -90.370711
          }
        },
        "location": {
          "lat": 39.1331218,
          "lng": -90.3183792
        },
        "location_type": "APPROXIMATE",
        "viewport": {
          "northeast": {
            "lat": 39.2252691,
            "lng": -90.257565
          },
          "southwest": {
            "lat": 39.0867181,
            "lng": -90.370711
          }
        }
      },
      "place_id": "ChIJoQIYL2IN34cR7yozaKJgruw",
      "types": [
        "administrative_area_level_3",
        "political"
      ]
    },
    {
      "address_components": [
        {
          "long_name": "62052",
          "short_name": "62052",
          "types": [
            "postal_code"
          ]
        },
        {
          "long_name": "Jerseyville",
          "short_name": "Jerseyville",
          "types": [
            "locality",
            "political"
          ]
        },
        {
          "long_name": "Illinois",
          "short_name": "IL",
          "types": [
            "administrative_area_level_1",
            "political"
          ]
        },
        {
          "long_name": "United States",
          "short_name": "US",
          "types": [
            "country",
            "political"
          ]
        }
      ],
      "formatted_address": "Jerseyville, IL 62052, USA",
      "geometry": {
        "bounds": {
          "northeast": {
            "lat": 39.2110239,
            "lng": -90.141797
          },
          "southwest": {
            "lat": 38.9994468,
            "lng": -90.4862529
          }
        },
        "location": {
          "lat": 39.1122495,
          "lng": -90.3371889
        },
        "location_type": "APPROXIMATE",
        "viewport": {
          "northeast": {
            "lat": 39.2110239,
            "lng": -90.141797
          },
          "southwest": {
            "lat": 38.9994468,
            "lng": -90.4862529
          }
        }
      },
      "place_id": "ChIJebw5LXcR34cRbe2nXr1n3ic",
      "postcode_localities": [
        "Jerseyville",
        "Otterville"
      ],
      "types": [
        "postal_code"
      ]
    },
    {
      "address_components": [
        {
          "long_name": "Jersey County",
          "short_name": "Jersey County",
          "types": [
            "administrative_area_level_2",
            "political"
          ]
        },
        {
          "long_name": "Illinois",
          "short_name": "IL",
          "types": [
            "administrative_area_level_1",
            "political"
          ]
        },
        {
          "long_name": "United States",
          "short_name": "US",
          "types": [
            "country",
            "political"
          ]
        }
      ],
      "formatted_address": "Jersey County, IL, USA",
      "geometry": {
        "bounds": {
          "northeast": {
            "lat": 39.262124,
            "lng": -90.145842
          },
          "southwest": {
            "lat": 38.923395,
            "lng": -90.60356879999999
          }
        },
        "location": {
          "lat": 39.0704754,
          "lng": -90.37483540000001
        },
        "location_type": "APPROXIMATE",
        "viewport": {
          "northeast": {
            "lat": 39.262124,
            "lng": -90.145842
          },
          "southwest": {
            "lat": 38.923395,
            "lng": -90.60356879999999
          }
        }
      },
      "place_id": "ChIJqWBzwAkT34cRExV0iD6-xDY",
      "types": [
        "administrative_area_level_2",
        "political"
      ]
    },
    {
      "address_components": [
        {
          "long_name": "St. Louis",
          "short_name": "St. Louis",
          "types": [
            "political"
          ]
        },
        {
          "long_name": "United States",
          "short_name": "US",
          "types": [
            "country",
            "political"
          ]
        }
      ],
      "formatted_address": "St. Louis, USA",
      "geometry": {
        "bounds": {
          "northeast": {
            "lat": 39.5233661,
            "lng": -89.138356
          },
          "southwest": {
            "lat": 37.7341961,
            "lng": -91.4186371
          }
        },
        "location": {
          "lat": 38.8196814,
          "lng": -90.4502368
        },
        "location_type": "APPROXIMATE",
        "viewport": {
          "northeast": {
            "lat": 39.5233661,
            "lng": -89.138356
          },
          "southwest": {
            "lat": 37.7341961,
            "lng": -91.4186371
          }
        }
      },
      "place_id": "ChIJneBzzj4z34cRFGg2ez6q57o",
      "types": [
        "political"
      ]
    },
    {
      "address_components": [
        {
          "long_name": "Illinois",
          "short_name": "IL",
          "types": [
            "administrative_area_level_1",
            "political"
          ]
        },
        {
          "long_name": "United States",
          "short_name": "US",
          "types": [
            "country",
            "political"
          ]
        }
      ],
      "formatted_address": "Illinois, USA",
      "geometry": {
        "bounds": {
          "northeast": {
            "lat": 42.5083379,
            "lng": -87.4951991
          },
          "southwest": {
            "lat": 36.970298,
            "lng": -91.5130789
          }
        },
        "location": {
          "lat": 40.6331249,
          "lng": -89.3985283
        },
        "location_type": "APPROXIMATE",
        "viewport": {
          "northeast": {
            "lat": 42.5083379,
            "lng": -87.4951991
          },
          "southwest": {
            "lat": 36.970298,
            "lng": -91.5130789
          }
        }
      },
      "place_id": "ChIJGSZubzgtC4gRVlkRZFCCFX8",
      "types": [
        "administrative_area_level_1",
        "political"
      ]
    },
    {
      "address_components": [
        {
          "long_name": "United States",
          "short_name": "US",
          "types": [
            "country",
            "political"
          ]
        }
      ],
      "formatted_address": "United States",
      "geometry": {
        "bounds": {
          "northeast": {
            "lat": 71.3867745,
            "lng": -66.9502861
          },
          "southwest": {
            "lat": 18.9106768,
            "lng": 172.4458955
          }
        },
        "location": {
          "lat": 37.09024,
          "lng": -95.712891
        },
        "location_type": "APPROXIMATE",
        "viewport": {
          "northeast": {
            "lat": 49.38,
            "lng": -66.94
          },
          "southwest": {
            "lat": 25.82,
            "lng": -124.39
          }
        }
      },
      "place_id": "ChIJCzYy5IS16lQRQrfeQ5K5Oxw",
      "types": [
        "country",
        "political"
      ]
    }
  ],
  "status": "OK"
}
