{
  "results": [
    {
      "address_components": [
        {
          "long_name": "120",
          "short_name": "120",
          "types": [
            "street_number"
          ]
        },
        {
          "long_name": "Maple Lane",
          "short_name": "Maple Ln",
          "types": [
            "route"
          ]
        },
        {
          "long_name": "Spring Mills",
          "short_name": "Spring Mills",
          "types": [
            "locality",
            "political"
          ]
        },
        {
          "long_name": "Gregg Township",
          "short_name": "Gregg Township",
          "types": [
            "administrative_area_level_3",
            "political"
          ]
        },
        {
          "long_name": "Centre County",
          "short_name": "Centre County",
          "types": [
            "administrative_area_level_2",
            "political"
          ]
        },
        {
          "long_name": "Pennsylvania",
          "short_name": "PA",
          "types": [
            "administrative_area_level_1",
            "political"
          ]
        },
        {
          "long_name": "United States",
          "short_name": "US",
          "types": [
            "country",
            "political"
          ]
        },
        {
          "long_name": "16875",
          "short_name": "16875",
          "types": [
            "postal_code"
          ]
        }
      ],
      "formatted_address": "120 Maple Ln, Spring Mills, PA 16875, USA",
      "geometry": {
        "location": {
          "lat": 40.8547067,
          "lng": -77.5653767
        },
        "location_type": "ROOFTOP",
        "viewport": {
          "northeast": {
            "lat": 40.8560556802915,
            "lng": -77.5640277197085
          },
          "southwest": {
            "lat": 40.85335771970851,
            "lng": -77.56672568029151
          }
        }
      },
      "place_id": "ChIJ3dZz_Va_zokRaw4NXHxVePw",
      "types": [
        "street_address"
      ]
    },
    {
      "address_components": [
        {
          "long_name": "Spring Mills",
          "short_name": "Spring Mills",
          "types": [
            "locality",
            "political"
          ]
        },
        {
          "long_name": "Gregg Township",
          "short_name": "Gregg Township",
          "types": [
            "administrative_area_level_3",
            "political"
          ]
        },
        {
          "long_name": "Centre County",
          "short_name": "Centre County",
          "types": [
            "administrative_area_level_2",
            "political"
          ]
        },
        {
          "long_name": "Pennsylvania",
          "short_name": "PA",
          "types": [
            "administrative_area_level_1",
            "political"
          ]
        },
        {
          "long_name": "United States",
          "short_name": "US",
          "types": [
            "country",
            "political"
          ]
        },
        {
          "long_name": "16875",
          "short_name": "16875",
          "types": [
            "postal_code"
          ]
        }
      ],
      "formatted_address": "Spring Mills, PA 16875, USA",
      "geometry": {
        "bounds": {
          "northeast": {
            "lat": 40.8603279,
            "lng": -77.5559129
          },
          "southwest": {
            "lat": 40.846291,
            "lng": -77.57522589999999
          }
        },
        "location": {
          "lat": 40.853399,
          "lng": -77.5674956
        },
        "location_type": "APPROXIMATE",
        "viewport": {
          "northeast": {
            "lat": 40.8603279,
            "lng": -77.5559129
          },
          "southwest": {
            "lat": 40.846291,
            "lng": -77.57522589999999
          }
        }
      },
      "place_id": "ChIJh3lLlrG4zokRN-67w7YyBjI",
      "types": [
        "locality",
        "political"
      ]
    },
    {
      "address_components": [
        {
          "long_name": "Gregg Township",
          "short_name": "Gregg Township",
          "types": [
            "administrative_area_level_3",
            "political"
          ]
        },
        {
          "long_name": "Centre County",
          "short_name": "Centre County",
          "types": [
            "administrative_area_level_2",
            "political"
          ]
        },
        {
          "long_name": "Pennsylvania",
          "short_name": "PA",
          "types": [
            "administrative_area_level_1",
            "political"
          ]
        },
        {
          "long_name": "United States",
          "short_name": "US",
          "types": [
            "country",
            "political"
          ]
        }
      ],
      "formatted_address": "Gregg Township, PA, USA",
      "geometry": {
        "bounds": {
          "northeast": {
            "lat": 40.9418409,
            "lng": -77.51125689999999
          },
          "southwest": {
            "lat": 40.777493,
            "lng": -77.6571148
          }
        },
        "location": {
          "lat": 40.869343,
          "lng": -77.58486649999999
        },
        "location_type": "APPROXIMATE",
        "viewport": {
          "northeast": {
            "lat": 40.9418409,
            "lng": -77.51125689999999
          },
          "southwest": {
            "lat": 40.777493,
            "lng": -77.6571148
          }
        }
      },
      "place_id": "ChIJM6hP-0e_zokR-0XpxfsbgHY",
      "types": [
        "administrative_area_level_3",
        "political"
      ]
    },
    {
      "address_components": [
        {
          "long_name": "16875",
          "short_name": "16875",
          "types": [
            "postal_code"
          ]
        },
        {
          "long_name": "Spring Mills",
          "short_name": "Spring Mills",
          "types": [
            "locality",
            "political"
          ]
        },
        {
          "long_name": "Pennsylvania",
          "short_name": "PA",
          "types": [
            "administrative_area_level_1",
            "political"
          ]
        },
        {
          "long_name": "United States",
          "short_name": "US",
          "types": [
            "country",
            "political"
          ]
        }
      ],
      "formatted_address": "Spring Mills, PA 16875, USA",
      "geometry": {
        "bounds": {
          "northeast": {
            "lat": 40.95457589999999,
            "lng": -77.4511539
          },
          "southwest": {
            "lat": 40.735602,
            "lng": -77.6910181
          }
        },
        "location": {
          "lat": 40.8294858,
          "lng": -77.58486649999999
        },
        "location_type": "APPROXIMATE",
        "viewport": {
          "northeast": {
            "lat": 40.95457589999999,
            "lng": -77.4511539
          },
          "southwest": {
            "lat": 40.735602,
            "lng": -77.6910181
          }
        }
      },
      "place_id": "ChIJh3lLlrG4zokRJqXTKqPHRJo",
      "types": [
        "postal_code"
      ]
    },
    {
      "address_components": [
        {
          "long_name": "Centre County",
          "short_name": "Centre County",
          "types": [
            "administrative_area_level_2",
            "political"
          ]
        },
        {
          "long_name": "Pennsylvania",
          "short_name": "PA",
          "types": [
            "administrative_area_level_1",
            "political"
          ]
        },
        {
          "long_name": "United States",
          "short_name": "US",
          "types": [
            "country",
            "political"
          ]
        }
      ],
      "formatted_address": "Centre County, PA, USA",
      "geometry": {
        "bounds": {
          "northeast": {
            "lat": 41.2527521,
            "lng": -77.1438039
          },
          "southwest": {
            "lat": 40.69155809999999,
            "lng": -78.376674
          }
        },
        "location": {
          "lat": 40.8765649,
          "lng": -77.8367282
        },
        "location_type": "APPROXIMATE",
        "viewport": {
          "northeast": {
            "lat": 41.2527521,
            "lng": -77.1438039
          },
          "southwest": {
            "lat": 40.69155809999999,
            "lng": -78.376674
          }
        }
      },
      "place_id": "ChIJGag74PqazokRAZZDKnhbMOk",
      "types": [
        "administrative_area_level_2",
        "political"
      ]
    },
    {
      "address_components": [
        {
          "long_name": "State College",
          "short_name": "State College",
          "types": [
            "political"
          ]
        },
        {
          "long_name": "Pennsylvania",
          "short_name": "PA",
          "types": [
            "administrative_area_level_1",
            "political"
          ]
        },
        {
          "long_name": "United States",
          "short_name": "US",
          "types": [
            "country",
            "political"
          ]
        }
      ],
      "formatted_address": "State College, PA, USA",
      "geometry": {
        "bounds": {
          "northeast": {
            "lat": 41.252868,
            "lng": -77.143667
          },
          "southwest": {
            "lat": 40.691591,
            "lng": -78.376678
          }
        },
        "location": {
          "lat": 40.8765649,
          "lng": -77.8367282
        },
        "location_type": "APPROXIMATE",
        "viewport": {
          "northeast": {
            "lat": 41.252868,
            "lng": -77.143667
          },
          "southwest": {
            "lat": 40.691591,
            "lng": -78.376678
          }
        }
      },
      "place_id": "ChIJZ-tZ-DOizokRDxWcxSBdBvQ",
      "types": [
        "political"
      ]
    },
    {
      "address_components": [
        {
          "long_name": "Pennsylvania",
          "short_name": "PA",
          "types": [
            "administrative_area_level_1",
            "political"
          ]
        },
        {
          "long_name": "United States",
          "short_name": "US",
          "types": [
            "country",
            "political"
          ]
        }
      ],
      "formatted_address": "Pennsylvania, USA",
      "geometry": {
        "bounds": {
          "northeast": {
            "lat": 42.2693866,
            "lng": -74.6895018
          },
          "southwest": {
            "lat": 39.7197989,
            "lng": -80.51989499999999
          }
        },
        "location": {
          "lat": 41.2033216,
          "lng": -77.1945247
        },
        "location_type": "APPROXIMATE",
        "viewport": {
          "northeast": {
            "lat": 42.2693866,
            "lng": -74.6895018
          },
          "southwest": {
            "lat": 39.7197989,
            "lng": -80.51989499999999
          }
        }
      },
      "place_id": "ChIJieUyHiaALYgRPbQiUEchRsI",
      "types": [
        "administrative_area_level_1",
        "political"
      ]
    },
    {
      "address_components": [
        {
          "long_name": "United States",
          "short_name": "US",
          "types": [
            "country",
            "political"
          ]
        }
      ],
      "formatted_address": "United States",
      "geometry": {
        "bounds": {
          "northeast": {
            "lat": 71.3867745,
            "lng": -66.9502861
          },
          "southwest": {
            "lat": 18.9106768,
            "lng": 172.4458955
          }
        },
        "location": {
          "lat": 37.09024,
          "lng": -95.712891
        },
        "location_type": "APPROXIMATE",
        "viewport": {
          "northeast": {
            "lat": 49.38,
            "lng": -66.94
          },
          "southwest": {
            "lat": 25.82,
            "lng": -124.39
          }
        }
      },
      "place_id": "ChIJCzYy5IS16lQRQrfeQ5K5Oxw",
      "types": [
        "country",
        "political"
      ]
    }
  ],
  "status": "OK"
}
