{
  "results": [
    {
      "address_components": [
        {
          "long_name": "2074-2084",
          "short_name": "2074-2084",
          "types": [
            "street_number"
          ]
        },
        {
          "long_name": "County Highway Z",
          "short_name": "County Hwy Z",
          "types": [
            "route"
          ]
        },
        {
          "long_name": "Friendship",
          "short_name": "Friendship",
          "types": [
            "locality",
            "political"
          ]
        },
        {
          "long_name": "Quincy",
          "short_name": "Quincy",
          "types": [
            "administrative_area_level_3",
            "political"
          ]
        },
        {
          "long_name": "Adams County",
          "short_name": "Adams County",
          "types": [
            "administrative_area_level_2",
            "political"
          ]
        },
        {
          "long_name": "Wisconsin",
          "short_name": "WI",
          "types": [
            "administrative_area_level_1",
            "political"
          ]
        },
        {
          "long_name": "United States",
          "short_name": "US",
          "types": [
            "country",
            "political"
          ]
        },
        {
          "long_name": "53934",
          "short_name": "53934",
          "types": [
            "postal_code"
          ]
        }
      ],
      "formatted_address": "2074-2084 County Hwy Z, Friendship, WI 53934, USA",
      "geometry": {
        "bounds": {
          "northeast": {
            "lat": 43.9553641,
            "lng": -89.9376762
          },
          "southwest": {
            "lat": 43.9536013,
            "lng": -89.9377057
          }
        },
        "location": {
          "lat": 43.95456739999999,
          "lng": -89.93767079999999
        },
        "location_type": "RANGE_INTERPOLATED",
        "viewport": {
          "northeast": {
            "lat": 43.9558316802915,
            "lng": -89.9363419697085
          },
          "southwest": {
            "lat": 43.9531337197085,
            "lng": -89.9390399302915
          }
        }
      },
      "place_id": "EjEyMDc0LTIwODQgQ291bnR5IEh3eSBaLCBGcmllbmRzaGlwLCBXSSA1MzkzNCwgVVNB",
      "types": [
        "street_address"
      ]
    },
    {
      "address_components": [
        {
          "long_name": "Quincy",
          "short_name": "Quincy",
          "types": [
            "administrative_area_level_3",
            "political"
          ]
        },
        {
          "long_name": "Adams County",
          "short_name": "Adams County",
          "types": [
            "administrative_area_level_2",
            "political"
          ]
        },
        {
          "long_name": "Wisconsin",
          "short_name": "WI",
          "types": [
            "administrative_area_level_1",
            "political"
          ]
        },
        {
          "long_name": "United States",
          "short_name": "US",
          "types": [
            "country",
            "political"
          ]
        }
      ],
      "formatted_address": "Quincy, WI, USA",
      "geometry": {
        "bounds": {
          "northeast": {
            "lat": 43.96642079999999,
            "lng": -89.837256
          },
          "southwest": {
            "lat": 43.8179919,
            "lng": -89.96120739999999
          }
        },
        "location": {
          "lat": 43.8959392,
          "lng": -89.9159785
        },
        "location_type": "APPROXIMATE",
        "viewport": {
          "northeast": {
            "lat": 43.96642079999999,
            "lng": -89.837256
          },
          "southwest": {
            "lat": 43.8179919,
            "lng": -89.96120739999999
          }
        }
      },
      "place_id": "ChIJ23hfyMOuAIgRu14xGIRcMBM",
      "types": [
        "administrative_area_level_3",
        "political"
      ]
    },
    {
      "address_components": [
        {
          "long_name": "53934",
          "short_name": "53934",
          "types": [
            "postal_code"
          ]
        },
        {
          "long_name": "Friendship",
          "short_name": "Friendship",
          "types": [
            "locality",
            "political"
          ]
        },
        {
          "long_name": "Wisconsin",
          "short_name": "WI",
          "types": [
            "administrative_area_level_1",
            "political"
          ]
        },
        {
          "long_name": "United States",
          "short_name": "US",
          "types": [
            "country",
            "political"
          ]
        }
      ],
      "formatted_address": "Friendship, WI 53934, USA",
      "geometry": {
        "bounds": {
          "northeast": {
            "lat": 44.11194589999999,
            "lng": -89.618168
          },
          "southwest": {
            "lat": 43.8455911,
            "lng": -89.9816839
          }
        },
        "location": {
          "lat": 44.000744,
          "lng": -89.83177289999999
        },
        "location_type": "APPROXIMATE",
        "viewport": {
          "northeast": {
            "lat": 44.11194589999999,
            "lng": -89.618168
          },
          "southwest": {
            "lat": 43.8455911,
            "lng": -89.9816839
          }
        }
      },
      "place_id": "ChIJMZo3jiq6AIgRi2GmXyBIyFw",
      "types": [
        "postal_code"
      ]
    },
    {
      "address_components": [
        {
          "long_name": "Adams County",
          "short_name": "Adams County",
          "types": [
            "administrative_area_level_2",
            "political"
          ]
        },
        {
          "long_name": "Wisconsin",
          "short_name": "WI",
          "types": [
            "administrative_area_level_1",
            "political"
          ]
        },
        {
          "long_name": "United States",
          "short_name": "US",
          "types": [
            "country",
            "political"
          ]
        }
      ],
      "formatted_address": "Adams County, WI, USA",
      "geometry": {
        "bounds": {
          "northeast": {
            "lat": 44.249477,
            "lng": -89.59716100000001
          },
          "southwest": {
            "lat": 43.64102889999999,
            "lng": -90.0207679
          }
        },
        "location": {
          "lat": 44.0196955,
          "lng": -89.77553379999999
        },
        "location_type": "APPROXIMATE",
        "viewport": {
          "northeast": {
            "lat": 44.249477,
            "lng": -89.59716100000001
          },
          "southwest": {
            "lat": 43.64102889999999,
            "lng": -90.0207679
          }
        }
      },
      "place_id": "ChIJOdxmPPS5AIgRNz1Z3EB8swM",
      "types": [
        "administrative_area_level_2",
        "political"
      ]
    },
    {
      "address_components": [
        {
          "long_name": "Wisconsin",
          "short_name": "WI",
          "types": [
            "administrative_area_level_1",
            "political"
          ]
        },
        {
          "long_name": "United States",
          "short_name": "US",
          "types": [
            "country",
            "political"
          ]
        }
      ],
      "formatted_address": "Wisconsin, USA",
      "geometry": {
        "bounds": {
          "northeast": {
            "lat": 47.0807296,
            "lng": -86.7639767
          },
          "southwest": {
            "lat": 42.491864,
            "lng": -92.88943309999999
          }
        },
        "location": {
          "lat": 43.7844397,
          "lng": -88.7878678
        },
        "location_type": "APPROXIMATE",
        "viewport": {
          "northeast": {
            "lat": 47.0807296,
            "lng": -86.7639767
          },
          "southwest": {
            "lat": 42.491864,
            "lng": -92.88943309999999
          }
        }
      },
      "place_id": "ChIJr-OEkw_0qFIR1kmG-LjV1fI",
      "types": [
        "administrative_area_level_1",
        "political"
      ]
    },
    {
      "address_components": [
        {
          "long_name": "United States",
          "short_name": "US",
          "types": [
            "country",
            "political"
          ]
        }
      ],
      "formatted_address": "United States",
      "geometry": {
        "bounds": {
          "northeast": {
            "lat": 71.3867745,
            "lng": -66.9502861
          },
          "southwest": {
            "lat": 18.9106768,
            "lng": 172.4458955
          }
        },
        "location": {
          "lat": 37.09024,
          "lng": -95.712891
        },
        "location_type": "APPROXIMATE",
        "viewport": {
          "northeast": {
            "lat": 49.38,
            "lng": -66.94
          },
          "southwest": {
            "lat": 25.82,
            "lng": -124.39
          }
        }
      },
      "place_id": "ChIJCzYy5IS16lQRQrfeQ5K5Oxw",
      "types": [
        "country",
        "political"
      ]
    }
  ],
  "status": "OK"
}
