{
  "results": [
    {
      "address_components": [
        {
          "long_name": "86",
          "short_name": "86",
          "types": [
            "street_number"
          ]
        },
        {
          "long_name": "Ramah Road",
          "short_name": "Ramah Rd",
          "types": [
            "route"
          ]
        },
        {
          "long_name": "Fairton",
          "short_name": "Fairton",
          "types": [
            "neighborhood",
            "political"
          ]
        },
        {
          "long_name": "Bridgeton",
          "short_name": "Bridgeton",
          "types": [
            "locality",
            "political"
          ]
        },
        {
          "long_name": "Cumberland County",
          "short_name": "Cumberland County",
          "types": [
            "administrative_area_level_2",
            "political"
          ]
        },
        {
          "long_name": "New Jersey",
          "short_name": "NJ",
          "types": [
            "administrative_area_level_1",
            "political"
          ]
        },
        {
          "long_name": "United States",
          "short_name": "US",
          "types": [
            "country",
            "political"
          ]
        },
        {
          "long_name": "08302",
          "short_name": "08302",
          "types": [
            "postal_code"
          ]
        },
        {
          "long_name": "6944",
          "short_name": "6944",
          "types": [
            "postal_code_suffix"
          ]
        }
      ],
      "formatted_address": "86 Ramah Rd, Bridgeton, NJ 08302, USA",
      "geometry": {
        "location": {
          "lat": 39.3773989,
          "lng": -75.210216
        },
        "location_type": "ROOFTOP",
        "viewport": {
          "northeast": {
            "lat": 39.3787478802915,
            "lng": -75.2088670197085
          },
          "southwest": {
            "lat": 39.3760499197085,
            "lng": -75.21156498029151
          }
        }
      },
      "place_id": "ChIJc59kAY04x4kR0ZBJLKfmTt8",
      "types": [
        "street_address"
      ]
    },
    {
      "address_components": [
        {
          "long_name": "Fairton",
          "short_name": "Fairton",
          "types": [
            "neighborhood",
            "political"
          ]
        },
        {
          "long_name": "Fairfield Township",
          "short_name": "Fairfield Township",
          "types": [
            "locality",
            "political"
          ]
        },
        {
          "long_name": "Cumberland County",
          "short_name": "Cumberland County",
          "types": [
            "administrative_area_level_2",
            "political"
          ]
        },
        {
          "long_name": "New Jersey",
          "short_name": "NJ",
          "types": [
            "administrative_area_level_1",
            "political"
          ]
        },
        {
          "long_name": "United States",
          "short_name": "US",
          "types": [
            "country",
            "political"
          ]
        }
      ],
      "formatted_address": "Fairton, Fairfield Township, NJ, USA",
      "geometry": {
        "bounds": {
          "northeast": {
            "lat": 39.3954379,
            "lng": -75.178077
          },
          "southwest": {
            "lat": 39.359473,
            "lng": -75.235625
          }
        },
        "location": {
          "lat": 39.3817814,
          "lng": -75.21990989999999
        },
        "location_type": "APPROXIMATE",
        "viewport": {
          "northeast": {
            "lat": 39.3954379,
            "lng": -75.178077
          },
          "southwest": {
            "lat": 39.359473,
            "lng": -75.235625
          }
        }
      },
      "place_id": "ChIJldtrZWA4x4kRtasxxMh72QM",
      "types": [
        "neighborhood",
        "political"
      ]
    },
    {
      "address_components": [
        {
          "long_name": "Fairfield Township",
          "short_name": "Fairfield Township",
          "types": [
            "locality",
            "political"
          ]
        },
        {
          "long_name": "Cumberland County",
          "short_name": "Cumberland County",
          "types": [
            "administrative_area_level_2",
            "political"
          ]
        },
        {
          "long_name": "New Jersey",
          "short_name": "NJ",
          "types": [
            "administrative_area_level_1",
            "political"
          ]
        },
        {
          "long_name": "United States",
          "short_name": "US",
          "types": [
            "country",
            "political"
          ]
        }
      ],
      "formatted_address": "Fairfield Township, NJ, USA",
      "geometry": {
        "bounds": {
          "northeast": {
            "lat": 39.4376649,
            "lng": -75.12622689999999
          },
          "southwest": {
            "lat": 39.2914688,
            "lng": -75.3652602
          }
        },
        "location": {
          "lat": 39.3901309,
          "lng": -75.2128996
        },
        "location_type": "APPROXIMATE",
        "viewport": {
          "northeast": {
            "lat": 39.4376649,
            "lng": -75.12622689999999
          },
          "southwest": {
            "lat": 39.2914688,
            "lng": -75.3652602
          }
        }
      },
      "place_id": "ChIJN4Y4ZlVHx4kR-BzlPhPeDxs",
      "types": [
        "locality",
        "political"
      ]
    },
    {
      "address_components": [
        {
          "long_name": "08302",
          "short_name": "08302",
          "types": [
            "postal_code"
          ]
        },
        {
          "long_name": "Bridgeton",
          "short_name": "Bridgeton",
          "types": [
            "locality",
            "political"
          ]
        },
        {
          "long_name": "New Jersey",
          "short_name": "NJ",
          "types": [
            "administrative_area_level_1",
            "political"
          ]
        },
        {
          "long_name": "United States",
          "short_name": "US",
          "types": [
            "country",
            "political"
          ]
        }
      ],
      "formatted_address": "Bridgeton, NJ 08302, USA",
      "geometry": {
        "bounds": {
          "northeast": {
            "lat": 39.5619569,
            "lng": -75.102822
          },
          "southwest": {
            "lat": 39.303567,
            "lng": -75.416556
          }
        },
        "location": {
          "lat": 39.4280941,
          "lng": -75.27123929999999
        },
        "location_type": "APPROXIMATE",
        "viewport": {
          "northeast": {
            "lat": 39.5619569,
            "lng": -75.102822
          },
          "southwest": {
            "lat": 39.303567,
            "lng": -75.416556
          }
        }
      },
      "place_id": "ChIJz0HG1Vk4x4kRTpVwekJfHHg",
      "types": [
        "postal_code"
      ]
    },
    {
      "address_components": [
        {
          "long_name": "Cumberland County",
          "short_name": "Cumberland County",
          "types": [
            "administrative_area_level_2",
            "political"
          ]
        },
        {
          "long_name": "New Jersey",
          "short_name": "NJ",
          "types": [
            "administrative_area_level_1",
            "political"
          ]
        },
        {
          "long_name": "United States",
          "short_name": "US",
          "types": [
            "country",
            "political"
          ]
        }
      ],
      "formatted_address": "Cumberland County, NJ, USA",
      "geometry": {
        "bounds": {
          "northeast": {
            "lat": 39.568643,
            "lng": -74.8518551
          },
          "southwest": {
            "lat": 39.176202,
            "lng": -75.41945299999999
          }
        },
        "location": {
          "lat": 39.2587106,
          "lng": -75.06111469999999
        },
        "location_type": "APPROXIMATE",
        "viewport": {
          "northeast": {
            "lat": 39.568643,
            "lng": -74.8518551
          },
          "southwest": {
            "lat": 39.1768689,
            "lng": -75.41945299999999
          }
        }
      },
      "place_id": "ChIJ1dp_HiUxx4kR9LbwHVK8Vl4",
      "types": [
        "administrative_area_level_2",
        "political"
      ]
    },
    {
      "address_components": [
        {
          "long_name": "New Jersey",
          "short_name": "NJ",
          "types": [
            "administrative_area_level_1",
            "political"
          ]
        },
        {
          "long_name": "United States",
          "short_name": "US",
          "types": [
            "country",
            "political"
          ]
        }
      ],
      "formatted_address": "New Jersey, USA",
      "geometry": {
        "bounds": {
          "northeast": {
            "lat": 41.357423,
            "lng": -73.9024391
          },
          "southwest": {
            "lat": 38.9285589,
            "lng": -75.5597921
          }
        },
        "location": {
          "lat": 40.0583238,
          "lng": -74.4056612
        },
        "location_type": "APPROXIMATE",
        "viewport": {
          "northeast": {
            "lat": 41.357423,
            "lng": -73.9024391
          },
          "southwest": {
            "lat": 38.9286032,
            "lng": -75.5597921
          }
        }
      },
      "place_id": "ChIJn0AAnpX7wIkRjW0_-Ad70iw",
      "types": [
        "administrative_area_level_1",
        "political"
      ]
    },
    {
      "address_components": [
        {
          "long_name": "United States",
          "short_name": "US",
          "types": [
            "country",
            "political"
          ]
        }
      ],
      "formatted_address": "United States",
      "geometry": {
        "bounds": {
          "northeast": {
            "lat": 71.3867745,
            "lng": -66.9502861
          },
          "southwest": {
            "lat": 18.9106768,
            "lng": 172.4458955
          }
        },
        "location": {
          "lat": 37.09024,
          "lng": -95.712891
        },
        "location_type": "APPROXIMATE",
        "viewport": {
          "northeast": {
            "lat": 49.38,
            "lng": -66.94
          },
          "southwest": {
            "lat": 25.82,
            "lng": -124.39
          }
        }
      },
      "place_id": "ChIJCzYy5IS16lQRQrfeQ5K5Oxw",
      "types": [
        "country",
        "political"
      ]
    }
  ],
  "status": "OK"
}
