{
  "results": [
    {
      "address_components": [
        {
          "long_name": "207",
          "short_name": "207",
          "types": [
            "street_number"
          ]
        },
        {
          "long_name": "South Main Street",
          "short_name": "S Main St",
          "types": [
            "route"
          ]
        },
        {
          "long_name": "Altamont",
          "short_name": "Altamont",
          "types": [
            "locality",
            "political"
          ]
        },
        {
          "long_name": "Mound Township",
          "short_name": "Mound Township",
          "types": [
            "administrative_area_level_3",
            "political"
          ]
        },
        {
          "long_name": "Effingham County",
          "short_name": "Effingham County",
          "types": [
            "administrative_area_level_2",
            "political"
          ]
        },
        {
          "long_name": "Illinois",
          "short_name": "IL",
          "types": [
            "administrative_area_level_1",
            "political"
          ]
        },
        {
          "long_name": "United States",
          "short_name": "US",
          "types": [
            "country",
            "political"
          ]
        },
        {
          "long_name": "62411",
          "short_name": "62411",
          "types": [
            "postal_code"
          ]
        },
        {
          "long_name": "1127",
          "short_name": "1127",
          "types": [
            "postal_code_suffix"
          ]
        }
      ],
      "formatted_address": "207 S Main St, Altamont, IL 62411, USA",
      "geometry": {
        "location": {
          "lat": 39.057117,
          "lng": -88.747625
        },
        "location_type": "ROOFTOP",
        "viewport": {
          "northeast": {
            "lat": 39.0584659802915,
            "lng": -88.74627601970849
          },
          "southwest": {
            "lat": 39.0557680197085,
            "lng": -88.74897398029151
          }
        }
      },
      "place_id": "ChIJqd7IGtOLc4gRUnop6hw0OS4",
      "types": [
        "street_address"
      ]
    },
    {
      "address_components": [
        {
          "long_name": "Altamont",
          "short_name": "Altamont",
          "types": [
            "locality",
            "political"
          ]
        },
        {
          "long_name": "Mound Township",
          "short_name": "Mound Township",
          "types": [
            "administrative_area_level_3",
            "political"
          ]
        },
        {
          "long_name": "Effingham County",
          "short_name": "Effingham County",
          "types": [
            "administrative_area_level_2",
            "political"
          ]
        },
        {
          "long_name": "Illinois",
          "short_name": "IL",
          "types": [
            "administrative_area_level_1",
            "political"
          ]
        },
        {
          "long_name": "United States",
          "short_name": "US",
          "types": [
            "country",
            "political"
          ]
        },
        {
          "long_name": "62411",
          "short_name": "62411",
          "types": [
            "postal_code"
          ]
        }
      ],
      "formatted_address": "Altamont, IL 62411, USA",
      "geometry": {
        "bounds": {
          "northeast": {
            "lat": 39.0707808,
            "lng": -88.7339339
          },
          "southwest": {
            "lat": 39.0404458,
            "lng": -88.7574499
          }
        },
        "location": {
          "lat": 39.061988,
          "lng": -88.74811079999999
        },
        "location_type": "APPROXIMATE",
        "viewport": {
          "northeast": {
            "lat": 39.0707808,
            "lng": -88.7339339
          },
          "southwest": {
            "lat": 39.0404458,
            "lng": -88.7574499
          }
        }
      },
      "place_id": "ChIJK0iafiyKc4gRgSk5cC0tpAQ",
      "types": [
        "locality",
        "political"
      ]
    },
    {
      "address_components": [
        {
          "long_name": "Mound Township",
          "short_name": "Mound Township",
          "types": [
            "administrative_area_level_3",
            "political"
          ]
        },
        {
          "long_name": "Effingham County",
          "short_name": "Effingham County",
          "types": [
            "administrative_area_level_2",
            "political"
          ]
        },
        {
          "long_name": "Illinois",
          "short_name": "IL",
          "types": [
            "administrative_area_level_1",
            "political"
          ]
        },
        {
          "long_name": "United States",
          "short_name": "US",
          "types": [
            "country",
            "political"
          ]
        }
      ],
      "formatted_address": "Mound Township, IL, USA",
      "geometry": {
        "bounds": {
          "northeast": {
            "lat": 39.0906691,
            "lng": -88.691362
          },
          "southwest": {
            "lat": 38.998923,
            "lng": -88.80615300000001
          }
        },
        "location": {
          "lat": 39.0433502,
          "lng": -88.7301525
        },
        "location_type": "APPROXIMATE",
        "viewport": {
          "northeast": {
            "lat": 39.0906691,
            "lng": -88.691362
          },
          "southwest": {
            "lat": 38.998923,
            "lng": -88.80615300000001
          }
        }
      },
      "place_id": "ChIJ6eTjyjeKc4gRgbSwj6e_l_4",
      "types": [
        "administrative_area_level_3",
        "political"
      ]
    },
    {
      "address_components": [
        {
          "long_name": "62411",
          "short_name": "62411",
          "types": [
            "postal_code"
          ]
        },
        {
          "long_name": "Altamont",
          "short_name": "Altamont",
          "types": [
            "locality",
            "political"
          ]
        },
        {
          "long_name": "Illinois",
          "short_name": "IL",
          "types": [
            "administrative_area_level_1",
            "political"
          ]
        },
        {
          "long_name": "United States",
          "short_name": "US",
          "types": [
            "country",
            "political"
          ]
        }
      ],
      "formatted_address": "Altamont, IL 62411, USA",
      "geometry": {
        "bounds": {
          "northeast": {
            "lat": 39.163891,
            "lng": -88.613736
          },
          "southwest": {
            "lat": 38.9867389,
            "lng": -88.852362
          }
        },
        "location": {
          "lat": 39.0850215,
          "lng": -88.7301525
        },
        "location_type": "APPROXIMATE",
        "viewport": {
          "northeast": {
            "lat": 39.163891,
            "lng": -88.613736
          },
          "southwest": {
            "lat": 38.9867389,
            "lng": -88.852362
          }
        }
      },
      "place_id": "ChIJzYCkWAyJc4gREa37M4iUF2o",
      "types": [
        "postal_code"
      ]
    },
    {
      "address_components": [
        {
          "long_name": "Effingham",
          "short_name": "Effingham",
          "types": [
            "political"
          ]
        },
        {
          "long_name": "Illinois",
          "short_name": "IL",
          "types": [
            "administrative_area_level_1",
            "political"
          ]
        },
        {
          "long_name": "United States",
          "short_name": "US",
          "types": [
            "country",
            "political"
          ]
        }
      ],
      "formatted_address": "Effingham, IL, USA",
      "geometry": {
        "bounds": {
          "northeast": {
            "lat": 39.21629799999999,
            "lng": -88.360669
          },
          "southwest": {
            "lat": 38.9109811,
            "lng": -88.80695999999999
          }
        },
        "location": {
          "lat": 39.06217729999999,
          "lng": -88.55653099999999
        },
        "location_type": "APPROXIMATE",
        "viewport": {
          "northeast": {
            "lat": 39.21629799999999,
            "lng": -88.360669
          },
          "southwest": {
            "lat": 38.9109811,
            "lng": -88.80695999999999
          }
        }
      },
      "place_id": "ChIJPVWIhtaTc4gR_uZNuYFXnYk",
      "types": [
        "political"
      ]
    },
    {
      "address_components": [
        {
          "long_name": "Effingham County",
          "short_name": "Effingham County",
          "types": [
            "administrative_area_level_2",
            "political"
          ]
        },
        {
          "long_name": "Illinois",
          "short_name": "IL",
          "types": [
            "administrative_area_level_1",
            "political"
          ]
        },
        {
          "long_name": "United States",
          "short_name": "US",
          "types": [
            "country",
            "political"
          ]
        }
      ],
      "formatted_address": "Effingham County, IL, USA",
      "geometry": {
        "bounds": {
          "northeast": {
            "lat": 39.2162799,
            "lng": -88.3604749
          },
          "southwest": {
            "lat": 38.9108469,
            "lng": -88.806794
          }
        },
        "location": {
          "lat": 39.06217729999999,
          "lng": -88.55653099999999
        },
        "location_type": "APPROXIMATE",
        "viewport": {
          "northeast": {
            "lat": 39.2162799,
            "lng": -88.3604749
          },
          "southwest": {
            "lat": 38.9108469,
            "lng": -88.806794
          }
        }
      },
      "place_id": "ChIJycd85FWQc4gR67B8YoIrrs8",
      "types": [
        "administrative_area_level_2",
        "political"
      ]
    },
    {
      "address_components": [
        {
          "long_name": "Illinois",
          "short_name": "IL",
          "types": [
            "administrative_area_level_1",
            "political"
          ]
        },
        {
          "long_name": "United States",
          "short_name": "US",
          "types": [
            "country",
            "political"
          ]
        }
      ],
      "formatted_address": "Illinois, USA",
      "geometry": {
        "bounds": {
          "northeast": {
            "lat": 42.5083379,
            "lng": -87.4951991
          },
          "southwest": {
            "lat": 36.970298,
            "lng": -91.5130789
          }
        },
        "location": {
          "lat": 40.6331249,
          "lng": -89.3985283
        },
        "location_type": "APPROXIMATE",
        "viewport": {
          "northeast": {
            "lat": 42.5083379,
            "lng": -87.4951991
          },
          "southwest": {
            "lat": 36.970298,
            "lng": -91.5130789
          }
        }
      },
      "place_id": "ChIJGSZubzgtC4gRVlkRZFCCFX8",
      "types": [
        "administrative_area_level_1",
        "political"
      ]
    },
    {
      "address_components": [
        {
          "long_name": "United States",
          "short_name": "US",
          "types": [
            "country",
            "political"
          ]
        }
      ],
      "formatted_address": "United States",
      "geometry": {
        "bounds": {
          "northeast": {
            "lat": 71.3867745,
            "lng": -66.9502861
          },
          "southwest": {
            "lat": 18.9106768,
            "lng": 172.4458955
          }
        },
        "location": {
          "lat": 37.09024,
          "lng": -95.712891
        },
        "location_type": "APPROXIMATE",
        "viewport": {
          "northeast": {
            "lat": 49.38,
            "lng": -66.94
          },
          "southwest": {
            "lat": 25.82,
            "lng": -124.39
          }
        }
      },
      "place_id": "ChIJCzYy5IS16lQRQrfeQ5K5Oxw",
      "types": [
        "country",
        "political"
      ]
    }
  ],
  "status": "OK"
}
