{
  "results": [
    {
      "address_components": [
        {
          "long_name": "2100",
          "short_name": "2100",
          "types": [
            "street_number"
          ]
        },
        {
          "long_name": "Bristol Pike",
          "short_name": "Bristol Pike",
          "types": [
            "route"
          ]
        },
        {
          "long_name": "Bensalem",
          "short_name": "Bensalem",
          "types": [
            "locality",
            "political"
          ]
        },
        {
          "long_name": "Bensalem Township",
          "short_name": "Bensalem Township",
          "types": [
            "administrative_area_level_3",
            "political"
          ]
        },
        {
          "long_name": "Bucks County",
          "short_name": "Bucks County",
          "types": [
            "administrative_area_level_2",
            "political"
          ]
        },
        {
          "long_name": "Pennsylvania",
          "short_name": "PA",
          "types": [
            "administrative_area_level_1",
            "political"
          ]
        },
        {
          "long_name": "United States",
          "short_name": "US",
          "types": [
            "country",
            "political"
          ]
        },
        {
          "long_name": "19020",
          "short_name": "19020",
          "types": [
            "postal_code"
          ]
        }
      ],
      "formatted_address": "2100 Bristol Pike, Bensalem, PA 19020, USA",
      "geometry": {
        "location": {
          "lat": 40.0774183,
          "lng": -74.95145939999999
        },
        "location_type": "ROOFTOP",
        "viewport": {
          "northeast": {
            "lat": 40.0787672802915,
            "lng": -74.95011041970848
          },
          "southwest": {
            "lat": 40.0760693197085,
            "lng": -74.9528083802915
          }
        }
      },
      "place_id": "ChIJpc9DGMRMwYkR2FL48F1WejY",
      "types": [
        "street_address"
      ]
    },
    {
      "address_components": [
        {
          "long_name": "Cornwells Heights-Eddington",
          "short_name": "Cornwells Heights-Eddington",
          "types": [
            "locality",
            "political"
          ]
        },
        {
          "long_name": "Bensalem Township",
          "short_name": "Bensalem Township",
          "types": [
            "administrative_area_level_3",
            "political"
          ]
        },
        {
          "long_name": "Bucks County",
          "short_name": "Bucks County",
          "types": [
            "administrative_area_level_2",
            "political"
          ]
        },
        {
          "long_name": "Pennsylvania",
          "short_name": "PA",
          "types": [
            "administrative_area_level_1",
            "political"
          ]
        },
        {
          "long_name": "United States",
          "short_name": "US",
          "types": [
            "country",
            "political"
          ]
        },
        {
          "long_name": "19020",
          "short_name": "19020",
          "types": [
            "postal_code"
          ]
        }
      ],
      "formatted_address": "Cornwells Heights-Eddington, PA 19020, USA",
      "geometry": {
        "bounds": {
          "northeast": {
            "lat": 40.0961031,
            "lng": -74.93482709999999
          },
          "southwest": {
            "lat": 40.0703301,
            "lng": -74.96310299999999
          }
        },
        "location": {
          "lat": 40.0838431,
          "lng": -74.947181
        },
        "location_type": "APPROXIMATE",
        "viewport": {
          "northeast": {
            "lat": 40.0961031,
            "lng": -74.93482709999999
          },
          "southwest": {
            "lat": 40.0703301,
            "lng": -74.96310299999999
          }
        }
      },
      "place_id": "ChIJodp_At1MwYkRYf1TJNMpkGs",
      "types": [
        "locality",
        "political"
      ]
    },
    {
      "address_components": [
        {
          "long_name": "19020",
          "short_name": "19020",
          "types": [
            "postal_code"
          ]
        },
        {
          "long_name": "Bensalem",
          "short_name": "Bensalem",
          "types": [
            "locality",
            "political"
          ]
        },
        {
          "long_name": "Pennsylvania",
          "short_name": "PA",
          "types": [
            "administrative_area_level_1",
            "political"
          ]
        },
        {
          "long_name": "United States",
          "short_name": "US",
          "types": [
            "country",
            "political"
          ]
        }
      ],
      "formatted_address": "Bensalem, PA 19020, USA",
      "geometry": {
        "bounds": {
          "northeast": {
            "lat": 40.1537239,
            "lng": -74.8981199
          },
          "southwest": {
            "lat": 40.048595,
            "lng": -74.985254
          }
        },
        "location": {
          "lat": 40.09944249999999,
          "lng": -74.9325683
        },
        "location_type": "APPROXIMATE",
        "viewport": {
          "northeast": {
            "lat": 40.1537239,
            "lng": -74.8981199
          },
          "southwest": {
            "lat": 40.048595,
            "lng": -74.985254
          }
        }
      },
      "place_id": "ChIJZyBZkhNNwYkR4Wg7zGmFE4c",
      "postcode_localities": [
        "Andalusia",
        "Bensalem"
      ],
      "types": [
        "postal_code"
      ]
    },
    {
      "address_components": [
        {
          "long_name": "Bensalem Township",
          "short_name": "Bensalem Township",
          "types": [
            "administrative_area_level_3",
            "political"
          ]
        },
        {
          "long_name": "Bucks County",
          "short_name": "Bucks County",
          "types": [
            "administrative_area_level_2",
            "political"
          ]
        },
        {
          "long_name": "Pennsylvania",
          "short_name": "PA",
          "types": [
            "administrative_area_level_1",
            "political"
          ]
        },
        {
          "long_name": "United States",
          "short_name": "US",
          "types": [
            "country",
            "political"
          ]
        }
      ],
      "formatted_address": "Bensalem Township, PA, USA",
      "geometry": {
        "bounds": {
          "northeast": {
            "lat": 40.155786,
            "lng": -74.8980311
          },
          "southwest": {
            "lat": 40.0521467,
            "lng": -74.993973
          }
        },
        "location": {
          "lat": 40.09944249999999,
          "lng": -74.9325683
        },
        "location_type": "APPROXIMATE",
        "viewport": {
          "northeast": {
            "lat": 40.155786,
            "lng": -74.8980311
          },
          "southwest": {
            "lat": 40.0521467,
            "lng": -74.993973
          }
        }
      },
      "place_id": "ChIJi5YmsDxNwYkRaI7nYpQVhiU",
      "types": [
        "administrative_area_level_3",
        "political"
      ]
    },
    {
      "address_components": [
        {
          "long_name": "Bucks County",
          "short_name": "Bucks County",
          "types": [
            "administrative_area_level_2",
            "political"
          ]
        },
        {
          "long_name": "Pennsylvania",
          "short_name": "PA",
          "types": [
            "administrative_area_level_1",
            "political"
          ]
        },
        {
          "long_name": "United States",
          "short_name": "US",
          "types": [
            "country",
            "political"
          ]
        }
      ],
      "formatted_address": "Bucks County, PA, USA",
      "geometry": {
        "bounds": {
          "northeast": {
            "lat": 40.6085799,
            "lng": -74.7236868
          },
          "southwest": {
            "lat": 40.0521467,
            "lng": -75.48405679999999
          }
        },
        "location": {
          "lat": 40.4107964,
          "lng": -75.2479061
        },
        "location_type": "APPROXIMATE",
        "viewport": {
          "northeast": {
            "lat": 40.6085799,
            "lng": -74.7236868
          },
          "southwest": {
            "lat": 40.0521467,
            "lng": -75.48405679999999
          }
        }
      },
      "place_id": "ChIJHw5nt85GxIkRE6dc-_7kG54",
      "types": [
        "administrative_area_level_2",
        "political"
      ]
    },
    {
      "address_components": [
        {
          "long_name": "Pennsylvania",
          "short_name": "PA",
          "types": [
            "administrative_area_level_1",
            "political"
          ]
        },
        {
          "long_name": "United States",
          "short_name": "US",
          "types": [
            "country",
            "political"
          ]
        }
      ],
      "formatted_address": "Pennsylvania, USA",
      "geometry": {
        "bounds": {
          "northeast": {
            "lat": 42.2693866,
            "lng": -74.6895018
          },
          "southwest": {
            "lat": 39.7197989,
            "lng": -80.51989499999999
          }
        },
        "location": {
          "lat": 41.2033216,
          "lng": -77.1945247
        },
        "location_type": "APPROXIMATE",
        "viewport": {
          "northeast": {
            "lat": 42.2693866,
            "lng": -74.6895018
          },
          "southwest": {
            "lat": 39.7197989,
            "lng": -80.51989499999999
          }
        }
      },
      "place_id": "ChIJieUyHiaALYgRPbQiUEchRsI",
      "types": [
        "administrative_area_level_1",
        "political"
      ]
    },
    {
      "address_components": [
        {
          "long_name": "United States",
          "short_name": "US",
          "types": [
            "country",
            "political"
          ]
        }
      ],
      "formatted_address": "United States",
      "geometry": {
        "bounds": {
          "northeast": {
            "lat": 71.3867745,
            "lng": -66.9502861
          },
          "southwest": {
            "lat": 18.9106768,
            "lng": 172.4458955
          }
        },
        "location": {
          "lat": 37.09024,
          "lng": -95.712891
        },
        "location_type": "APPROXIMATE",
        "viewport": {
          "northeast": {
            "lat": 49.38,
            "lng": -66.94
          },
          "southwest": {
            "lat": 25.82,
            "lng": -124.39
          }
        }
      },
      "place_id": "ChIJCzYy5IS16lQRQrfeQ5K5Oxw",
      "types": [
        "country",
        "political"
      ]
    }
  ],
  "status": "OK"
}
