{
  "results": [
    {
      "address_components": [
        {
          "long_name": "304",
          "short_name": "304",
          "types": [
            "street_number"
          ]
        },
        {
          "long_name": "Madison Street",
          "short_name": "Madison St",
          "types": [
            "route"
          ]
        },
        {
          "long_name": "Kingston Mines",
          "short_name": "Kingston Mines",
          "types": [
            "locality",
            "political"
          ]
        },
        {
          "long_name": "Timber Township",
          "short_name": "Timber Township",
          "types": [
            "administrative_area_level_3",
            "political"
          ]
        },
        {
          "long_name": "Peoria County",
          "short_name": "Peoria County",
          "types": [
            "administrative_area_level_2",
            "political"
          ]
        },
        {
          "long_name": "Illinois",
          "short_name": "IL",
          "types": [
            "administrative_area_level_1",
            "political"
          ]
        },
        {
          "long_name": "United States",
          "short_name": "US",
          "types": [
            "country",
            "political"
          ]
        },
        {
          "long_name": "61539",
          "short_name": "61539",
          "types": [
            "postal_code"
          ]
        }
      ],
      "formatted_address": "304 Madison St, Kingston Mines, IL 61539, USA",
      "geometry": {
        "location": {
          "lat": 40.55847199999999,
          "lng": -89.770901
        },
        "location_type": "ROOFTOP",
        "viewport": {
          "northeast": {
            "lat": 40.5598209802915,
            "lng": -89.7695520197085
          },
          "southwest": {
            "lat": 40.5571230197085,
            "lng": -89.7722499802915
          }
        }
      },
      "place_id": "ChIJae-TAPyLCogRyCNwdh_KXTE",
      "types": [
        "street_address"
      ]
    },
    {
      "address_components": [
        {
          "long_name": "Kingston Mines",
          "short_name": "Kingston Mines",
          "types": [
            "locality",
            "political"
          ]
        },
        {
          "long_name": "Timber Township",
          "short_name": "Timber Township",
          "types": [
            "administrative_area_level_3",
            "political"
          ]
        },
        {
          "long_name": "Peoria County",
          "short_name": "Peoria County",
          "types": [
            "administrative_area_level_2",
            "political"
          ]
        },
        {
          "long_name": "Illinois",
          "short_name": "IL",
          "types": [
            "administrative_area_level_1",
            "political"
          ]
        },
        {
          "long_name": "United States",
          "short_name": "US",
          "types": [
            "country",
            "political"
          ]
        }
      ],
      "formatted_address": "Kingston Mines, IL, USA",
      "geometry": {
        "bounds": {
          "northeast": {
            "lat": 40.5659921,
            "lng": -89.7556089
          },
          "southwest": {
            "lat": 40.5492999,
            "lng": -89.78462979999999
          }
        },
        "location": {
          "lat": 40.5580943,
          "lng": -89.770663
        },
        "location_type": "APPROXIMATE",
        "viewport": {
          "northeast": {
            "lat": 40.5659921,
            "lng": -89.7556089
          },
          "southwest": {
            "lat": 40.5492999,
            "lng": -89.78462979999999
          }
        }
      },
      "place_id": "ChIJkd7pVfmLCogRJW0dqeO3_Ro",
      "types": [
        "locality",
        "political"
      ]
    },
    {
      "address_components": [
        {
          "long_name": "61547",
          "short_name": "61547",
          "types": [
            "postal_code"
          ]
        },
        {
          "long_name": "Mapleton",
          "short_name": "Mapleton",
          "types": [
            "locality",
            "political"
          ]
        },
        {
          "long_name": "Illinois",
          "short_name": "IL",
          "types": [
            "administrative_area_level_1",
            "political"
          ]
        },
        {
          "long_name": "United States",
          "short_name": "US",
          "types": [
            "country",
            "political"
          ]
        }
      ],
      "formatted_address": "Mapleton, IL 61547, USA",
      "geometry": {
        "bounds": {
          "northeast": {
            "lat": 40.6669879,
            "lng": -89.682401
          },
          "southwest": {
            "lat": 40.5334239,
            "lng": -89.80437800000001
          }
        },
        "location": {
          "lat": 40.578528,
          "lng": -89.74269000000001
        },
        "location_type": "APPROXIMATE",
        "viewport": {
          "northeast": {
            "lat": 40.6669879,
            "lng": -89.682401
          },
          "southwest": {
            "lat": 40.5334239,
            "lng": -89.80437800000001
          }
        }
      },
      "place_id": "ChIJK5pNXFmKCogRo6HFg3ylTEE",
      "types": [
        "postal_code"
      ]
    },
    {
      "address_components": [
        {
          "long_name": "Timber Township",
          "short_name": "Timber Township",
          "types": [
            "administrative_area_level_3",
            "political"
          ]
        },
        {
          "long_name": "Peoria County",
          "short_name": "Peoria County",
          "types": [
            "administrative_area_level_2",
            "political"
          ]
        },
        {
          "long_name": "Illinois",
          "short_name": "IL",
          "types": [
            "administrative_area_level_1",
            "political"
          ]
        },
        {
          "long_name": "United States",
          "short_name": "US",
          "types": [
            "country",
            "political"
          ]
        }
      ],
      "formatted_address": "Timber Township, IL, USA",
      "geometry": {
        "bounds": {
          "northeast": {
            "lat": 40.62448089999999,
            "lng": -89.7556089
          },
          "southwest": {
            "lat": 40.513127,
            "lng": -89.874444
          }
        },
        "location": {
          "lat": 40.5736096,
          "lng": -89.83177289999999
        },
        "location_type": "APPROXIMATE",
        "viewport": {
          "northeast": {
            "lat": 40.62448089999999,
            "lng": -89.7556089
          },
          "southwest": {
            "lat": 40.513127,
            "lng": -89.874444
          }
        }
      },
      "place_id": "ChIJSRK_S-eICogRr5RasO547GM",
      "types": [
        "administrative_area_level_3",
        "political"
      ]
    },
    {
      "address_components": [
        {
          "long_name": "Peoria County",
          "short_name": "Peoria County",
          "types": [
            "administrative_area_level_2",
            "political"
          ]
        },
        {
          "long_name": "Illinois",
          "short_name": "IL",
          "types": [
            "administrative_area_level_1",
            "political"
          ]
        },
        {
          "long_name": "United States",
          "short_name": "US",
          "types": [
            "country",
            "political"
          ]
        }
      ],
      "formatted_address": "Peoria County, IL, USA",
      "geometry": {
        "bounds": {
          "northeast": {
            "lat": 40.975094,
            "lng": -89.44769300000002
          },
          "southwest": {
            "lat": 40.513127,
            "lng": -89.989018
          }
        },
        "location": {
          "lat": 40.7156396,
          "lng": -89.77553379999999
        },
        "location_type": "APPROXIMATE",
        "viewport": {
          "northeast": {
            "lat": 40.975094,
            "lng": -89.44769300000002
          },
          "southwest": {
            "lat": 40.513127,
            "lng": -89.989018
          }
        }
      },
      "place_id": "ChIJPb2t9l1nCogR0U7BdDBgWgQ",
      "types": [
        "administrative_area_level_2",
        "political"
      ]
    },
    {
      "address_components": [
        {
          "long_name": "Peoria",
          "short_name": "Peoria",
          "types": [
            "political"
          ]
        },
        {
          "long_name": "Illinois",
          "short_name": "IL",
          "types": [
            "administrative_area_level_1",
            "political"
          ]
        },
        {
          "long_name": "United States",
          "short_name": "US",
          "types": [
            "country",
            "political"
          ]
        }
      ],
      "formatted_address": "Peoria, IL, USA",
      "geometry": {
        "bounds": {
          "northeast": {
            "lat": 41.234434,
            "lng": -88.929417
          },
          "southwest": {
            "lat": 40.3191399,
            "lng": -89.9891091
          }
        },
        "location": {
          "lat": 40.7960399,
          "lng": -89.5497632
        },
        "location_type": "APPROXIMATE",
        "viewport": {
          "northeast": {
            "lat": 41.234434,
            "lng": -88.929417
          },
          "southwest": {
            "lat": 40.3191399,
            "lng": -89.9891091
          }
        }
      },
      "place_id": "ChIJ0740MSxQCogR_-C3kWBHaI8",
      "types": [
        "political"
      ]
    },
    {
      "address_components": [
        {
          "long_name": "Illinois",
          "short_name": "IL",
          "types": [
            "administrative_area_level_1",
            "political"
          ]
        },
        {
          "long_name": "United States",
          "short_name": "US",
          "types": [
            "country",
            "political"
          ]
        }
      ],
      "formatted_address": "Illinois, USA",
      "geometry": {
        "bounds": {
          "northeast": {
            "lat": 42.5083379,
            "lng": -87.4951991
          },
          "southwest": {
            "lat": 36.970298,
            "lng": -91.5130789
          }
        },
        "location": {
          "lat": 40.6331249,
          "lng": -89.3985283
        },
        "location_type": "APPROXIMATE",
        "viewport": {
          "northeast": {
            "lat": 42.5083379,
            "lng": -87.4951991
          },
          "southwest": {
            "lat": 36.970298,
            "lng": -91.5130789
          }
        }
      },
      "place_id": "ChIJGSZubzgtC4gRVlkRZFCCFX8",
      "types": [
        "administrative_area_level_1",
        "political"
      ]
    },
    {
      "address_components": [
        {
          "long_name": "United States",
          "short_name": "US",
          "types": [
            "country",
            "political"
          ]
        }
      ],
      "formatted_address": "United States",
      "geometry": {
        "bounds": {
          "northeast": {
            "lat": 71.3867745,
            "lng": -66.9502861
          },
          "southwest": {
            "lat": 18.9106768,
            "lng": 172.4458955
          }
        },
        "location": {
          "lat": 37.09024,
          "lng": -95.712891
        },
        "location_type": "APPROXIMATE",
        "viewport": {
          "northeast": {
            "lat": 49.38,
            "lng": -66.94
          },
          "southwest": {
            "lat": 25.82,
            "lng": -124.39
          }
        }
      },
      "place_id": "ChIJCzYy5IS16lQRQrfeQ5K5Oxw",
      "types": [
        "country",
        "political"
      ]
    }
  ],
  "status": "OK"
}
