{
  "results": [
    {
      "address_components": [
        {
          "long_name": "W2740",
          "short_name": "W2740",
          "types": [
            "street_number"
          ]
        },
        {
          "long_name": "County Road OO",
          "short_name": "Co Rd OO",
          "types": [
            "route"
          ]
        },
        {
          "long_name": "Sheboygan Falls",
          "short_name": "Sheboygan Falls",
          "types": [
            "locality",
            "political"
          ]
        },
        {
          "long_name": "Lima",
          "short_name": "Lima",
          "types": [
            "administrative_area_level_3",
            "political"
          ]
        },
        {
          "long_name": "Sheboygan County",
          "short_name": "Sheboygan County",
          "types": [
            "administrative_area_level_2",
            "political"
          ]
        },
        {
          "long_name": "Wisconsin",
          "short_name": "WI",
          "types": [
            "administrative_area_level_1",
            "political"
          ]
        },
        {
          "long_name": "United States",
          "short_name": "US",
          "types": [
            "country",
            "political"
          ]
        },
        {
          "long_name": "53085",
          "short_name": "53085",
          "types": [
            "postal_code"
          ]
        },
        {
          "long_name": "2900",
          "short_name": "2900",
          "types": [
            "postal_code_suffix"
          ]
        }
      ],
      "formatted_address": "W2740 Co Rd OO, Sheboygan Falls, WI 53085, USA",
      "geometry": {
        "location": {
          "lat": 43.652515,
          "lng": -87.83189999999999
        },
        "location_type": "ROOFTOP",
        "viewport": {
          "northeast": {
            "lat": 43.6538639802915,
            "lng": -87.83055101970848
          },
          "southwest": {
            "lat": 43.6511660197085,
            "lng": -87.8332489802915
          }
        }
      },
      "place_id": "ChIJD0_ESPSiBIgR8rijQyVYyoU",
      "types": [
        "street_address"
      ]
    },
    {
      "address_components": [
        {
          "long_name": "Lima",
          "short_name": "Lima",
          "types": [
            "administrative_area_level_3",
            "political"
          ]
        },
        {
          "long_name": "Sheboygan County",
          "short_name": "Sheboygan County",
          "types": [
            "administrative_area_level_2",
            "political"
          ]
        },
        {
          "long_name": "Wisconsin",
          "short_name": "WI",
          "types": [
            "administrative_area_level_1",
            "political"
          ]
        },
        {
          "long_name": "United States",
          "short_name": "US",
          "types": [
            "country",
            "political"
          ]
        }
      ],
      "formatted_address": "Lima, WI, USA",
      "geometry": {
        "bounds": {
          "northeast": {
            "lat": 43.7186631,
            "lng": -87.7991689
          },
          "southwest": {
            "lat": 43.63005,
            "lng": -87.922208
          }
        },
        "location": {
          "lat": 43.6753863,
          "lng": -87.8746146
        },
        "location_type": "APPROXIMATE",
        "viewport": {
          "northeast": {
            "lat": 43.7186631,
            "lng": -87.7991689
          },
          "southwest": {
            "lat": 43.63005,
            "lng": -87.922208
          }
        }
      },
      "place_id": "ChIJUdK6epmYBIgRevWYbseyCpU",
      "types": [
        "administrative_area_level_3",
        "political"
      ]
    },
    {
      "address_components": [
        {
          "long_name": "53070",
          "short_name": "53070",
          "types": [
            "postal_code"
          ]
        },
        {
          "long_name": "Oostburg",
          "short_name": "Oostburg",
          "types": [
            "locality",
            "political"
          ]
        },
        {
          "long_name": "Wisconsin",
          "short_name": "WI",
          "types": [
            "administrative_area_level_1",
            "political"
          ]
        },
        {
          "long_name": "United States",
          "short_name": "US",
          "types": [
            "country",
            "political"
          ]
        }
      ],
      "formatted_address": "Oostburg, WI 53070, USA",
      "geometry": {
        "bounds": {
          "northeast": {
            "lat": 43.663539,
            "lng": -87.723266
          },
          "southwest": {
            "lat": 43.5429809,
            "lng": -87.914682
          }
        },
        "location": {
          "lat": 43.6355451,
          "lng": -87.79600669999999
        },
        "location_type": "APPROXIMATE",
        "viewport": {
          "northeast": {
            "lat": 43.663539,
            "lng": -87.723266
          },
          "southwest": {
            "lat": 43.5429809,
            "lng": -87.914682
          }
        }
      },
      "place_id": "ChIJr4eWKCmjBIgRFhylKrF8bVs",
      "types": [
        "postal_code"
      ]
    },
    {
      "address_components": [
        {
          "long_name": "Sheboygan",
          "short_name": "Sheboygan",
          "types": [
            "political"
          ]
        },
        {
          "long_name": "Wisconsin",
          "short_name": "WI",
          "types": [
            "administrative_area_level_1",
            "political"
          ]
        },
        {
          "long_name": "United States",
          "short_name": "US",
          "types": [
            "country",
            "political"
          ]
        }
      ],
      "formatted_address": "Sheboygan, WI, USA",
      "geometry": {
        "bounds": {
          "northeast": {
            "lat": 43.892472,
            "lng": -87.700085
          },
          "southwest": {
            "lat": 43.542365,
            "lng": -88.162098
          }
        },
        "location": {
          "lat": 43.6956298,
          "lng": -87.9334803
        },
        "location_type": "APPROXIMATE",
        "viewport": {
          "northeast": {
            "lat": 43.892472,
            "lng": -87.700085
          },
          "southwest": {
            "lat": 43.542365,
            "lng": -88.162098
          }
        }
      },
      "place_id": "ChIJZ177DDucBIgRb82YTTWMP8M",
      "types": [
        "political"
      ]
    },
    {
      "address_components": [
        {
          "long_name": "Sheboygan County",
          "short_name": "Sheboygan County",
          "types": [
            "administrative_area_level_2",
            "political"
          ]
        },
        {
          "long_name": "Wisconsin",
          "short_name": "WI",
          "types": [
            "administrative_area_level_1",
            "political"
          ]
        },
        {
          "long_name": "United States",
          "short_name": "US",
          "types": [
            "country",
            "political"
          ]
        }
      ],
      "formatted_address": "Sheboygan County, WI, USA",
      "geometry": {
        "bounds": {
          "northeast": {
            "lat": 43.89237,
            "lng": -87.6946863
          },
          "southwest": {
            "lat": 43.542349,
            "lng": -88.162274
          }
        },
        "location": {
          "lat": 43.7173595,
          "lng": -87.9284801
        },
        "location_type": "APPROXIMATE",
        "viewport": {
          "northeast": {
            "lat": 43.89237,
            "lng": -87.6946863
          },
          "southwest": {
            "lat": 43.542349,
            "lng": -88.162274
          }
        }
      },
      "place_id": "ChIJNdfSPzKlBIgRHR3zIpPEIag",
      "types": [
        "administrative_area_level_2",
        "political"
      ]
    },
    {
      "address_components": [
        {
          "long_name": "Wisconsin",
          "short_name": "WI",
          "types": [
            "administrative_area_level_1",
            "political"
          ]
        },
        {
          "long_name": "United States",
          "short_name": "US",
          "types": [
            "country",
            "political"
          ]
        }
      ],
      "formatted_address": "Wisconsin, USA",
      "geometry": {
        "bounds": {
          "northeast": {
            "lat": 47.0807296,
            "lng": -86.7639767
          },
          "southwest": {
            "lat": 42.491864,
            "lng": -92.88943309999999
          }
        },
        "location": {
          "lat": 43.7844397,
          "lng": -88.7878678
        },
        "location_type": "APPROXIMATE",
        "viewport": {
          "northeast": {
            "lat": 47.0807296,
            "lng": -86.7639767
          },
          "southwest": {
            "lat": 42.491864,
            "lng": -92.88943309999999
          }
        }
      },
      "place_id": "ChIJr-OEkw_0qFIR1kmG-LjV1fI",
      "types": [
        "administrative_area_level_1",
        "political"
      ]
    },
    {
      "address_components": [
        {
          "long_name": "United States",
          "short_name": "US",
          "types": [
            "country",
            "political"
          ]
        }
      ],
      "formatted_address": "United States",
      "geometry": {
        "bounds": {
          "northeast": {
            "lat": 71.3867745,
            "lng": -66.9502861
          },
          "southwest": {
            "lat": 18.9106768,
            "lng": 172.4458955
          }
        },
        "location": {
          "lat": 37.09024,
          "lng": -95.712891
        },
        "location_type": "APPROXIMATE",
        "viewport": {
          "northeast": {
            "lat": 49.38,
            "lng": -66.94
          },
          "southwest": {
            "lat": 25.82,
            "lng": -124.39
          }
        }
      },
      "place_id": "ChIJCzYy5IS16lQRQrfeQ5K5Oxw",
      "types": [
        "country",
        "political"
      ]
    }
  ],
  "status": "OK"
}
