{
  "results": [
    {
      "address_components": [
        {
          "long_name": "185",
          "short_name": "185",
          "types": [
            "street_number"
          ]
        },
        {
          "long_name": "Kent Drive",
          "short_name": "Kent Dr",
          "types": [
            "route"
          ]
        },
        {
          "long_name": "Exton",
          "short_name": "Exton",
          "types": [
            "locality",
            "political"
          ]
        },
        {
          "long_name": "Uwchlan Township",
          "short_name": "Uwchlan Township",
          "types": [
            "administrative_area_level_3",
            "political"
          ]
        },
        {
          "long_name": "Chester County",
          "short_name": "Chester County",
          "types": [
            "administrative_area_level_2",
            "political"
          ]
        },
        {
          "long_name": "Pennsylvania",
          "short_name": "PA",
          "types": [
            "administrative_area_level_1",
            "political"
          ]
        },
        {
          "long_name": "United States",
          "short_name": "US",
          "types": [
            "country",
            "political"
          ]
        },
        {
          "long_name": "19341",
          "short_name": "19341",
          "types": [
            "postal_code"
          ]
        },
        {
          "long_name": "1536",
          "short_name": "1536",
          "types": [
            "postal_code_suffix"
          ]
        }
      ],
      "formatted_address": "185 Kent Dr, Exton, PA 19341, USA",
      "geometry": {
        "location": {
          "lat": 40.052373,
          "lng": -75.64406699999999
        },
        "location_type": "ROOFTOP",
        "viewport": {
          "northeast": {
            "lat": 40.05372198029149,
            "lng": -75.64271801970848
          },
          "southwest": {
            "lat": 40.0510240197085,
            "lng": -75.64541598029149
          }
        }
      },
      "place_id": "ChIJw6GI37f0xokREi2fS1nd_fk",
      "types": [
        "street_address"
      ]
    },
    {
      "address_components": [
        {
          "long_name": "Lionville",
          "short_name": "Lionville",
          "types": [
            "locality",
            "political"
          ]
        },
        {
          "long_name": "Uwchlan Township",
          "short_name": "Uwchlan Township",
          "types": [
            "administrative_area_level_3",
            "political"
          ]
        },
        {
          "long_name": "Chester County",
          "short_name": "Chester County",
          "types": [
            "administrative_area_level_2",
            "political"
          ]
        },
        {
          "long_name": "Pennsylvania",
          "short_name": "PA",
          "types": [
            "administrative_area_level_1",
            "political"
          ]
        },
        {
          "long_name": "United States",
          "short_name": "US",
          "types": [
            "country",
            "political"
          ]
        }
      ],
      "formatted_address": "Lionville, PA, USA",
      "geometry": {
        "bounds": {
          "northeast": {
            "lat": 40.065449,
            "lng": -75.6259911
          },
          "southwest": {
            "lat": 40.0382229,
            "lng": -75.6629081
          }
        },
        "location": {
          "lat": 40.0552925,
          "lng": -75.63826569999999
        },
        "location_type": "APPROXIMATE",
        "viewport": {
          "northeast": {
            "lat": 40.065449,
            "lng": -75.6259911
          },
          "southwest": {
            "lat": 40.0382229,
            "lng": -75.6629081
          }
        }
      },
      "place_id": "ChIJ857pu8_0xokRNIwTm-lpdsg",
      "types": [
        "locality",
        "political"
      ]
    },
    {
      "address_components": [
        {
          "long_name": "Uwchlan Township",
          "short_name": "Uwchlan Township",
          "types": [
            "administrative_area_level_3",
            "political"
          ]
        },
        {
          "long_name": "Chester County",
          "short_name": "Chester County",
          "types": [
            "administrative_area_level_2",
            "political"
          ]
        },
        {
          "long_name": "Pennsylvania",
          "short_name": "PA",
          "types": [
            "administrative_area_level_1",
            "political"
          ]
        },
        {
          "long_name": "United States",
          "short_name": "US",
          "types": [
            "country",
            "political"
          ]
        }
      ],
      "formatted_address": "Uwchlan Township, PA, USA",
      "geometry": {
        "bounds": {
          "northeast": {
            "lat": 40.07855,
            "lng": -75.6133299
          },
          "southwest": {
            "lat": 40.028334,
            "lng": -75.7169189
          }
        },
        "location": {
          "lat": 40.0524685,
          "lng": -75.6557206
        },
        "location_type": "APPROXIMATE",
        "viewport": {
          "northeast": {
            "lat": 40.07855,
            "lng": -75.6133299
          },
          "southwest": {
            "lat": 40.028334,
            "lng": -75.7169189
          }
        }
      },
      "place_id": "ChIJh8ebKNj0xokRfrN0k24M2og",
      "types": [
        "administrative_area_level_3",
        "political"
      ]
    },
    {
      "address_components": [
        {
          "long_name": "19341",
          "short_name": "19341",
          "types": [
            "postal_code"
          ]
        },
        {
          "long_name": "Exton",
          "short_name": "Exton",
          "types": [
            "locality",
            "political"
          ]
        },
        {
          "long_name": "Chester County",
          "short_name": "Chester County",
          "types": [
            "administrative_area_level_2",
            "political"
          ]
        },
        {
          "long_name": "Pennsylvania",
          "short_name": "PA",
          "types": [
            "administrative_area_level_1",
            "political"
          ]
        },
        {
          "long_name": "United States",
          "short_name": "US",
          "types": [
            "country",
            "political"
          ]
        }
      ],
      "formatted_address": "Exton, PA 19341, USA",
      "geometry": {
        "bounds": {
          "northeast": {
            "lat": 40.0736548,
            "lng": -75.5813989
          },
          "southwest": {
            "lat": 40.007215,
            "lng": -75.6990369
          }
        },
        "location": {
          "lat": 40.04524420000001,
          "lng": -75.63826569999999
        },
        "location_type": "APPROXIMATE",
        "viewport": {
          "northeast": {
            "lat": 40.0736548,
            "lng": -75.5813989
          },
          "southwest": {
            "lat": 40.007215,
            "lng": -75.6990369
          }
        }
      },
      "place_id": "ChIJyzhGGb30xokR1q8_Y4yH5-s",
      "types": [
        "postal_code"
      ]
    },
    {
      "address_components": [
        {
          "long_name": "Chester County",
          "short_name": "Chester County",
          "types": [
            "administrative_area_level_2",
            "political"
          ]
        },
        {
          "long_name": "Pennsylvania",
          "short_name": "PA",
          "types": [
            "administrative_area_level_1",
            "political"
          ]
        },
        {
          "long_name": "United States",
          "short_name": "US",
          "types": [
            "country",
            "political"
          ]
        }
      ],
      "formatted_address": "Chester County, PA, USA",
      "geometry": {
        "bounds": {
          "northeast": {
            "lat": 40.2451251,
            "lng": -75.361013
          },
          "southwest": {
            "lat": 39.7211468,
            "lng": -76.13667199999999
          }
        },
        "location": {
          "lat": 40.0010204,
          "lng": -75.8069082
        },
        "location_type": "APPROXIMATE",
        "viewport": {
          "northeast": {
            "lat": 40.2451251,
            "lng": -75.361013
          },
          "southwest": {
            "lat": 39.7211468,
            "lng": -76.13667199999999
          }
        }
      },
      "place_id": "ChIJ_w4lRiZdxokRjwDbOR-3-YE",
      "types": [
        "administrative_area_level_2",
        "political"
      ]
    },
    {
      "address_components": [
        {
          "long_name": "Pennsylvania",
          "short_name": "PA",
          "types": [
            "administrative_area_level_1",
            "political"
          ]
        },
        {
          "long_name": "United States",
          "short_name": "US",
          "types": [
            "country",
            "political"
          ]
        }
      ],
      "formatted_address": "Pennsylvania, USA",
      "geometry": {
        "bounds": {
          "northeast": {
            "lat": 42.2693866,
            "lng": -74.6895018
          },
          "southwest": {
            "lat": 39.7197989,
            "lng": -80.51989499999999
          }
        },
        "location": {
          "lat": 41.2033216,
          "lng": -77.1945247
        },
        "location_type": "APPROXIMATE",
        "viewport": {
          "northeast": {
            "lat": 42.2693866,
            "lng": -74.6895018
          },
          "southwest": {
            "lat": 39.7197989,
            "lng": -80.51989499999999
          }
        }
      },
      "place_id": "ChIJieUyHiaALYgRPbQiUEchRsI",
      "types": [
        "administrative_area_level_1",
        "political"
      ]
    },
    {
      "address_components": [
        {
          "long_name": "United States",
          "short_name": "US",
          "types": [
            "country",
            "political"
          ]
        }
      ],
      "formatted_address": "United States",
      "geometry": {
        "bounds": {
          "northeast": {
            "lat": 71.3867745,
            "lng": -66.9502861
          },
          "southwest": {
            "lat": 18.9106768,
            "lng": 172.4458955
          }
        },
        "location": {
          "lat": 37.09024,
          "lng": -95.712891
        },
        "location_type": "APPROXIMATE",
        "viewport": {
          "northeast": {
            "lat": 49.38,
            "lng": -66.94
          },
          "southwest": {
            "lat": 25.82,
            "lng": -124.39
          }
        }
      },
      "place_id": "ChIJCzYy5IS16lQRQrfeQ5K5Oxw",
      "types": [
        "country",
        "political"
      ]
    }
  ],
  "status": "OK"
}
