{
  "results": [
    {
      "address_components": [
        {
          "long_name": "E8438",
          "short_name": "E8438",
          "types": [
            "street_number"
          ]
        },
        {
          "long_name": "Weyauwega Road",
          "short_name": "Weyauwega Rd",
          "types": [
            "route"
          ]
        },
        {
          "long_name": "New London",
          "short_name": "New London",
          "types": [
            "locality",
            "political"
          ]
        },
        {
          "long_name": "Mukwa",
          "short_name": "Mukwa",
          "types": [
            "administrative_area_level_3",
            "political"
          ]
        },
        {
          "long_name": "Waupaca County",
          "short_name": "Waupaca County",
          "types": [
            "administrative_area_level_2",
            "political"
          ]
        },
        {
          "long_name": "Wisconsin",
          "short_name": "WI",
          "types": [
            "administrative_area_level_1",
            "political"
          ]
        },
        {
          "long_name": "United States",
          "short_name": "US",
          "types": [
            "country",
            "political"
          ]
        },
        {
          "long_name": "54961",
          "short_name": "54961",
          "types": [
            "postal_code"
          ]
        },
        {
          "long_name": "7933",
          "short_name": "7933",
          "types": [
            "postal_code_suffix"
          ]
        }
      ],
      "formatted_address": "E8438 Weyauwega Rd, New London, WI 54961, USA",
      "geometry": {
        "location": {
          "lat": 44.40777200000001,
          "lng": -88.80242299999999
        },
        "location_type": "ROOFTOP",
        "viewport": {
          "northeast": {
            "lat": 44.40912098029151,
            "lng": -88.80107401970848
          },
          "southwest": {
            "lat": 44.40642301970851,
            "lng": -88.80377198029149
          }
        }
      },
      "place_id": "ChIJbXjUBxSAAYgRhmiQS2OQPYg",
      "types": [
        "street_address"
      ]
    },
    {
      "address_components": [
        {
          "long_name": "Mukwa",
          "short_name": "Mukwa",
          "types": [
            "administrative_area_level_3",
            "political"
          ]
        },
        {
          "long_name": "Waupaca County",
          "short_name": "Waupaca County",
          "types": [
            "administrative_area_level_2",
            "political"
          ]
        },
        {
          "long_name": "Wisconsin",
          "short_name": "WI",
          "types": [
            "administrative_area_level_1",
            "political"
          ]
        },
        {
          "long_name": "United States",
          "short_name": "US",
          "types": [
            "country",
            "political"
          ]
        }
      ],
      "formatted_address": "Mukwa, WI, USA",
      "geometry": {
        "bounds": {
          "northeast": {
            "lat": 44.416911,
            "lng": -88.736823
          },
          "southwest": {
            "lat": 44.329707,
            "lng": -88.86021989999999
          }
        },
        "location": {
          "lat": 44.374184,
          "lng": -88.8070886
        },
        "location_type": "APPROXIMATE",
        "viewport": {
          "northeast": {
            "lat": 44.416911,
            "lng": -88.736823
          },
          "southwest": {
            "lat": 44.329707,
            "lng": -88.86021989999999
          }
        }
      },
      "place_id": "ChIJiXcRvcJ_AYgRNedrTEhLYdU",
      "types": [
        "administrative_area_level_3",
        "political"
      ]
    },
    {
      "address_components": [
        {
          "long_name": "54961",
          "short_name": "54961",
          "types": [
            "postal_code"
          ]
        },
        {
          "long_name": "New London",
          "short_name": "New London",
          "types": [
            "locality",
            "political"
          ]
        },
        {
          "long_name": "Wisconsin",
          "short_name": "WI",
          "types": [
            "administrative_area_level_1",
            "political"
          ]
        },
        {
          "long_name": "United States",
          "short_name": "US",
          "types": [
            "country",
            "political"
          ]
        }
      ],
      "formatted_address": "New London, WI 54961, USA",
      "geometry": {
        "bounds": {
          "northeast": {
            "lat": 44.5197449,
            "lng": -88.6146079
          },
          "southwest": {
            "lat": 44.288626,
            "lng": -88.947108
          }
        },
        "location": {
          "lat": 44.4115636,
          "lng": -88.7686382
        },
        "location_type": "APPROXIMATE",
        "viewport": {
          "northeast": {
            "lat": 44.5197449,
            "lng": -88.6146079
          },
          "southwest": {
            "lat": 44.288626,
            "lng": -88.947108
          }
        }
      },
      "place_id": "ChIJO7E7VboqAogR4zf6ppGBy3c",
      "postcode_localities": [
        "New London",
        "Royalton"
      ],
      "types": [
        "postal_code"
      ]
    },
    {
      "address_components": [
        {
          "long_name": "Waupaca County",
          "short_name": "Waupaca County",
          "types": [
            "administrative_area_level_2",
            "political"
          ]
        },
        {
          "long_name": "Wisconsin",
          "short_name": "WI",
          "types": [
            "administrative_area_level_1",
            "political"
          ]
        },
        {
          "long_name": "United States",
          "short_name": "US",
          "types": [
            "country",
            "political"
          ]
        }
      ],
      "formatted_address": "Waupaca County, WI, USA",
      "geometry": {
        "bounds": {
          "northeast": {
            "lat": 44.68134999999999,
            "lng": -88.60506699999999
          },
          "southwest": {
            "lat": 44.242556,
            "lng": -89.224896
          }
        },
        "location": {
          "lat": 44.4705941,
          "lng": -89.0179332
        },
        "location_type": "APPROXIMATE",
        "viewport": {
          "northeast": {
            "lat": 44.68134999999999,
            "lng": -88.60506699999999
          },
          "southwest": {
            "lat": 44.242556,
            "lng": -89.224896
          }
        }
      },
      "place_id": "ChIJwQUb5UR0AYgRA7wy_0Tvjzk",
      "types": [
        "administrative_area_level_2",
        "political"
      ]
    },
    {
      "address_components": [
        {
          "long_name": "Wisconsin",
          "short_name": "WI",
          "types": [
            "administrative_area_level_1",
            "political"
          ]
        },
        {
          "long_name": "United States",
          "short_name": "US",
          "types": [
            "country",
            "political"
          ]
        }
      ],
      "formatted_address": "Wisconsin, USA",
      "geometry": {
        "bounds": {
          "northeast": {
            "lat": 47.0807296,
            "lng": -86.7639767
          },
          "southwest": {
            "lat": 42.491864,
            "lng": -92.88943309999999
          }
        },
        "location": {
          "lat": 43.7844397,
          "lng": -88.7878678
        },
        "location_type": "APPROXIMATE",
        "viewport": {
          "northeast": {
            "lat": 47.0807296,
            "lng": -86.7639767
          },
          "southwest": {
            "lat": 42.491864,
            "lng": -92.88943309999999
          }
        }
      },
      "place_id": "ChIJr-OEkw_0qFIR1kmG-LjV1fI",
      "types": [
        "administrative_area_level_1",
        "political"
      ]
    },
    {
      "address_components": [
        {
          "long_name": "United States",
          "short_name": "US",
          "types": [
            "country",
            "political"
          ]
        }
      ],
      "formatted_address": "United States",
      "geometry": {
        "bounds": {
          "northeast": {
            "lat": 71.3867745,
            "lng": -66.9502861
          },
          "southwest": {
            "lat": 18.9106768,
            "lng": 172.4458955
          }
        },
        "location": {
          "lat": 37.09024,
          "lng": -95.712891
        },
        "location_type": "APPROXIMATE",
        "viewport": {
          "northeast": {
            "lat": 49.38,
            "lng": -66.94
          },
          "southwest": {
            "lat": 25.82,
            "lng": -124.39
          }
        }
      },
      "place_id": "ChIJCzYy5IS16lQRQrfeQ5K5Oxw",
      "types": [
        "country",
        "political"
      ]
    }
  ],
  "status": "OK"
}
