{
  "results": [
    {
      "address_components": [
        {
          "long_name": "4272-4460",
          "short_name": "4272-4460",
          "types": [
            "street_number"
          ]
        },
        {
          "long_name": "Main Street",
          "short_name": "Main St",
          "types": [
            "route"
          ]
        },
        {
          "long_name": "Irwin",
          "short_name": "Irwin",
          "types": [
            "locality",
            "political"
          ]
        },
        {
          "long_name": "Otto Township",
          "short_name": "Otto Township",
          "types": [
            "administrative_area_level_3",
            "political"
          ]
        },
        {
          "long_name": "Kankakee County",
          "short_name": "Kankakee County",
          "types": [
            "administrative_area_level_2",
            "political"
          ]
        },
        {
          "long_name": "Illinois",
          "short_name": "IL",
          "types": [
            "administrative_area_level_1",
            "political"
          ]
        },
        {
          "long_name": "United States",
          "short_name": "US",
          "types": [
            "country",
            "political"
          ]
        },
        {
          "long_name": "60901",
          "short_name": "60901",
          "types": [
            "postal_code"
          ]
        }
      ],
      "formatted_address": "4272-4460 Main St, Irwin, IL 60901, USA",
      "geometry": {
        "bounds": {
          "northeast": {
            "lat": 41.0558647,
            "lng": -87.9838826
          },
          "southwest": {
            "lat": 41.0526214,
            "lng": -87.9839494
          }
        },
        "location": {
          "lat": 41.0536689,
          "lng": -87.98392299999999
        },
        "location_type": "RANGE_INTERPOLATED",
        "viewport": {
          "northeast": {
            "lat": 41.0558647,
            "lng": -87.98256701970851
          },
          "southwest": {
            "lat": 41.0526214,
            "lng": -87.98526498029152
          }
        }
      },
      "place_id": "Eic0MjcyLTQ0NjAgTWFpbiBTdCwgSXJ3aW4sIElMIDYwOTAxLCBVU0E",
      "types": [
        "street_address"
      ]
    },
    {
      "address_components": [
        {
          "long_name": "4272-4478",
          "short_name": "4272-4478",
          "types": [
            "street_number"
          ]
        },
        {
          "long_name": "6000W Road",
          "short_name": "6000W Rd",
          "types": [
            "route"
          ]
        },
        {
          "long_name": "Irwin",
          "short_name": "Irwin",
          "types": [
            "locality",
            "political"
          ]
        },
        {
          "long_name": "Otto Township",
          "short_name": "Otto Township",
          "types": [
            "administrative_area_level_3",
            "political"
          ]
        },
        {
          "long_name": "Kankakee County",
          "short_name": "Kankakee County",
          "types": [
            "administrative_area_level_2",
            "political"
          ]
        },
        {
          "long_name": "Illinois",
          "short_name": "IL",
          "types": [
            "administrative_area_level_1",
            "political"
          ]
        },
        {
          "long_name": "United States",
          "short_name": "US",
          "types": [
            "country",
            "political"
          ]
        },
        {
          "long_name": "60901",
          "short_name": "60901",
          "types": [
            "postal_code"
          ]
        }
      ],
      "formatted_address": "4272-4478 6000W Rd, Irwin, IL 60901, USA",
      "geometry": {
        "bounds": {
          "northeast": {
            "lat": 41.0558647,
            "lng": -87.9838826
          },
          "southwest": {
            "lat": 41.0526214,
            "lng": -87.9839494
          }
        },
        "location": {
          "lat": 41.0536689,
          "lng": -87.98392299999999
        },
        "location_type": "RANGE_INTERPOLATED",
        "viewport": {
          "northeast": {
            "lat": 41.0558647,
            "lng": -87.98256701970851
          },
          "southwest": {
            "lat": 41.0526214,
            "lng": -87.98526498029152
          }
        }
      },
      "place_id": "Eig0MjcyLTQ0NzggNjAwMFcgUmQsIElyd2luLCBJTCA2MDkwMSwgVVNB",
      "types": [
        "street_address"
      ]
    },
    {
      "address_components": [
        {
          "long_name": "Irwin",
          "short_name": "Irwin",
          "types": [
            "locality",
            "political"
          ]
        },
        {
          "long_name": "Otto Township",
          "short_name": "Otto Township",
          "types": [
            "administrative_area_level_3",
            "political"
          ]
        },
        {
          "long_name": "Kankakee County",
          "short_name": "Kankakee County",
          "types": [
            "administrative_area_level_2",
            "political"
          ]
        },
        {
          "long_name": "Illinois",
          "short_name": "IL",
          "types": [
            "administrative_area_level_1",
            "political"
          ]
        },
        {
          "long_name": "United States",
          "short_name": "US",
          "types": [
            "country",
            "political"
          ]
        }
      ],
      "formatted_address": "Irwin, IL, USA",
      "geometry": {
        "bounds": {
          "northeast": {
            "lat": 41.059137,
            "lng": -87.98280199999999
          },
          "southwest": {
            "lat": 41.049257,
            "lng": -87.988344
          }
        },
        "location": {
          "lat": 41.0522543,
          "lng": -87.98393329999999
        },
        "location_type": "APPROXIMATE",
        "viewport": {
          "northeast": {
            "lat": 41.059137,
            "lng": -87.98280199999999
          },
          "southwest": {
            "lat": 41.049257,
            "lng": -87.988344
          }
        }
      },
      "place_id": "ChIJodOR-6TFDYgRjN7gdLxrUQU",
      "types": [
        "locality",
        "political"
      ]
    },
    {
      "address_components": [
        {
          "long_name": "Otto Township",
          "short_name": "Otto Township",
          "types": [
            "administrative_area_level_3",
            "political"
          ]
        },
        {
          "long_name": "Kankakee County",
          "short_name": "Kankakee County",
          "types": [
            "administrative_area_level_2",
            "political"
          ]
        },
        {
          "long_name": "Illinois",
          "short_name": "IL",
          "types": [
            "administrative_area_level_1",
            "political"
          ]
        },
        {
          "long_name": "United States",
          "short_name": "US",
          "types": [
            "country",
            "political"
          ]
        }
      ],
      "formatted_address": "Otto Township, IL, USA",
      "geometry": {
        "bounds": {
          "northeast": {
            "lat": 41.0774319,
            "lng": -87.812783
          },
          "southwest": {
            "lat": 40.999994,
            "lng": -88.017652
          }
        },
        "location": {
          "lat": 41.0407507,
          "lng": -87.913867
        },
        "location_type": "APPROXIMATE",
        "viewport": {
          "northeast": {
            "lat": 41.0774319,
            "lng": -87.812783
          },
          "southwest": {
            "lat": 40.999994,
            "lng": -88.017652
          }
        }
      },
      "place_id": "ChIJJ-hyJ-vDDYgRSdLiOx0tzqA",
      "types": [
        "administrative_area_level_3",
        "political"
      ]
    },
    {
      "address_components": [
        {
          "long_name": "60901",
          "short_name": "60901",
          "types": [
            "postal_code"
          ]
        },
        {
          "long_name": "Kankakee",
          "short_name": "Kankakee",
          "types": [
            "locality",
            "political"
          ]
        },
        {
          "long_name": "Illinois",
          "short_name": "IL",
          "types": [
            "administrative_area_level_1",
            "political"
          ]
        },
        {
          "long_name": "United States",
          "short_name": "US",
          "types": [
            "country",
            "political"
          ]
        }
      ],
      "formatted_address": "Kankakee, IL 60901, USA",
      "geometry": {
        "bounds": {
          "northeast": {
            "lat": 41.205604,
            "lng": -87.7203069
          },
          "southwest": {
            "lat": 41.0301569,
            "lng": -88.0382549
          }
        },
        "location": {
          "lat": 41.1213147,
          "lng": -87.913867
        },
        "location_type": "APPROXIMATE",
        "viewport": {
          "northeast": {
            "lat": 41.205604,
            "lng": -87.7203069
          },
          "southwest": {
            "lat": 41.0301569,
            "lng": -88.0382549
          }
        }
      },
      "place_id": "ChIJtejX91LbDYgRLXRYtkyRKSU",
      "postcode_localities": [
        "Irwin",
        "Kankakee"
      ],
      "types": [
        "postal_code"
      ]
    },
    {
      "address_components": [
        {
          "long_name": "Kankakee County",
          "short_name": "Kankakee County",
          "types": [
            "administrative_area_level_2",
            "political"
          ]
        },
        {
          "long_name": "Illinois",
          "short_name": "IL",
          "types": [
            "administrative_area_level_1",
            "political"
          ]
        },
        {
          "long_name": "United States",
          "short_name": "US",
          "types": [
            "country",
            "political"
          ]
        }
      ],
      "formatted_address": "Kankakee County, IL, USA",
      "geometry": {
        "bounds": {
          "northeast": {
            "lat": 41.2981769,
            "lng": -87.526206
          },
          "southwest": {
            "lat": 40.9945919,
            "lng": -88.25202
          }
        },
        "location": {
          "lat": 41.1790977,
          "lng": -87.77633329999999
        },
        "location_type": "APPROXIMATE",
        "viewport": {
          "northeast": {
            "lat": 41.2981769,
            "lng": -87.526206
          },
          "southwest": {
            "lat": 40.9945919,
            "lng": -88.25202
          }
        }
      },
      "place_id": "ChIJrQhp-IfEDYgRiAaxfXA-a6w",
      "types": [
        "administrative_area_level_2",
        "political"
      ]
    },
    {
      "address_components": [
        {
          "long_name": "Illinois",
          "short_name": "IL",
          "types": [
            "administrative_area_level_1",
            "political"
          ]
        },
        {
          "long_name": "United States",
          "short_name": "US",
          "types": [
            "country",
            "political"
          ]
        }
      ],
      "formatted_address": "Illinois, USA",
      "geometry": {
        "bounds": {
          "northeast": {
            "lat": 42.5083379,
            "lng": -87.4951991
          },
          "southwest": {
            "lat": 36.970298,
            "lng": -91.5130789
          }
        },
        "location": {
          "lat": 40.6331249,
          "lng": -89.3985283
        },
        "location_type": "APPROXIMATE",
        "viewport": {
          "northeast": {
            "lat": 42.5083379,
            "lng": -87.4951991
          },
          "southwest": {
            "lat": 36.970298,
            "lng": -91.5130789
          }
        }
      },
      "place_id": "ChIJGSZubzgtC4gRVlkRZFCCFX8",
      "types": [
        "administrative_area_level_1",
        "political"
      ]
    },
    {
      "address_components": [
        {
          "long_name": "United States",
          "short_name": "US",
          "types": [
            "country",
            "political"
          ]
        }
      ],
      "formatted_address": "United States",
      "geometry": {
        "bounds": {
          "northeast": {
            "lat": 71.3867745,
            "lng": -66.9502861
          },
          "southwest": {
            "lat": 18.9106768,
            "lng": 172.4458955
          }
        },
        "location": {
          "lat": 37.09024,
          "lng": -95.712891
        },
        "location_type": "APPROXIMATE",
        "viewport": {
          "northeast": {
            "lat": 49.38,
            "lng": -66.94
          },
          "southwest": {
            "lat": 25.82,
            "lng": -124.39
          }
        }
      },
      "place_id": "ChIJCzYy5IS16lQRQrfeQ5K5Oxw",
      "types": [
        "country",
        "political"
      ]
    }
  ],
  "status": "OK"
}
