{
  "results": [
    {
      "address_components": [
        {
          "long_name": "30",
          "short_name": "30",
          "types": [
            "street_number"
          ]
        },
        {
          "long_name": "North 36th Street",
          "short_name": "N 36th St",
          "types": [
            "route"
          ]
        },
        {
          "long_name": "Harrisburg",
          "short_name": "Harrisburg",
          "types": [
            "locality",
            "political"
          ]
        },
        {
          "long_name": "Susquehanna Township",
          "short_name": "Susquehanna Township",
          "types": [
            "administrative_area_level_3",
            "political"
          ]
        },
        {
          "long_name": "Dauphin County",
          "short_name": "Dauphin County",
          "types": [
            "administrative_area_level_2",
            "political"
          ]
        },
        {
          "long_name": "Pennsylvania",
          "short_name": "PA",
          "types": [
            "administrative_area_level_1",
            "political"
          ]
        },
        {
          "long_name": "United States",
          "short_name": "US",
          "types": [
            "country",
            "political"
          ]
        },
        {
          "long_name": "17109",
          "short_name": "17109",
          "types": [
            "postal_code"
          ]
        },
        {
          "long_name": "2404",
          "short_name": "2404",
          "types": [
            "postal_code_suffix"
          ]
        }
      ],
      "formatted_address": "30 N 36th St, Harrisburg, PA 17109, USA",
      "geometry": {
        "location": {
          "lat": 40.290456,
          "lng": -76.838571
        },
        "location_type": "ROOFTOP",
        "viewport": {
          "northeast": {
            "lat": 40.2918049802915,
            "lng": -76.83722201970849
          },
          "southwest": {
            "lat": 40.2891070197085,
            "lng": -76.83991998029151
          }
        }
      },
      "place_id": "ChIJWUkq4k3HyIkRXVvVsCCbh-A",
      "types": [
        "street_address"
      ]
    },
    {
      "address_components": [
        {
          "long_name": "Progress",
          "short_name": "Progress",
          "types": [
            "locality",
            "political"
          ]
        },
        {
          "long_name": "Susquehanna Township",
          "short_name": "Susquehanna Township",
          "types": [
            "administrative_area_level_3",
            "political"
          ]
        },
        {
          "long_name": "Dauphin County",
          "short_name": "Dauphin County",
          "types": [
            "administrative_area_level_2",
            "political"
          ]
        },
        {
          "long_name": "Pennsylvania",
          "short_name": "PA",
          "types": [
            "administrative_area_level_1",
            "political"
          ]
        },
        {
          "long_name": "United States",
          "short_name": "US",
          "types": [
            "country",
            "political"
          ]
        }
      ],
      "formatted_address": "Progress, PA, USA",
      "geometry": {
        "bounds": {
          "northeast": {
            "lat": 40.305588,
            "lng": -76.8185939
          },
          "southwest": {
            "lat": 40.273089,
            "lng": -76.8640949
          }
        },
        "location": {
          "lat": 40.2850891,
          "lng": -76.83136110000001
        },
        "location_type": "APPROXIMATE",
        "viewport": {
          "northeast": {
            "lat": 40.305588,
            "lng": -76.8185939
          },
          "southwest": {
            "lat": 40.273089,
            "lng": -76.8640949
          }
        }
      },
      "place_id": "ChIJzaxO9lHHyIkRby8Tcdub2uY",
      "types": [
        "locality",
        "political"
      ]
    },
    {
      "address_components": [
        {
          "long_name": "17109",
          "short_name": "17109",
          "types": [
            "postal_code"
          ]
        },
        {
          "long_name": "Harrisburg",
          "short_name": "Harrisburg",
          "types": [
            "locality",
            "political"
          ]
        },
        {
          "long_name": "Dauphin County",
          "short_name": "Dauphin County",
          "types": [
            "administrative_area_level_2",
            "political"
          ]
        },
        {
          "long_name": "Pennsylvania",
          "short_name": "PA",
          "types": [
            "administrative_area_level_1",
            "political"
          ]
        },
        {
          "long_name": "United States",
          "short_name": "US",
          "types": [
            "country",
            "political"
          ]
        }
      ],
      "formatted_address": "Harrisburg, PA 17109, USA",
      "geometry": {
        "bounds": {
          "northeast": {
            "lat": 40.312863,
            "lng": -76.774382
          },
          "southwest": {
            "lat": 40.266964,
            "lng": -76.87266799999999
          }
        },
        "location": {
          "lat": 40.2884785,
          "lng": -76.8201976
        },
        "location_type": "APPROXIMATE",
        "viewport": {
          "northeast": {
            "lat": 40.312863,
            "lng": -76.774382
          },
          "southwest": {
            "lat": 40.266964,
            "lng": -76.87266799999999
          }
        }
      },
      "place_id": "ChIJ6Q1y1a64yIkR13lQJnkyjyY",
      "postcode_localities": [
        "Harrisburg",
        "Penbrook"
      ],
      "types": [
        "postal_code"
      ]
    },
    {
      "address_components": [
        {
          "long_name": "Susquehanna Township",
          "short_name": "Susquehanna Township",
          "types": [
            "administrative_area_level_3",
            "political"
          ]
        },
        {
          "long_name": "Dauphin County",
          "short_name": "Dauphin County",
          "types": [
            "administrative_area_level_2",
            "political"
          ]
        },
        {
          "long_name": "Pennsylvania",
          "short_name": "PA",
          "types": [
            "administrative_area_level_1",
            "political"
          ]
        },
        {
          "long_name": "United States",
          "short_name": "US",
          "types": [
            "country",
            "political"
          ]
        }
      ],
      "formatted_address": "Susquehanna Township, PA, USA",
      "geometry": {
        "bounds": {
          "northeast": {
            "lat": 40.3481308,
            "lng": -76.81819399999999
          },
          "southwest": {
            "lat": 40.26688900000001,
            "lng": -76.9226939
          }
        },
        "location": {
          "lat": 40.3182313,
          "lng": -76.860565
        },
        "location_type": "APPROXIMATE",
        "viewport": {
          "northeast": {
            "lat": 40.3481308,
            "lng": -76.81819399999999
          },
          "southwest": {
            "lat": 40.26688900000001,
            "lng": -76.9226939
          }
        }
      },
      "place_id": "ChIJP26ZlSnHyIkR2qDcOkDDuvE",
      "types": [
        "administrative_area_level_3",
        "political"
      ]
    },
    {
      "address_components": [
        {
          "long_name": "Dauphin County",
          "short_name": "Dauphin County",
          "types": [
            "administrative_area_level_2",
            "political"
          ]
        },
        {
          "long_name": "Pennsylvania",
          "short_name": "PA",
          "types": [
            "administrative_area_level_1",
            "political"
          ]
        },
        {
          "long_name": "United States",
          "short_name": "US",
          "types": [
            "country",
            "political"
          ]
        }
      ],
      "formatted_address": "Dauphin County, PA, USA",
      "geometry": {
        "bounds": {
          "northeast": {
            "lat": 40.65959489999999,
            "lng": -76.5354139
          },
          "southwest": {
            "lat": 40.12007,
            "lng": -77.029341
          }
        },
        "location": {
          "lat": 40.2734277,
          "lng": -76.7336521
        },
        "location_type": "APPROXIMATE",
        "viewport": {
          "northeast": {
            "lat": 40.65959489999999,
            "lng": -76.5354139
          },
          "southwest": {
            "lat": 40.12007,
            "lng": -77.029341
          }
        }
      },
      "place_id": "ChIJVdIHI9KzyIkRmZL4uXjXGU8",
      "types": [
        "administrative_area_level_2",
        "political"
      ]
    },
    {
      "address_components": [
        {
          "long_name": "Pennsylvania",
          "short_name": "PA",
          "types": [
            "administrative_area_level_1",
            "political"
          ]
        },
        {
          "long_name": "United States",
          "short_name": "US",
          "types": [
            "country",
            "political"
          ]
        }
      ],
      "formatted_address": "Pennsylvania, USA",
      "geometry": {
        "bounds": {
          "northeast": {
            "lat": 42.2693866,
            "lng": -74.6895018
          },
          "southwest": {
            "lat": 39.7197989,
            "lng": -80.51989499999999
          }
        },
        "location": {
          "lat": 41.2033216,
          "lng": -77.1945247
        },
        "location_type": "APPROXIMATE",
        "viewport": {
          "northeast": {
            "lat": 42.2693866,
            "lng": -74.6895018
          },
          "southwest": {
            "lat": 39.7197989,
            "lng": -80.51989499999999
          }
        }
      },
      "place_id": "ChIJieUyHiaALYgRPbQiUEchRsI",
      "types": [
        "administrative_area_level_1",
        "political"
      ]
    },
    {
      "address_components": [
        {
          "long_name": "United States",
          "short_name": "US",
          "types": [
            "country",
            "political"
          ]
        }
      ],
      "formatted_address": "United States",
      "geometry": {
        "bounds": {
          "northeast": {
            "lat": 71.3867745,
            "lng": -66.9502861
          },
          "southwest": {
            "lat": 18.9106768,
            "lng": 172.4458955
          }
        },
        "location": {
          "lat": 37.09024,
          "lng": -95.712891
        },
        "location_type": "APPROXIMATE",
        "viewport": {
          "northeast": {
            "lat": 49.38,
            "lng": -66.94
          },
          "southwest": {
            "lat": 25.82,
            "lng": -124.39
          }
        }
      },
      "place_id": "ChIJCzYy5IS16lQRQrfeQ5K5Oxw",
      "types": [
        "country",
        "political"
      ]
    }
  ],
  "status": "OK"
}
