{
  "results": [
    {
      "address_components": [
        {
          "long_name": "838",
          "short_name": "838",
          "types": [
            "street_number"
          ]
        },
        {
          "long_name": "Stackstown Road",
          "short_name": "Stackstown Rd",
          "types": [
            "route"
          ]
        },
        {
          "long_name": "Bainbridge",
          "short_name": "Bainbridge",
          "types": [
            "locality",
            "political"
          ]
        },
        {
          "long_name": "Conoy Township",
          "short_name": "Conoy Township",
          "types": [
            "administrative_area_level_3",
            "political"
          ]
        },
        {
          "long_name": "Lancaster County",
          "short_name": "Lancaster County",
          "types": [
            "administrative_area_level_2",
            "political"
          ]
        },
        {
          "long_name": "Pennsylvania",
          "short_name": "PA",
          "types": [
            "administrative_area_level_1",
            "political"
          ]
        },
        {
          "long_name": "United States",
          "short_name": "US",
          "types": [
            "country",
            "political"
          ]
        },
        {
          "long_name": "17502",
          "short_name": "17502",
          "types": [
            "postal_code"
          ]
        },
        {
          "long_name": "9349",
          "short_name": "9349",
          "types": [
            "postal_code_suffix"
          ]
        }
      ],
      "formatted_address": "838 Stackstown Rd, Bainbridge, PA 17502, USA",
      "geometry": {
        "location": {
          "lat": 40.092779,
          "lng": -76.657129
        },
        "location_type": "ROOFTOP",
        "viewport": {
          "northeast": {
            "lat": 40.0941279802915,
            "lng": -76.65578001970849
          },
          "southwest": {
            "lat": 40.0914300197085,
            "lng": -76.65847798029151
          }
        }
      },
      "place_id": "ChIJwQ3WbLqQyIkRUmDMoOCphL8",
      "types": [
        "street_address"
      ]
    },
    {
      "address_components": [
        {
          "long_name": "17502",
          "short_name": "17502",
          "types": [
            "postal_code"
          ]
        },
        {
          "long_name": "Bainbridge",
          "short_name": "Bainbridge",
          "types": [
            "locality",
            "political"
          ]
        },
        {
          "long_name": "Pennsylvania",
          "short_name": "PA",
          "types": [
            "administrative_area_level_1",
            "political"
          ]
        },
        {
          "long_name": "United States",
          "short_name": "US",
          "types": [
            "country",
            "political"
          ]
        }
      ],
      "formatted_address": "Bainbridge, PA 17502, USA",
      "geometry": {
        "bounds": {
          "northeast": {
            "lat": 40.141419,
            "lng": -76.60933709999999
          },
          "southwest": {
            "lat": 40.05806889999999,
            "lng": -76.72162
          }
        },
        "location": {
          "lat": 40.0930663,
          "lng": -76.6528225
        },
        "location_type": "APPROXIMATE",
        "viewport": {
          "northeast": {
            "lat": 40.141419,
            "lng": -76.60933709999999
          },
          "southwest": {
            "lat": 40.05806889999999,
            "lng": -76.72162
          }
        }
      },
      "place_id": "ChIJowmMCYuQyIkREfEi9m3_79s",
      "types": [
        "postal_code"
      ]
    },
    {
      "address_components": [
        {
          "long_name": "Conoy Township",
          "short_name": "Conoy Township",
          "types": [
            "administrative_area_level_3",
            "political"
          ]
        },
        {
          "long_name": "Lancaster County",
          "short_name": "Lancaster County",
          "types": [
            "administrative_area_level_2",
            "political"
          ]
        },
        {
          "long_name": "Pennsylvania",
          "short_name": "PA",
          "types": [
            "administrative_area_level_1",
            "political"
          ]
        },
        {
          "long_name": "United States",
          "short_name": "US",
          "types": [
            "country",
            "political"
          ]
        }
      ],
      "formatted_address": "Conoy Township, PA, USA",
      "geometry": {
        "bounds": {
          "northeast": {
            "lat": 40.157424,
            "lng": -76.60778909999999
          },
          "southwest": {
            "lat": 40.0569059,
            "lng": -76.72162
          }
        },
        "location": {
          "lat": 40.1158994,
          "lng": -76.675922
        },
        "location_type": "APPROXIMATE",
        "viewport": {
          "northeast": {
            "lat": 40.157424,
            "lng": -76.60778909999999
          },
          "southwest": {
            "lat": 40.0569059,
            "lng": -76.72162
          }
        }
      },
      "place_id": "ChIJl17WfjWXyIkRuUp-HTFn9eA",
      "types": [
        "administrative_area_level_3",
        "political"
      ]
    },
    {
      "address_components": [
        {
          "long_name": "Lancaster County",
          "short_name": "Lancaster County",
          "types": [
            "administrative_area_level_2",
            "political"
          ]
        },
        {
          "long_name": "Pennsylvania",
          "short_name": "PA",
          "types": [
            "administrative_area_level_1",
            "political"
          ]
        },
        {
          "long_name": "United States",
          "short_name": "US",
          "types": [
            "country",
            "political"
          ]
        }
      ],
      "formatted_address": "Lancaster County, PA, USA",
      "geometry": {
        "bounds": {
          "northeast": {
            "lat": 40.315695,
            "lng": -75.87377409999999
          },
          "southwest": {
            "lat": 39.7211309,
            "lng": -76.72162
          }
        },
        "location": {
          "lat": 40.0466571,
          "lng": -76.17837390000001
        },
        "location_type": "APPROXIMATE",
        "viewport": {
          "northeast": {
            "lat": 40.315695,
            "lng": -75.87377409999999
          },
          "southwest": {
            "lat": 39.7211309,
            "lng": -76.72162
          }
        }
      },
      "place_id": "ChIJnRLnFlAfxokR1p1HPfkfGoU",
      "types": [
        "administrative_area_level_2",
        "political"
      ]
    },
    {
      "address_components": [
        {
          "long_name": "Lancaster",
          "short_name": "Lancaster",
          "types": [
            "political"
          ]
        },
        {
          "long_name": "United States",
          "short_name": "US",
          "types": [
            "country",
            "political"
          ]
        }
      ],
      "formatted_address": "Lancaster, USA",
      "geometry": {
        "bounds": {
          "northeast": {
            "lat": 40.315695,
            "lng": -75.87361899999999
          },
          "southwest": {
            "lat": 39.721305,
            "lng": -76.721546
          }
        },
        "location": {
          "lat": 40.0466571,
          "lng": -76.17837390000001
        },
        "location_type": "APPROXIMATE",
        "viewport": {
          "northeast": {
            "lat": 40.315695,
            "lng": -75.87361899999999
          },
          "southwest": {
            "lat": 39.721305,
            "lng": -76.721546
          }
        }
      },
      "place_id": "ChIJSdRo1Gk7xokRilqaar4DLEM",
      "types": [
        "political"
      ]
    },
    {
      "address_components": [
        {
          "long_name": "Pennsylvania",
          "short_name": "PA",
          "types": [
            "administrative_area_level_1",
            "political"
          ]
        },
        {
          "long_name": "United States",
          "short_name": "US",
          "types": [
            "country",
            "political"
          ]
        }
      ],
      "formatted_address": "Pennsylvania, USA",
      "geometry": {
        "bounds": {
          "northeast": {
            "lat": 42.2693866,
            "lng": -74.6895018
          },
          "southwest": {
            "lat": 39.7197989,
            "lng": -80.51989499999999
          }
        },
        "location": {
          "lat": 41.2033216,
          "lng": -77.1945247
        },
        "location_type": "APPROXIMATE",
        "viewport": {
          "northeast": {
            "lat": 42.2693866,
            "lng": -74.6895018
          },
          "southwest": {
            "lat": 39.7197989,
            "lng": -80.51989499999999
          }
        }
      },
      "place_id": "ChIJieUyHiaALYgRPbQiUEchRsI",
      "types": [
        "administrative_area_level_1",
        "political"
      ]
    },
    {
      "address_components": [
        {
          "long_name": "United States",
          "short_name": "US",
          "types": [
            "country",
            "political"
          ]
        }
      ],
      "formatted_address": "United States",
      "geometry": {
        "bounds": {
          "northeast": {
            "lat": 71.3867745,
            "lng": -66.9502861
          },
          "southwest": {
            "lat": 18.9106768,
            "lng": 172.4458955
          }
        },
        "location": {
          "lat": 37.09024,
          "lng": -95.712891
        },
        "location_type": "APPROXIMATE",
        "viewport": {
          "northeast": {
            "lat": 49.38,
            "lng": -66.94
          },
          "southwest": {
            "lat": 25.82,
            "lng": -124.39
          }
        }
      },
      "place_id": "ChIJCzYy5IS16lQRQrfeQ5K5Oxw",
      "types": [
        "country",
        "political"
      ]
    }
  ],
  "status": "OK"
}
