{
  "results": [
    {
      "address_components": [
        {
          "long_name": "5933",
          "short_name": "5933",
          "types": [
            "street_number"
          ]
        },
        {
          "long_name": "Shady Lane",
          "short_name": "Shady Ln",
          "types": [
            "route"
          ]
        },
        {
          "long_name": "Nazareth",
          "short_name": "Nazareth",
          "types": [
            "locality",
            "political"
          ]
        },
        {
          "long_name": "Plainfield Township",
          "short_name": "Plainfield Township",
          "types": [
            "administrative_area_level_3",
            "political"
          ]
        },
        {
          "long_name": "Northampton County",
          "short_name": "Northampton County",
          "types": [
            "administrative_area_level_2",
            "political"
          ]
        },
        {
          "long_name": "Pennsylvania",
          "short_name": "PA",
          "types": [
            "administrative_area_level_1",
            "political"
          ]
        },
        {
          "long_name": "United States",
          "short_name": "US",
          "types": [
            "country",
            "political"
          ]
        },
        {
          "long_name": "18064",
          "short_name": "18064",
          "types": [
            "postal_code"
          ]
        },
        {
          "long_name": "8643",
          "short_name": "8643",
          "types": [
            "postal_code_suffix"
          ]
        }
      ],
      "formatted_address": "5933 Shady Ln, Nazareth, PA 18064, USA",
      "geometry": {
        "location": {
          "lat": 40.783858,
          "lng": -75.275745
        },
        "location_type": "ROOFTOP",
        "viewport": {
          "northeast": {
            "lat": 40.7852069802915,
            "lng": -75.2743960197085
          },
          "southwest": {
            "lat": 40.7825090197085,
            "lng": -75.27709398029151
          }
        }
      },
      "place_id": "ChIJU928wehoxIkRM61wa2Nz1Kg",
      "types": [
        "street_address"
      ]
    },
    {
      "address_components": [
        {
          "long_name": "Belfast",
          "short_name": "Belfast",
          "types": [
            "locality",
            "political"
          ]
        },
        {
          "long_name": "Plainfield Township",
          "short_name": "Plainfield Township",
          "types": [
            "administrative_area_level_3",
            "political"
          ]
        },
        {
          "long_name": "Northampton County",
          "short_name": "Northampton County",
          "types": [
            "administrative_area_level_2",
            "political"
          ]
        },
        {
          "long_name": "Pennsylvania",
          "short_name": "PA",
          "types": [
            "administrative_area_level_1",
            "political"
          ]
        },
        {
          "long_name": "United States",
          "short_name": "US",
          "types": [
            "country",
            "political"
          ]
        }
      ],
      "formatted_address": "Belfast, PA, USA",
      "geometry": {
        "bounds": {
          "northeast": {
            "lat": 40.7952429,
            "lng": -75.2660499
          },
          "southwest": {
            "lat": 40.767468,
            "lng": -75.28697690000001
          }
        },
        "location": {
          "lat": 40.7806523,
          "lng": -75.27795689999999
        },
        "location_type": "APPROXIMATE",
        "viewport": {
          "northeast": {
            "lat": 40.7952429,
            "lng": -75.2660499
          },
          "southwest": {
            "lat": 40.767468,
            "lng": -75.28697690000001
          }
        }
      },
      "place_id": "ChIJOW51cehoxIkRiIHzOGVRuAc",
      "types": [
        "locality",
        "political"
      ]
    },
    {
      "address_components": [
        {
          "long_name": "Plainfield Township",
          "short_name": "Plainfield Township",
          "types": [
            "administrative_area_level_3",
            "political"
          ]
        },
        {
          "long_name": "Northampton County",
          "short_name": "Northampton County",
          "types": [
            "administrative_area_level_2",
            "political"
          ]
        },
        {
          "long_name": "Pennsylvania",
          "short_name": "PA",
          "types": [
            "administrative_area_level_1",
            "political"
          ]
        },
        {
          "long_name": "United States",
          "short_name": "US",
          "types": [
            "country",
            "political"
          ]
        }
      ],
      "formatted_address": "Plainfield Township, PA, USA",
      "geometry": {
        "bounds": {
          "northeast": {
            "lat": 40.89511390000001,
            "lng": -75.2198338
          },
          "southwest": {
            "lat": 40.758016,
            "lng": -75.3152089
          }
        },
        "location": {
          "lat": 40.8199384,
          "lng": -75.2595731
        },
        "location_type": "APPROXIMATE",
        "viewport": {
          "northeast": {
            "lat": 40.89511390000001,
            "lng": -75.2198338
          },
          "southwest": {
            "lat": 40.758016,
            "lng": -75.3152089
          }
        }
      },
      "place_id": "ChIJFae2OhRmxIkR0rWcimQMZiE",
      "types": [
        "administrative_area_level_3",
        "political"
      ]
    },
    {
      "address_components": [
        {
          "long_name": "18064",
          "short_name": "18064",
          "types": [
            "postal_code"
          ]
        },
        {
          "long_name": "Nazareth",
          "short_name": "Nazareth",
          "types": [
            "locality",
            "political"
          ]
        },
        {
          "long_name": "Northampton County",
          "short_name": "Northampton County",
          "types": [
            "administrative_area_level_2",
            "political"
          ]
        },
        {
          "long_name": "Pennsylvania",
          "short_name": "PA",
          "types": [
            "administrative_area_level_1",
            "political"
          ]
        },
        {
          "long_name": "United States",
          "short_name": "US",
          "types": [
            "country",
            "political"
          ]
        }
      ],
      "formatted_address": "Nazareth, PA 18064, USA",
      "geometry": {
        "bounds": {
          "northeast": {
            "lat": 40.8243419,
            "lng": -75.2198769
          },
          "southwest": {
            "lat": 40.68689699999999,
            "lng": -75.3949179
          }
        },
        "location": {
          "lat": 40.7581175,
          "lng": -75.3178952
        },
        "location_type": "APPROXIMATE",
        "viewport": {
          "northeast": {
            "lat": 40.8243419,
            "lng": -75.2198769
          },
          "southwest": {
            "lat": 40.68689699999999,
            "lng": -75.3949179
          }
        }
      },
      "place_id": "ChIJ_836V5VpxIkRT-KKOfO1ItM",
      "types": [
        "postal_code"
      ]
    },
    {
      "address_components": [
        {
          "long_name": "Northampton County",
          "short_name": "Northampton County",
          "types": [
            "administrative_area_level_2",
            "political"
          ]
        },
        {
          "long_name": "Pennsylvania",
          "short_name": "PA",
          "types": [
            "administrative_area_level_1",
            "political"
          ]
        },
        {
          "long_name": "United States",
          "short_name": "US",
          "types": [
            "country",
            "political"
          ]
        }
      ],
      "formatted_address": "Northampton County, PA, USA",
      "geometry": {
        "bounds": {
          "northeast": {
            "lat": 40.9679173,
            "lng": -75.050839
          },
          "southwest": {
            "lat": 40.53680000000001,
            "lng": -75.6089848
          }
        },
        "location": {
          "lat": 40.7749283,
          "lng": -75.294569
        },
        "location_type": "APPROXIMATE",
        "viewport": {
          "northeast": {
            "lat": 40.9679173,
            "lng": -75.050839
          },
          "southwest": {
            "lat": 40.53680000000001,
            "lng": -75.6089848
          }
        }
      },
      "place_id": "ChIJexs0vPAWxIkRlPV5q6zFZ1o",
      "types": [
        "administrative_area_level_2",
        "political"
      ]
    },
    {
      "address_components": [
        {
          "long_name": "Αλεντάουν",
          "short_name": "Αλεντάουν",
          "types": [
            "political"
          ]
        },
        {
          "long_name": "United States",
          "short_name": "US",
          "types": [
            "country",
            "political"
          ]
        }
      ],
      "formatted_address": "Αλεντάουν, USA",
      "geometry": {
        "bounds": {
          "northeast": {
            "lat": 41.1339881,
            "lng": -74.7679091
          },
          "southwest": {
            "lat": 40.4184509,
            "lng": -75.9973481
          }
        },
        "location": {
          "lat": 40.7291847,
          "lng": -75.2479061
        },
        "location_type": "APPROXIMATE",
        "viewport": {
          "northeast": {
            "lat": 41.1339881,
            "lng": -74.7679091
          },
          "southwest": {
            "lat": 40.4184509,
            "lng": -75.9973481
          }
        }
      },
      "place_id": "ChIJe-aP3QlDxIkRkcI8h_6NgQ8",
      "types": [
        "political"
      ]
    },
    {
      "address_components": [
        {
          "long_name": "Pennsylvania",
          "short_name": "PA",
          "types": [
            "administrative_area_level_1",
            "political"
          ]
        },
        {
          "long_name": "United States",
          "short_name": "US",
          "types": [
            "country",
            "political"
          ]
        }
      ],
      "formatted_address": "Pennsylvania, USA",
      "geometry": {
        "bounds": {
          "northeast": {
            "lat": 42.2693866,
            "lng": -74.6895018
          },
          "southwest": {
            "lat": 39.7197989,
            "lng": -80.51989499999999
          }
        },
        "location": {
          "lat": 41.2033216,
          "lng": -77.1945247
        },
        "location_type": "APPROXIMATE",
        "viewport": {
          "northeast": {
            "lat": 42.2693866,
            "lng": -74.6895018
          },
          "southwest": {
            "lat": 39.7197989,
            "lng": -80.51989499999999
          }
        }
      },
      "place_id": "ChIJieUyHiaALYgRPbQiUEchRsI",
      "types": [
        "administrative_area_level_1",
        "political"
      ]
    },
    {
      "address_components": [
        {
          "long_name": "United States",
          "short_name": "US",
          "types": [
            "country",
            "political"
          ]
        }
      ],
      "formatted_address": "United States",
      "geometry": {
        "bounds": {
          "northeast": {
            "lat": 71.3867745,
            "lng": -66.9502861
          },
          "southwest": {
            "lat": 18.9106768,
            "lng": 172.4458955
          }
        },
        "location": {
          "lat": 37.09024,
          "lng": -95.712891
        },
        "location_type": "APPROXIMATE",
        "viewport": {
          "northeast": {
            "lat": 49.38,
            "lng": -66.94
          },
          "southwest": {
            "lat": 25.82,
            "lng": -124.39
          }
        }
      },
      "place_id": "ChIJCzYy5IS16lQRQrfeQ5K5Oxw",
      "types": [
        "country",
        "political"
      ]
    }
  ],
  "status": "OK"
}
