{
  "results": [
    {
      "address_components": [
        {
          "long_name": "620",
          "short_name": "620",
          "types": [
            "street_number"
          ]
        },
        {
          "long_name": "Hill Street",
          "short_name": "Hill St",
          "types": [
            "route"
          ]
        },
        {
          "long_name": "Standard City",
          "short_name": "Standard City",
          "types": [
            "locality",
            "political"
          ]
        },
        {
          "long_name": "Nilwood Township",
          "short_name": "Nilwood Township",
          "types": [
            "administrative_area_level_3",
            "political"
          ]
        },
        {
          "long_name": "Macoupin County",
          "short_name": "Macoupin County",
          "types": [
            "administrative_area_level_2",
            "political"
          ]
        },
        {
          "long_name": "Illinois",
          "short_name": "IL",
          "types": [
            "administrative_area_level_1",
            "political"
          ]
        },
        {
          "long_name": "United States",
          "short_name": "US",
          "types": [
            "country",
            "political"
          ]
        },
        {
          "long_name": "62640",
          "short_name": "62640",
          "types": [
            "postal_code"
          ]
        }
      ],
      "formatted_address": "620 Hill St, Standard City, IL 62640, USA",
      "geometry": {
        "location": {
          "lat": 39.3481432,
          "lng": -89.7848949
        },
        "location_type": "ROOFTOP",
        "viewport": {
          "northeast": {
            "lat": 39.34949218029149,
            "lng": -89.78354591970849
          },
          "southwest": {
            "lat": 39.3467942197085,
            "lng": -89.7862438802915
          }
        }
      },
      "place_id": "ChIJebOA2HF2dYgR1XVMWc4SE04",
      "types": [
        "street_address"
      ]
    },
    {
      "address_components": [
        {
          "long_name": "Standard City",
          "short_name": "Standard City",
          "types": [
            "locality",
            "political"
          ]
        },
        {
          "long_name": "Nilwood Township",
          "short_name": "Nilwood Township",
          "types": [
            "administrative_area_level_3",
            "political"
          ]
        },
        {
          "long_name": "Macoupin County",
          "short_name": "Macoupin County",
          "types": [
            "administrative_area_level_2",
            "political"
          ]
        },
        {
          "long_name": "Illinois",
          "short_name": "IL",
          "types": [
            "administrative_area_level_1",
            "political"
          ]
        },
        {
          "long_name": "United States",
          "short_name": "US",
          "types": [
            "country",
            "political"
          ]
        }
      ],
      "formatted_address": "Standard City, IL, USA",
      "geometry": {
        "bounds": {
          "northeast": {
            "lat": 39.3551221,
            "lng": -89.77428789999999
          },
          "southwest": {
            "lat": 39.34317,
            "lng": -89.7932639
          }
        },
        "location": {
          "lat": 39.3522723,
          "lng": -89.7875959
        },
        "location_type": "APPROXIMATE",
        "viewport": {
          "northeast": {
            "lat": 39.3551221,
            "lng": -89.77428789999999
          },
          "southwest": {
            "lat": 39.34317,
            "lng": -89.7932639
          }
        }
      },
      "place_id": "ChIJ-1MXFXB2dYgRtFpwyY90zx4",
      "types": [
        "locality",
        "political"
      ]
    },
    {
      "address_components": [
        {
          "long_name": "Nilwood Township",
          "short_name": "Nilwood Township",
          "types": [
            "administrative_area_level_3",
            "political"
          ]
        },
        {
          "long_name": "Macoupin County",
          "short_name": "Macoupin County",
          "types": [
            "administrative_area_level_2",
            "political"
          ]
        },
        {
          "long_name": "Illinois",
          "short_name": "IL",
          "types": [
            "administrative_area_level_1",
            "political"
          ]
        },
        {
          "long_name": "United States",
          "short_name": "US",
          "types": [
            "country",
            "political"
          ]
        }
      ],
      "formatted_address": "Nilwood Township, IL, USA",
      "geometry": {
        "bounds": {
          "northeast": {
            "lat": 39.435828,
            "lng": -89.6990939
          },
          "southwest": {
            "lat": 39.347663,
            "lng": -89.812624
          }
        },
        "location": {
          "lat": 39.3826039,
          "lng": -89.7567693
        },
        "location_type": "APPROXIMATE",
        "viewport": {
          "northeast": {
            "lat": 39.435828,
            "lng": -89.6990939
          },
          "southwest": {
            "lat": 39.347663,
            "lng": -89.812624
          }
        }
      },
      "place_id": "ChIJTcRIP210dYgR1B9xWZf7Rt8",
      "types": [
        "administrative_area_level_3",
        "political"
      ]
    },
    {
      "address_components": [
        {
          "long_name": "62640",
          "short_name": "62640",
          "types": [
            "postal_code"
          ]
        },
        {
          "long_name": "Girard",
          "short_name": "Girard",
          "types": [
            "locality",
            "political"
          ]
        },
        {
          "long_name": "Illinois",
          "short_name": "IL",
          "types": [
            "administrative_area_level_1",
            "political"
          ]
        },
        {
          "long_name": "United States",
          "short_name": "US",
          "types": [
            "country",
            "political"
          ]
        }
      ],
      "formatted_address": "Girard, IL 62640, USA",
      "geometry": {
        "bounds": {
          "northeast": {
            "lat": 39.5015389,
            "lng": -89.681669
          },
          "southwest": {
            "lat": 39.338074,
            "lng": -89.925704
          }
        },
        "location": {
          "lat": 39.42419020000001,
          "lng": -89.83177289999999
        },
        "location_type": "APPROXIMATE",
        "viewport": {
          "northeast": {
            "lat": 39.5015389,
            "lng": -89.681669
          },
          "southwest": {
            "lat": 39.338074,
            "lng": -89.925704
          }
        }
      },
      "place_id": "ChIJrV-25eFwdYgRGU0vSuKimDM",
      "postcode_localities": [
        "Girard",
        "McVey",
        "Standard City"
      ],
      "types": [
        "postal_code"
      ]
    },
    {
      "address_components": [
        {
          "long_name": "Macoupin County",
          "short_name": "Macoupin County",
          "types": [
            "administrative_area_level_2",
            "political"
          ]
        },
        {
          "long_name": "Illinois",
          "short_name": "IL",
          "types": [
            "administrative_area_level_1",
            "political"
          ]
        },
        {
          "long_name": "United States",
          "short_name": "US",
          "types": [
            "country",
            "political"
          ]
        }
      ],
      "formatted_address": "Macoupin County, IL, USA",
      "geometry": {
        "bounds": {
          "northeast": {
            "lat": 39.5233688,
            "lng": -89.6983829
          },
          "southwest": {
            "lat": 38.998349,
            "lng": -90.1537499
          }
        },
        "location": {
          "lat": 39.2375268,
          "lng": -89.9253233
        },
        "location_type": "APPROXIMATE",
        "viewport": {
          "northeast": {
            "lat": 39.5233688,
            "lng": -89.6983829
          },
          "southwest": {
            "lat": 38.998349,
            "lng": -90.1537499
          }
        }
      },
      "place_id": "ChIJL1_AUVCDdYgRcdRWuts_TzI",
      "types": [
        "administrative_area_level_2",
        "political"
      ]
    },
    {
      "address_components": [
        {
          "long_name": "St. Louis",
          "short_name": "St. Louis",
          "types": [
            "political"
          ]
        },
        {
          "long_name": "United States",
          "short_name": "US",
          "types": [
            "country",
            "political"
          ]
        }
      ],
      "formatted_address": "St. Louis, USA",
      "geometry": {
        "bounds": {
          "northeast": {
            "lat": 39.5233661,
            "lng": -89.138356
          },
          "southwest": {
            "lat": 37.7341961,
            "lng": -91.4186371
          }
        },
        "location": {
          "lat": 38.8196814,
          "lng": -90.4502368
        },
        "location_type": "APPROXIMATE",
        "viewport": {
          "northeast": {
            "lat": 39.5233661,
            "lng": -89.138356
          },
          "southwest": {
            "lat": 37.7341961,
            "lng": -91.4186371
          }
        }
      },
      "place_id": "ChIJneBzzj4z34cRFGg2ez6q57o",
      "types": [
        "political"
      ]
    },
    {
      "address_components": [
        {
          "long_name": "Illinois",
          "short_name": "IL",
          "types": [
            "administrative_area_level_1",
            "political"
          ]
        },
        {
          "long_name": "United States",
          "short_name": "US",
          "types": [
            "country",
            "political"
          ]
        }
      ],
      "formatted_address": "Illinois, USA",
      "geometry": {
        "bounds": {
          "northeast": {
            "lat": 42.5083379,
            "lng": -87.4951991
          },
          "southwest": {
            "lat": 36.970298,
            "lng": -91.5130789
          }
        },
        "location": {
          "lat": 40.6331249,
          "lng": -89.3985283
        },
        "location_type": "APPROXIMATE",
        "viewport": {
          "northeast": {
            "lat": 42.5083379,
            "lng": -87.4951991
          },
          "southwest": {
            "lat": 36.970298,
            "lng": -91.5130789
          }
        }
      },
      "place_id": "ChIJGSZubzgtC4gRVlkRZFCCFX8",
      "types": [
        "administrative_area_level_1",
        "political"
      ]
    },
    {
      "address_components": [
        {
          "long_name": "United States",
          "short_name": "US",
          "types": [
            "country",
            "political"
          ]
        }
      ],
      "formatted_address": "United States",
      "geometry": {
        "bounds": {
          "northeast": {
            "lat": 71.3867745,
            "lng": -66.9502861
          },
          "southwest": {
            "lat": 18.9106768,
            "lng": 172.4458955
          }
        },
        "location": {
          "lat": 37.09024,
          "lng": -95.712891
        },
        "location_type": "APPROXIMATE",
        "viewport": {
          "northeast": {
            "lat": 49.38,
            "lng": -66.94
          },
          "southwest": {
            "lat": 25.82,
            "lng": -124.39
          }
        }
      },
      "place_id": "ChIJCzYy5IS16lQRQrfeQ5K5Oxw",
      "types": [
        "country",
        "political"
      ]
    }
  ],
  "status": "OK"
}
