{
  "results": [
    {
      "address_components": [
        {
          "long_name": "720",
          "short_name": "720",
          "types": [
            "street_number"
          ]
        },
        {
          "long_name": "Brink Street",
          "short_name": "Brink St",
          "types": [
            "route"
          ]
        },
        {
          "long_name": "Woodstock",
          "short_name": "Woodstock",
          "types": [
            "locality",
            "political"
          ]
        },
        {
          "long_name": "Dorr Township",
          "short_name": "Dorr Township",
          "types": [
            "administrative_area_level_3",
            "political"
          ]
        },
        {
          "long_name": "McHenry County",
          "short_name": "McHenry County",
          "types": [
            "administrative_area_level_2",
            "political"
          ]
        },
        {
          "long_name": "Illinois",
          "short_name": "IL",
          "types": [
            "administrative_area_level_1",
            "political"
          ]
        },
        {
          "long_name": "United States",
          "short_name": "US",
          "types": [
            "country",
            "political"
          ]
        },
        {
          "long_name": "60098",
          "short_name": "60098",
          "types": [
            "postal_code"
          ]
        },
        {
          "long_name": "4224",
          "short_name": "4224",
          "types": [
            "postal_code_suffix"
          ]
        }
      ],
      "formatted_address": "720 Brink St, Woodstock, IL 60098, USA",
      "geometry": {
        "location": {
          "lat": 42.310366,
          "lng": -88.4358479
        },
        "location_type": "ROOFTOP",
        "viewport": {
          "northeast": {
            "lat": 42.31171498029151,
            "lng": -88.4344989197085
          },
          "southwest": {
            "lat": 42.30901701970851,
            "lng": -88.43719688029151
          }
        }
      },
      "place_id": "ChIJE50dXHlpD4gR2kzlSuY1TAM",
      "types": [
        "street_address"
      ]
    },
    {
      "address_components": [
        {
          "long_name": "Woodstock",
          "short_name": "Woodstock",
          "types": [
            "locality",
            "political"
          ]
        },
        {
          "long_name": "Dorr Township",
          "short_name": "Dorr Township",
          "types": [
            "administrative_area_level_3",
            "political"
          ]
        },
        {
          "long_name": "McHenry County",
          "short_name": "McHenry County",
          "types": [
            "administrative_area_level_2",
            "political"
          ]
        },
        {
          "long_name": "Illinois",
          "short_name": "IL",
          "types": [
            "administrative_area_level_1",
            "political"
          ]
        },
        {
          "long_name": "United States",
          "short_name": "US",
          "types": [
            "country",
            "political"
          ]
        },
        {
          "long_name": "60098",
          "short_name": "60098",
          "types": [
            "postal_code"
          ]
        }
      ],
      "formatted_address": "Woodstock, IL 60098, USA",
      "geometry": {
        "bounds": {
          "northeast": {
            "lat": 42.358173,
            "lng": -88.385004
          },
          "southwest": {
            "lat": 42.26975789999999,
            "lng": -88.4915931
          }
        },
        "location": {
          "lat": 42.3147436,
          "lng": -88.44870209999999
        },
        "location_type": "APPROXIMATE",
        "viewport": {
          "northeast": {
            "lat": 42.358173,
            "lng": -88.385004
          },
          "southwest": {
            "lat": 42.26975789999999,
            "lng": -88.4915931
          }
        }
      },
      "place_id": "ChIJo_N8P9lDD4gRmDzUPTfooiM",
      "types": [
        "locality",
        "political"
      ]
    },
    {
      "address_components": [
        {
          "long_name": "Dorr Township",
          "short_name": "Dorr Township",
          "types": [
            "administrative_area_level_3",
            "political"
          ]
        },
        {
          "long_name": "McHenry County",
          "short_name": "McHenry County",
          "types": [
            "administrative_area_level_2",
            "political"
          ]
        },
        {
          "long_name": "Illinois",
          "short_name": "IL",
          "types": [
            "administrative_area_level_1",
            "political"
          ]
        },
        {
          "long_name": "United States",
          "short_name": "US",
          "types": [
            "country",
            "political"
          ]
        }
      ],
      "formatted_address": "Dorr Township, IL, USA",
      "geometry": {
        "bounds": {
          "northeast": {
            "lat": 42.3287211,
            "lng": -88.354986
          },
          "southwest": {
            "lat": 42.2402079,
            "lng": -88.47219109999999
          }
        },
        "location": {
          "lat": 42.2845649,
          "lng": -88.4210006
        },
        "location_type": "APPROXIMATE",
        "viewport": {
          "northeast": {
            "lat": 42.3287214,
            "lng": -88.354986
          },
          "southwest": {
            "lat": 42.2402079,
            "lng": -88.47219109999999
          }
        }
      },
      "place_id": "ChIJB6z0OvJrD4gRRaTt21q9TiM",
      "types": [
        "administrative_area_level_3",
        "political"
      ]
    },
    {
      "address_components": [
        {
          "long_name": "60098",
          "short_name": "60098",
          "types": [
            "postal_code"
          ]
        },
        {
          "long_name": "Woodstock",
          "short_name": "Woodstock",
          "types": [
            "locality",
            "political"
          ]
        },
        {
          "long_name": "McHenry County",
          "short_name": "McHenry County",
          "types": [
            "administrative_area_level_2",
            "political"
          ]
        },
        {
          "long_name": "Illinois",
          "short_name": "IL",
          "types": [
            "administrative_area_level_1",
            "political"
          ]
        },
        {
          "long_name": "United States",
          "short_name": "US",
          "types": [
            "country",
            "political"
          ]
        }
      ],
      "formatted_address": "Woodstock, IL 60098, USA",
      "geometry": {
        "bounds": {
          "northeast": {
            "lat": 42.429164,
            "lng": -88.345466
          },
          "southwest": {
            "lat": 42.2284219,
            "lng": -88.5889169
          }
        },
        "location": {
          "lat": 42.3439139,
          "lng": -88.4403883
        },
        "location_type": "APPROXIMATE",
        "viewport": {
          "northeast": {
            "lat": 42.429164,
            "lng": -88.345466
          },
          "southwest": {
            "lat": 42.2284219,
            "lng": -88.5889169
          }
        }
      },
      "place_id": "ChIJTQXdAL5pD4gRNhoRnyzluJw",
      "postcode_localities": [
        "Bull Valley",
        "Woodstock"
      ],
      "types": [
        "postal_code"
      ]
    },
    {
      "address_components": [
        {
          "long_name": "McHenry County",
          "short_name": "McHenry County",
          "types": [
            "administrative_area_level_2",
            "political"
          ]
        },
        {
          "long_name": "Illinois",
          "short_name": "IL",
          "types": [
            "administrative_area_level_1",
            "political"
          ]
        },
        {
          "long_name": "United States",
          "short_name": "US",
          "types": [
            "country",
            "political"
          ]
        }
      ],
      "formatted_address": "McHenry County, IL, USA",
      "geometry": {
        "bounds": {
          "northeast": {
            "lat": 42.495967,
            "lng": -88.1984289
          },
          "southwest": {
            "lat": 42.15341,
            "lng": -88.7073779
          }
        },
        "location": {
          "lat": 42.3039993,
          "lng": -88.4016041
        },
        "location_type": "APPROXIMATE",
        "viewport": {
          "northeast": {
            "lat": 42.495967,
            "lng": -88.1984289
          },
          "southwest": {
            "lat": 42.15341,
            "lng": -88.7073779
          }
        }
      },
      "place_id": "ChIJx34ElHw-D4gRBCCaMuI0H2o",
      "types": [
        "administrative_area_level_2",
        "political"
      ]
    },
    {
      "address_components": [
        {
          "long_name": "Chicago Metropolitan Area",
          "short_name": "Chicago Metropolitan Area",
          "types": [
            "political"
          ]
        },
        {
          "long_name": "United States",
          "short_name": "US",
          "types": [
            "country",
            "political"
          ]
        }
      ],
      "formatted_address": "Chicago Metropolitan Area, USA",
      "geometry": {
        "bounds": {
          "northeast": {
            "lat": 42.670123,
            "lng": -86.92925699999999
          },
          "southwest": {
            "lat": 40.7364641,
            "lng": -88.942292
          }
        },
        "location": {
          "lat": 41.7435073,
          "lng": -88.0118473
        },
        "location_type": "APPROXIMATE",
        "viewport": {
          "northeast": {
            "lat": 42.670123,
            "lng": -86.92925699999999
          },
          "southwest": {
            "lat": 40.7364641,
            "lng": -88.942292
          }
        }
      },
      "place_id": "ChIJg-CZjExEDogRNJNXmgqEe9o",
      "types": [
        "political"
      ]
    },
    {
      "address_components": [
        {
          "long_name": "Illinois",
          "short_name": "IL",
          "types": [
            "administrative_area_level_1",
            "political"
          ]
        },
        {
          "long_name": "United States",
          "short_name": "US",
          "types": [
            "country",
            "political"
          ]
        }
      ],
      "formatted_address": "Illinois, USA",
      "geometry": {
        "bounds": {
          "northeast": {
            "lat": 42.5083379,
            "lng": -87.4951991
          },
          "southwest": {
            "lat": 36.970298,
            "lng": -91.5130789
          }
        },
        "location": {
          "lat": 40.6331249,
          "lng": -89.3985283
        },
        "location_type": "APPROXIMATE",
        "viewport": {
          "northeast": {
            "lat": 42.5083379,
            "lng": -87.4951991
          },
          "southwest": {
            "lat": 36.970298,
            "lng": -91.5130789
          }
        }
      },
      "place_id": "ChIJGSZubzgtC4gRVlkRZFCCFX8",
      "types": [
        "administrative_area_level_1",
        "political"
      ]
    },
    {
      "address_components": [
        {
          "long_name": "United States",
          "short_name": "US",
          "types": [
            "country",
            "political"
          ]
        }
      ],
      "formatted_address": "United States",
      "geometry": {
        "bounds": {
          "northeast": {
            "lat": 71.3867745,
            "lng": -66.9502861
          },
          "southwest": {
            "lat": 18.9106768,
            "lng": 172.4458955
          }
        },
        "location": {
          "lat": 37.09024,
          "lng": -95.712891
        },
        "location_type": "APPROXIMATE",
        "viewport": {
          "northeast": {
            "lat": 49.38,
            "lng": -66.94
          },
          "southwest": {
            "lat": 25.82,
            "lng": -124.39
          }
        }
      },
      "place_id": "ChIJCzYy5IS16lQRQrfeQ5K5Oxw",
      "types": [
        "country",
        "political"
      ]
    }
  ],
  "status": "OK"
}
