{
  "results": [
    {
      "address_components": [
        {
          "long_name": "104",
          "short_name": "104",
          "types": [
            "street_number"
          ]
        },
        {
          "long_name": "South Washington Street",
          "short_name": "S Washington St",
          "types": [
            "route"
          ]
        },
        {
          "long_name": "Joy",
          "short_name": "Joy",
          "types": [
            "locality",
            "political"
          ]
        },
        {
          "long_name": "Millersburg Township",
          "short_name": "Millersburg Township",
          "types": [
            "administrative_area_level_3",
            "political"
          ]
        },
        {
          "long_name": "Mercer County",
          "short_name": "Mercer County",
          "types": [
            "administrative_area_level_2",
            "political"
          ]
        },
        {
          "long_name": "Illinois",
          "short_name": "IL",
          "types": [
            "administrative_area_level_1",
            "political"
          ]
        },
        {
          "long_name": "United States",
          "short_name": "US",
          "types": [
            "country",
            "political"
          ]
        },
        {
          "long_name": "61260",
          "short_name": "61260",
          "types": [
            "postal_code"
          ]
        }
      ],
      "formatted_address": "104 S Washington St, Joy, IL 61260, USA",
      "geometry": {
        "location": {
          "lat": 41.1969964,
          "lng": -90.8785216
        },
        "location_type": "ROOFTOP",
        "viewport": {
          "northeast": {
            "lat": 41.1983453802915,
            "lng": -90.87717261970849
          },
          "southwest": {
            "lat": 41.1956474197085,
            "lng": -90.87987058029151
          }
        }
      },
      "place_id": "ChIJhUZ_yzJn4YcRUPRTh-gtA1M",
      "types": [
        "street_address"
      ]
    },
    {
      "address_components": [
        {
          "long_name": "Joy",
          "short_name": "Joy",
          "types": [
            "locality",
            "political"
          ]
        },
        {
          "long_name": "Millersburg Township",
          "short_name": "Millersburg Township",
          "types": [
            "administrative_area_level_3",
            "political"
          ]
        },
        {
          "long_name": "Mercer County",
          "short_name": "Mercer County",
          "types": [
            "administrative_area_level_2",
            "political"
          ]
        },
        {
          "long_name": "Illinois",
          "short_name": "IL",
          "types": [
            "administrative_area_level_1",
            "political"
          ]
        },
        {
          "long_name": "United States",
          "short_name": "US",
          "types": [
            "country",
            "political"
          ]
        },
        {
          "long_name": "61260",
          "short_name": "61260",
          "types": [
            "postal_code"
          ]
        }
      ],
      "formatted_address": "Joy, IL 61260, USA",
      "geometry": {
        "bounds": {
          "northeast": {
            "lat": 41.2015,
            "lng": -90.8720209
          },
          "southwest": {
            "lat": 41.19205789999999,
            "lng": -90.8855799
          }
        },
        "location": {
          "lat": 41.1967002,
          "lng": -90.8804201
        },
        "location_type": "APPROXIMATE",
        "viewport": {
          "northeast": {
            "lat": 41.2015,
            "lng": -90.8720209
          },
          "southwest": {
            "lat": 41.19205789999999,
            "lng": -90.8855799
          }
        }
      },
      "place_id": "ChIJVZYQzjJn4YcRkaXAD3xx8-k",
      "types": [
        "locality",
        "political"
      ]
    },
    {
      "address_components": [
        {
          "long_name": "Millersburg Township",
          "short_name": "Millersburg Township",
          "types": [
            "administrative_area_level_3",
            "political"
          ]
        },
        {
          "long_name": "Mercer County",
          "short_name": "Mercer County",
          "types": [
            "administrative_area_level_2",
            "political"
          ]
        },
        {
          "long_name": "Illinois",
          "short_name": "IL",
          "types": [
            "administrative_area_level_1",
            "political"
          ]
        },
        {
          "long_name": "United States",
          "short_name": "US",
          "types": [
            "country",
            "political"
          ]
        }
      ],
      "formatted_address": "Millersburg Township, IL, USA",
      "geometry": {
        "bounds": {
          "northeast": {
            "lat": 41.244203,
            "lng": -90.779581
          },
          "southwest": {
            "lat": 41.1564909,
            "lng": -90.89925190000001
          }
        },
        "location": {
          "lat": 41.2174773,
          "lng": -90.8484524
        },
        "location_type": "APPROXIMATE",
        "viewport": {
          "northeast": {
            "lat": 41.244203,
            "lng": -90.779581
          },
          "southwest": {
            "lat": 41.1564909,
            "lng": -90.89925190000001
          }
        }
      },
      "place_id": "ChIJDQSxhU1h4YcRmE8DDBxn7z8",
      "types": [
        "administrative_area_level_3",
        "political"
      ]
    },
    {
      "address_components": [
        {
          "long_name": "61260",
          "short_name": "61260",
          "types": [
            "postal_code"
          ]
        },
        {
          "long_name": "Joy",
          "short_name": "Joy",
          "types": [
            "locality",
            "political"
          ]
        },
        {
          "long_name": "Illinois",
          "short_name": "IL",
          "types": [
            "administrative_area_level_1",
            "political"
          ]
        },
        {
          "long_name": "United States",
          "short_name": "US",
          "types": [
            "country",
            "political"
          ]
        }
      ],
      "formatted_address": "Joy, IL 61260, USA",
      "geometry": {
        "bounds": {
          "northeast": {
            "lat": 41.3680529,
            "lng": -90.8114949
          },
          "southwest": {
            "lat": 41.14178,
            "lng": -90.9435208
          }
        },
        "location": {
          "lat": 41.2573754,
          "lng": -90.8865834
        },
        "location_type": "APPROXIMATE",
        "viewport": {
          "northeast": {
            "lat": 41.3680529,
            "lng": -90.8114949
          },
          "southwest": {
            "lat": 41.14178,
            "lng": -90.9435208
          }
        }
      },
      "place_id": "ChIJkXV-C15g4YcRPU0ZB9FgPrs",
      "types": [
        "postal_code"
      ]
    },
    {
      "address_components": [
        {
          "long_name": "Mercer County",
          "short_name": "Mercer County",
          "types": [
            "administrative_area_level_2",
            "political"
          ]
        },
        {
          "long_name": "Illinois",
          "short_name": "IL",
          "types": [
            "administrative_area_level_1",
            "political"
          ]
        },
        {
          "long_name": "United States",
          "short_name": "US",
          "types": [
            "country",
            "political"
          ]
        }
      ],
      "formatted_address": "Mercer County, IL, USA",
      "geometry": {
        "bounds": {
          "northeast": {
            "lat": 41.3333609,
            "lng": -90.4338679
          },
          "southwest": {
            "lat": 41.063645,
            "lng": -91.1141859
          }
        },
        "location": {
          "lat": 41.1985037,
          "lng": -90.6773046
        },
        "location_type": "APPROXIMATE",
        "viewport": {
          "northeast": {
            "lat": 41.3333609,
            "lng": -90.4338679
          },
          "southwest": {
            "lat": 41.063645,
            "lng": -91.1141859
          }
        }
      },
      "place_id": "ChIJlY8fULRk4YcRxl-0DK-LD0M",
      "types": [
        "administrative_area_level_2",
        "political"
      ]
    },
    {
      "address_components": [
        {
          "long_name": "Дaвенпорт-Молин-Рок-Айленд",
          "short_name": "Дaвенпорт-Молин-Рок-Айленд",
          "types": [
            "political"
          ]
        },
        {
          "long_name": "United States",
          "short_name": "US",
          "types": [
            "country",
            "political"
          ]
        }
      ],
      "formatted_address": "Дaвенпорт-Молин-Рок-Айленд, USA",
      "geometry": {
        "bounds": {
          "northeast": {
            "lat": 41.7829647,
            "lng": -89.856754
          },
          "southwest": {
            "lat": 41.0635931,
            "lng": -91.1141859
          }
        },
        "location": {
          "lat": 41.4403733,
          "lng": -90.4502368
        },
        "location_type": "APPROXIMATE",
        "viewport": {
          "northeast": {
            "lat": 41.7829647,
            "lng": -89.856754
          },
          "southwest": {
            "lat": 41.0635931,
            "lng": -91.1141859
          }
        }
      },
      "place_id": "ChIJQa18Q3Qv4ocR3QZj7PkpOt0",
      "types": [
        "political"
      ]
    },
    {
      "address_components": [
        {
          "long_name": "Illinois",
          "short_name": "IL",
          "types": [
            "administrative_area_level_1",
            "political"
          ]
        },
        {
          "long_name": "United States",
          "short_name": "US",
          "types": [
            "country",
            "political"
          ]
        }
      ],
      "formatted_address": "Illinois, USA",
      "geometry": {
        "bounds": {
          "northeast": {
            "lat": 42.5083379,
            "lng": -87.4951991
          },
          "southwest": {
            "lat": 36.970298,
            "lng": -91.5130789
          }
        },
        "location": {
          "lat": 40.6331249,
          "lng": -89.3985283
        },
        "location_type": "APPROXIMATE",
        "viewport": {
          "northeast": {
            "lat": 42.5083379,
            "lng": -87.4951991
          },
          "southwest": {
            "lat": 36.970298,
            "lng": -91.5130789
          }
        }
      },
      "place_id": "ChIJGSZubzgtC4gRVlkRZFCCFX8",
      "types": [
        "administrative_area_level_1",
        "political"
      ]
    },
    {
      "address_components": [
        {
          "long_name": "United States",
          "short_name": "US",
          "types": [
            "country",
            "political"
          ]
        }
      ],
      "formatted_address": "United States",
      "geometry": {
        "bounds": {
          "northeast": {
            "lat": 71.3867745,
            "lng": -66.9502861
          },
          "southwest": {
            "lat": 18.9106768,
            "lng": 172.4458955
          }
        },
        "location": {
          "lat": 37.09024,
          "lng": -95.712891
        },
        "location_type": "APPROXIMATE",
        "viewport": {
          "northeast": {
            "lat": 49.38,
            "lng": -66.94
          },
          "southwest": {
            "lat": 25.82,
            "lng": -124.39
          }
        }
      },
      "place_id": "ChIJCzYy5IS16lQRQrfeQ5K5Oxw",
      "types": [
        "country",
        "political"
      ]
    }
  ],
  "status": "OK"
}
