{
  "results": [
    {
      "address_components": [
        {
          "long_name": "51-53",
          "short_name": "51-53",
          "types": [
            "street_number"
          ]
        },
        {
          "long_name": "3rd Street",
          "short_name": "3rd St",
          "types": [
            "route"
          ]
        },
        {
          "long_name": "Cairnbrook",
          "short_name": "Cairnbrook",
          "types": [
            "locality",
            "political"
          ]
        },
        {
          "long_name": "Shade Township",
          "short_name": "Shade Township",
          "types": [
            "administrative_area_level_3",
            "political"
          ]
        },
        {
          "long_name": "Somerset County",
          "short_name": "Somerset County",
          "types": [
            "administrative_area_level_2",
            "political"
          ]
        },
        {
          "long_name": "Pennsylvania",
          "short_name": "PA",
          "types": [
            "administrative_area_level_1",
            "political"
          ]
        },
        {
          "long_name": "United States",
          "short_name": "US",
          "types": [
            "country",
            "political"
          ]
        },
        {
          "long_name": "15924",
          "short_name": "15924",
          "types": [
            "postal_code"
          ]
        }
      ],
      "formatted_address": "51-53 3rd St, Cairnbrook, PA 15924, USA",
      "geometry": {
        "bounds": {
          "northeast": {
            "lat": 40.124564,
            "lng": -78.81718049999999
          },
          "southwest": {
            "lat": 40.1231219,
            "lng": -78.8190329
          }
        },
        "location": {
          "lat": 40.1245495,
          "lng": -78.81898790000001
        },
        "location_type": "RANGE_INTERPOLATED",
        "viewport": {
          "northeast": {
            "lat": 40.1251919302915,
            "lng": -78.81675771970849
          },
          "southwest": {
            "lat": 40.12249396970851,
            "lng": -78.8194556802915
          }
        }
      },
      "place_id": "Eic1MS01MyAzcmQgU3QsIENhaXJuYnJvb2ssIFBBIDE1OTI0LCBVU0E",
      "types": [
        "street_address"
      ]
    },
    {
      "address_components": [
        {
          "long_name": "Cairnbrook",
          "short_name": "Cairnbrook",
          "types": [
            "locality",
            "political"
          ]
        },
        {
          "long_name": "Shade Township",
          "short_name": "Shade Township",
          "types": [
            "administrative_area_level_3",
            "political"
          ]
        },
        {
          "long_name": "Somerset County",
          "short_name": "Somerset County",
          "types": [
            "administrative_area_level_2",
            "political"
          ]
        },
        {
          "long_name": "Pennsylvania",
          "short_name": "PA",
          "types": [
            "administrative_area_level_1",
            "political"
          ]
        },
        {
          "long_name": "United States",
          "short_name": "US",
          "types": [
            "country",
            "political"
          ]
        }
      ],
      "formatted_address": "Cairnbrook, PA, USA",
      "geometry": {
        "bounds": {
          "northeast": {
            "lat": 40.13444700000001,
            "lng": -78.81197089999999
          },
          "southwest": {
            "lat": 40.113624,
            "lng": -78.82921379999999
          }
        },
        "location": {
          "lat": 40.1194135,
          "lng": -78.8177336
        },
        "location_type": "APPROXIMATE",
        "viewport": {
          "northeast": {
            "lat": 40.13444700000001,
            "lng": -78.81197089999999
          },
          "southwest": {
            "lat": 40.113624,
            "lng": -78.82921379999999
          }
        }
      },
      "place_id": "ChIJPV4CzcMCy4kRC-8mHblSTt4",
      "types": [
        "locality",
        "political"
      ]
    },
    {
      "address_components": [
        {
          "long_name": "15924",
          "short_name": "15924",
          "types": [
            "postal_code"
          ]
        },
        {
          "long_name": "Cairnbrook",
          "short_name": "Cairnbrook",
          "types": [
            "locality",
            "political"
          ]
        },
        {
          "long_name": "Pennsylvania",
          "short_name": "PA",
          "types": [
            "administrative_area_level_1",
            "political"
          ]
        },
        {
          "long_name": "United States",
          "short_name": "US",
          "types": [
            "country",
            "political"
          ]
        }
      ],
      "formatted_address": "Cairnbrook, PA 15924, USA",
      "geometry": {
        "bounds": {
          "northeast": {
            "lat": 40.159527,
            "lng": -78.699722
          },
          "southwest": {
            "lat": 40.0398599,
            "lng": -78.8409181
          }
        },
        "location": {
          "lat": 40.1083759,
          "lng": -78.77028949999999
        },
        "location_type": "APPROXIMATE",
        "viewport": {
          "northeast": {
            "lat": 40.159527,
            "lng": -78.699722
          },
          "southwest": {
            "lat": 40.0398599,
            "lng": -78.8409181
          }
        }
      },
      "place_id": "ChIJMXHFw1wCy4kRDqOHsalGE4k",
      "types": [
        "postal_code"
      ]
    },
    {
      "address_components": [
        {
          "long_name": "Shade Township",
          "short_name": "Shade Township",
          "types": [
            "administrative_area_level_3",
            "political"
          ]
        },
        {
          "long_name": "Somerset County",
          "short_name": "Somerset County",
          "types": [
            "administrative_area_level_2",
            "political"
          ]
        },
        {
          "long_name": "Pennsylvania",
          "short_name": "PA",
          "types": [
            "administrative_area_level_1",
            "political"
          ]
        },
        {
          "long_name": "United States",
          "short_name": "US",
          "types": [
            "country",
            "political"
          ]
        }
      ],
      "formatted_address": "Shade Township, PA, USA",
      "geometry": {
        "bounds": {
          "northeast": {
            "lat": 40.177077,
            "lng": -78.707115
          },
          "southwest": {
            "lat": 40.0377259,
            "lng": -78.932208
          }
        },
        "location": {
          "lat": 40.1172049,
          "lng": -78.8609122
        },
        "location_type": "APPROXIMATE",
        "viewport": {
          "northeast": {
            "lat": 40.177077,
            "lng": -78.707115
          },
          "southwest": {
            "lat": 40.0377259,
            "lng": -78.932208
          }
        }
      },
      "place_id": "ChIJTyno5b4Cy4kR2rTZVKXovzc",
      "types": [
        "administrative_area_level_3",
        "political"
      ]
    },
    {
      "address_components": [
        {
          "long_name": "Somerset",
          "short_name": "Somerset",
          "types": [
            "political"
          ]
        },
        {
          "long_name": "United States",
          "short_name": "US",
          "types": [
            "country",
            "political"
          ]
        }
      ],
      "formatted_address": "Somerset, USA",
      "geometry": {
        "bounds": {
          "northeast": {
            "lat": 40.285374,
            "lng": -78.6584089
          },
          "southwest": {
            "lat": 39.72143,
            "lng": -79.417558
          }
        },
        "location": {
          "lat": 40.022493,
          "lng": -78.9288242
        },
        "location_type": "APPROXIMATE",
        "viewport": {
          "northeast": {
            "lat": 40.285374,
            "lng": -78.6584089
          },
          "southwest": {
            "lat": 39.72143,
            "lng": -79.417558
          }
        }
      },
      "place_id": "ChIJ-yJxl2fdyokRyLdw3orr1u4",
      "types": [
        "political"
      ]
    },
    {
      "address_components": [
        {
          "long_name": "Somerset County",
          "short_name": "Somerset County",
          "types": [
            "administrative_area_level_2",
            "political"
          ]
        },
        {
          "long_name": "Pennsylvania",
          "short_name": "PA",
          "types": [
            "administrative_area_level_1",
            "political"
          ]
        },
        {
          "long_name": "United States",
          "short_name": "US",
          "types": [
            "country",
            "political"
          ]
        }
      ],
      "formatted_address": "Somerset County, PA, USA",
      "geometry": {
        "bounds": {
          "northeast": {
            "lat": 40.285374,
            "lng": -78.6584089
          },
          "southwest": {
            "lat": 39.721578,
            "lng": -79.417558
          }
        },
        "location": {
          "lat": 40.022493,
          "lng": -78.9288242
        },
        "location_type": "APPROXIMATE",
        "viewport": {
          "northeast": {
            "lat": 40.285374,
            "lng": -78.6584089
          },
          "southwest": {
            "lat": 39.721578,
            "lng": -79.417558
          }
        }
      },
      "place_id": "ChIJgdh-OOUhy4kREVuJqQFE6Ds",
      "types": [
        "administrative_area_level_2",
        "political"
      ]
    },
    {
      "address_components": [
        {
          "long_name": "Pennsylvania",
          "short_name": "PA",
          "types": [
            "administrative_area_level_1",
            "political"
          ]
        },
        {
          "long_name": "United States",
          "short_name": "US",
          "types": [
            "country",
            "political"
          ]
        }
      ],
      "formatted_address": "Pennsylvania, USA",
      "geometry": {
        "bounds": {
          "northeast": {
            "lat": 42.2693866,
            "lng": -74.6895018
          },
          "southwest": {
            "lat": 39.7197989,
            "lng": -80.51989499999999
          }
        },
        "location": {
          "lat": 41.2033216,
          "lng": -77.1945247
        },
        "location_type": "APPROXIMATE",
        "viewport": {
          "northeast": {
            "lat": 42.2693866,
            "lng": -74.6895018
          },
          "southwest": {
            "lat": 39.7197989,
            "lng": -80.51989499999999
          }
        }
      },
      "place_id": "ChIJieUyHiaALYgRPbQiUEchRsI",
      "types": [
        "administrative_area_level_1",
        "political"
      ]
    },
    {
      "address_components": [
        {
          "long_name": "United States",
          "short_name": "US",
          "types": [
            "country",
            "political"
          ]
        }
      ],
      "formatted_address": "United States",
      "geometry": {
        "bounds": {
          "northeast": {
            "lat": 71.3867745,
            "lng": -66.9502861
          },
          "southwest": {
            "lat": 18.9106768,
            "lng": 172.4458955
          }
        },
        "location": {
          "lat": 37.09024,
          "lng": -95.712891
        },
        "location_type": "APPROXIMATE",
        "viewport": {
          "northeast": {
            "lat": 49.38,
            "lng": -66.94
          },
          "southwest": {
            "lat": 25.82,
            "lng": -124.39
          }
        }
      },
      "place_id": "ChIJCzYy5IS16lQRQrfeQ5K5Oxw",
      "types": [
        "country",
        "political"
      ]
    }
  ],
  "status": "OK"
}
