{
  "results": [
    {
      "address_components": [
        {
          "long_name": "231-299",
          "short_name": "231-299",
          "types": [
            "street_number"
          ]
        },
        {
          "long_name": "Cleveland Avenue",
          "short_name": "Cleveland Ave",
          "types": [
            "route"
          ]
        },
        {
          "long_name": "Auburn",
          "short_name": "Auburn",
          "types": [
            "locality",
            "political"
          ]
        },
        {
          "long_name": "Auburn Township",
          "short_name": "Auburn Township",
          "types": [
            "administrative_area_level_3",
            "political"
          ]
        },
        {
          "long_name": "Sangamon County",
          "short_name": "Sangamon County",
          "types": [
            "administrative_area_level_2",
            "political"
          ]
        },
        {
          "long_name": "Illinois",
          "short_name": "IL",
          "types": [
            "administrative_area_level_1",
            "political"
          ]
        },
        {
          "long_name": "United States",
          "short_name": "US",
          "types": [
            "country",
            "political"
          ]
        },
        {
          "long_name": "62615",
          "short_name": "62615",
          "types": [
            "postal_code"
          ]
        }
      ],
      "formatted_address": "231-299 Cleveland Ave, Auburn, IL 62615, USA",
      "geometry": {
        "bounds": {
          "northeast": {
            "lat": 39.5404966,
            "lng": -89.7577761
          },
          "southwest": {
            "lat": 39.5397737,
            "lng": -89.7577819
          }
        },
        "location": {
          "lat": 39.5403666,
          "lng": -89.7577996
        },
        "location_type": "RANGE_INTERPOLATED",
        "viewport": {
          "northeast": {
            "lat": 39.5414841302915,
            "lng": -89.75643001970849
          },
          "southwest": {
            "lat": 39.5387861697085,
            "lng": -89.75912798029151
          }
        }
      },
      "place_id": "EiwyMzEtMjk5IENsZXZlbGFuZCBBdmUsIEF1YnVybiwgSUwgNjI2MTUsIFVTQQ",
      "types": [
        "street_address"
      ]
    },
    {
      "address_components": [
        {
          "long_name": "Thayer",
          "short_name": "Thayer",
          "types": [
            "locality",
            "political"
          ]
        },
        {
          "long_name": "Auburn Township",
          "short_name": "Auburn Township",
          "types": [
            "administrative_area_level_3",
            "political"
          ]
        },
        {
          "long_name": "Sangamon County",
          "short_name": "Sangamon County",
          "types": [
            "administrative_area_level_2",
            "political"
          ]
        },
        {
          "long_name": "Illinois",
          "short_name": "IL",
          "types": [
            "administrative_area_level_1",
            "political"
          ]
        },
        {
          "long_name": "United States",
          "short_name": "US",
          "types": [
            "country",
            "political"
          ]
        }
      ],
      "formatted_address": "Thayer, IL, USA",
      "geometry": {
        "bounds": {
          "northeast": {
            "lat": 39.544945,
            "lng": -89.744366
          },
          "southwest": {
            "lat": 39.5359931,
            "lng": -89.77035090000001
          }
        },
        "location": {
          "lat": 39.5381087,
          "lng": -89.7631533
        },
        "location_type": "APPROXIMATE",
        "viewport": {
          "northeast": {
            "lat": 39.544945,
            "lng": -89.744366
          },
          "southwest": {
            "lat": 39.5359931,
            "lng": -89.77035090000001
          }
        }
      },
      "place_id": "ChIJEaHbWjhsdYgRfK37FFj3boA",
      "types": [
        "locality",
        "political"
      ]
    },
    {
      "address_components": [
        {
          "long_name": "Auburn Township",
          "short_name": "Auburn Township",
          "types": [
            "administrative_area_level_3",
            "political"
          ]
        },
        {
          "long_name": "Sangamon County",
          "short_name": "Sangamon County",
          "types": [
            "administrative_area_level_2",
            "political"
          ]
        },
        {
          "long_name": "Illinois",
          "short_name": "IL",
          "types": [
            "administrative_area_level_1",
            "political"
          ]
        },
        {
          "long_name": "United States",
          "short_name": "US",
          "types": [
            "country",
            "political"
          ]
        }
      ],
      "formatted_address": "Auburn Township, IL, USA",
      "geometry": {
        "bounds": {
          "northeast": {
            "lat": 39.61096209999999,
            "lng": -89.701645
          },
          "southwest": {
            "lat": 39.5228399,
            "lng": -89.814319
          }
        },
        "location": {
          "lat": 39.5482552,
          "lng": -89.7567693
        },
        "location_type": "APPROXIMATE",
        "viewport": {
          "northeast": {
            "lat": 39.61096209999999,
            "lng": -89.701645
          },
          "southwest": {
            "lat": 39.5228399,
            "lng": -89.814319
          }
        }
      },
      "place_id": "ChIJI627unVsdYgRgpxC9lH63Mo",
      "types": [
        "administrative_area_level_3",
        "political"
      ]
    },
    {
      "address_components": [
        {
          "long_name": "62615",
          "short_name": "62615",
          "types": [
            "postal_code"
          ]
        },
        {
          "long_name": "Auburn",
          "short_name": "Auburn",
          "types": [
            "locality",
            "political"
          ]
        },
        {
          "long_name": "Illinois",
          "short_name": "IL",
          "types": [
            "administrative_area_level_1",
            "political"
          ]
        },
        {
          "long_name": "United States",
          "short_name": "US",
          "types": [
            "country",
            "political"
          ]
        }
      ],
      "formatted_address": "Auburn, IL 62615, USA",
      "geometry": {
        "bounds": {
          "northeast": {
            "lat": 39.6401679,
            "lng": -89.6577229
          },
          "southwest": {
            "lat": 39.5205499,
            "lng": -89.842361
          }
        },
        "location": {
          "lat": 39.589599,
          "lng": -89.7567693
        },
        "location_type": "APPROXIMATE",
        "viewport": {
          "northeast": {
            "lat": 39.6401679,
            "lng": -89.6577229
          },
          "southwest": {
            "lat": 39.5205499,
            "lng": -89.842361
          }
        }
      },
      "place_id": "ChIJoV6VN5NrdYgRpeMsSRQt5MU",
      "types": [
        "postal_code"
      ]
    },
    {
      "address_components": [
        {
          "long_name": "Sangamon County",
          "short_name": "Sangamon County",
          "types": [
            "administrative_area_level_2",
            "political"
          ]
        },
        {
          "long_name": "Illinois",
          "short_name": "IL",
          "types": [
            "administrative_area_level_1",
            "political"
          ]
        },
        {
          "long_name": "United States",
          "short_name": "US",
          "types": [
            "country",
            "political"
          ]
        }
      ],
      "formatted_address": "Sangamon County, IL, USA",
      "geometry": {
        "bounds": {
          "northeast": {
            "lat": 39.9767359,
            "lng": -89.2173739
          },
          "southwest": {
            "lat": 39.522052,
            "lng": -89.994524
          }
        },
        "location": {
          "lat": 39.7337353,
          "lng": -89.62516459999999
        },
        "location_type": "APPROXIMATE",
        "viewport": {
          "northeast": {
            "lat": 39.9767359,
            "lng": -89.2173739
          },
          "southwest": {
            "lat": 39.522052,
            "lng": -89.994524
          }
        }
      },
      "place_id": "ChIJjQBm7XBqdYgRe4_c2pUEMSQ",
      "types": [
        "administrative_area_level_2",
        "political"
      ]
    },
    {
      "address_components": [
        {
          "long_name": "Springfield",
          "short_name": "Springfield",
          "types": [
            "political"
          ]
        },
        {
          "long_name": "Illinois",
          "short_name": "IL",
          "types": [
            "administrative_area_level_1",
            "political"
          ]
        },
        {
          "long_name": "United States",
          "short_name": "US",
          "types": [
            "country",
            "political"
          ]
        }
      ],
      "formatted_address": "Springfield, IL, USA",
      "geometry": {
        "bounds": {
          "northeast": {
            "lat": 40.1606629,
            "lng": -89.2173739
          },
          "southwest": {
            "lat": 39.520502,
            "lng": -89.9950279
          }
        },
        "location": {
          "lat": 39.898831,
          "lng": -89.77553379999999
        },
        "location_type": "APPROXIMATE",
        "viewport": {
          "northeast": {
            "lat": 40.1606629,
            "lng": -89.2173739
          },
          "southwest": {
            "lat": 39.520502,
            "lng": -89.9950279
          }
        }
      },
      "place_id": "ChIJqR95n-M3dYgRcyivJOibk30",
      "types": [
        "political"
      ]
    },
    {
      "address_components": [
        {
          "long_name": "Illinois",
          "short_name": "IL",
          "types": [
            "administrative_area_level_1",
            "political"
          ]
        },
        {
          "long_name": "United States",
          "short_name": "US",
          "types": [
            "country",
            "political"
          ]
        }
      ],
      "formatted_address": "Illinois, USA",
      "geometry": {
        "bounds": {
          "northeast": {
            "lat": 42.5083379,
            "lng": -87.4951991
          },
          "southwest": {
            "lat": 36.970298,
            "lng": -91.5130789
          }
        },
        "location": {
          "lat": 40.6331249,
          "lng": -89.3985283
        },
        "location_type": "APPROXIMATE",
        "viewport": {
          "northeast": {
            "lat": 42.5083379,
            "lng": -87.4951991
          },
          "southwest": {
            "lat": 36.970298,
            "lng": -91.5130789
          }
        }
      },
      "place_id": "ChIJGSZubzgtC4gRVlkRZFCCFX8",
      "types": [
        "administrative_area_level_1",
        "political"
      ]
    },
    {
      "address_components": [
        {
          "long_name": "United States",
          "short_name": "US",
          "types": [
            "country",
            "political"
          ]
        }
      ],
      "formatted_address": "United States",
      "geometry": {
        "bounds": {
          "northeast": {
            "lat": 71.3867745,
            "lng": -66.9502861
          },
          "southwest": {
            "lat": 18.9106768,
            "lng": 172.4458955
          }
        },
        "location": {
          "lat": 37.09024,
          "lng": -95.712891
        },
        "location_type": "APPROXIMATE",
        "viewport": {
          "northeast": {
            "lat": 49.38,
            "lng": -66.94
          },
          "southwest": {
            "lat": 25.82,
            "lng": -124.39
          }
        }
      },
      "place_id": "ChIJCzYy5IS16lQRQrfeQ5K5Oxw",
      "types": [
        "country",
        "political"
      ]
    }
  ],
  "status": "OK"
}
