{
  "results": [
    {
      "address_components": [
        {
          "long_name": "81",
          "short_name": "81",
          "types": [
            "street_number"
          ]
        },
        {
          "long_name": "Mesta Drive",
          "short_name": "Mesta Dr",
          "types": [
            "route"
          ]
        },
        {
          "long_name": "Washington",
          "short_name": "Washington",
          "types": [
            "locality",
            "political"
          ]
        },
        {
          "long_name": "Canton Township",
          "short_name": "Canton Township",
          "types": [
            "administrative_area_level_3",
            "political"
          ]
        },
        {
          "long_name": "Washington County",
          "short_name": "Washington County",
          "types": [
            "administrative_area_level_2",
            "political"
          ]
        },
        {
          "long_name": "Pennsylvania",
          "short_name": "PA",
          "types": [
            "administrative_area_level_1",
            "political"
          ]
        },
        {
          "long_name": "United States",
          "short_name": "US",
          "types": [
            "country",
            "political"
          ]
        },
        {
          "long_name": "15301",
          "short_name": "15301",
          "types": [
            "postal_code"
          ]
        }
      ],
      "formatted_address": "81 Mesta Dr, Washington, PA 15301, USA",
      "geometry": {
        "location": {
          "lat": 40.1980002,
          "lng": -80.3027932
        },
        "location_type": "ROOFTOP",
        "viewport": {
          "northeast": {
            "lat": 40.19934918029149,
            "lng": -80.3014442197085
          },
          "southwest": {
            "lat": 40.19665121970849,
            "lng": -80.3041421802915
          }
        }
      },
      "place_id": "ChIJFTKake2yNYgR7KPjAvErsp8",
      "types": [
        "street_address"
      ]
    },
    {
      "address_components": [
        {
          "long_name": "Wolfdale",
          "short_name": "Wolfdale",
          "types": [
            "locality",
            "political"
          ]
        },
        {
          "long_name": "Canton Township",
          "short_name": "Canton Township",
          "types": [
            "administrative_area_level_3",
            "political"
          ]
        },
        {
          "long_name": "Washington County",
          "short_name": "Washington County",
          "types": [
            "administrative_area_level_2",
            "political"
          ]
        },
        {
          "long_name": "Pennsylvania",
          "short_name": "PA",
          "types": [
            "administrative_area_level_1",
            "political"
          ]
        },
        {
          "long_name": "United States",
          "short_name": "US",
          "types": [
            "country",
            "political"
          ]
        },
        {
          "long_name": "15301",
          "short_name": "15301",
          "types": [
            "postal_code"
          ]
        }
      ],
      "formatted_address": "Wolfdale, PA 15301, USA",
      "geometry": {
        "bounds": {
          "northeast": {
            "lat": 40.211622,
            "lng": -80.275031
          },
          "southwest": {
            "lat": 40.1878308,
            "lng": -80.3353691
          }
        },
        "location": {
          "lat": 40.1928489,
          "lng": -80.2878393
        },
        "location_type": "APPROXIMATE",
        "viewport": {
          "northeast": {
            "lat": 40.211622,
            "lng": -80.275031
          },
          "southwest": {
            "lat": 40.1878308,
            "lng": -80.3353691
          }
        }
      },
      "place_id": "ChIJz0GDMO2yNYgRcdLwDCec-Vc",
      "types": [
        "locality",
        "political"
      ]
    },
    {
      "address_components": [
        {
          "long_name": "Canton Township",
          "short_name": "Canton Township",
          "types": [
            "administrative_area_level_3",
            "political"
          ]
        },
        {
          "long_name": "Washington County",
          "short_name": "Washington County",
          "types": [
            "administrative_area_level_2",
            "political"
          ]
        },
        {
          "long_name": "Pennsylvania",
          "short_name": "PA",
          "types": [
            "administrative_area_level_1",
            "political"
          ]
        },
        {
          "long_name": "United States",
          "short_name": "US",
          "types": [
            "country",
            "political"
          ]
        },
        {
          "long_name": "15301",
          "short_name": "15301",
          "types": [
            "postal_code"
          ]
        }
      ],
      "formatted_address": "Canton Township, PA 15301, USA",
      "geometry": {
        "bounds": {
          "northeast": {
            "lat": 40.2499878,
            "lng": -80.25792589999999
          },
          "southwest": {
            "lat": 40.152583,
            "lng": -80.33818509999999
          }
        },
        "location": {
          "lat": 40.218128,
          "lng": -80.3101684
        },
        "location_type": "APPROXIMATE",
        "viewport": {
          "northeast": {
            "lat": 40.2499878,
            "lng": -80.25792589999999
          },
          "southwest": {
            "lat": 40.152583,
            "lng": -80.33818509999999
          }
        }
      },
      "place_id": "ChIJLdW0RJOyNYgRV-nBEgd2IWs",
      "types": [
        "administrative_area_level_3",
        "political"
      ]
    },
    {
      "address_components": [
        {
          "long_name": "15301",
          "short_name": "15301",
          "types": [
            "postal_code"
          ]
        },
        {
          "long_name": "Washington",
          "short_name": "Washington",
          "types": [
            "locality",
            "political"
          ]
        },
        {
          "long_name": "Washington County",
          "short_name": "Washington County",
          "types": [
            "administrative_area_level_2",
            "political"
          ]
        },
        {
          "long_name": "Pennsylvania",
          "short_name": "PA",
          "types": [
            "administrative_area_level_1",
            "political"
          ]
        },
        {
          "long_name": "United States",
          "short_name": "US",
          "types": [
            "country",
            "political"
          ]
        }
      ],
      "formatted_address": "Washington, PA 15301, USA",
      "geometry": {
        "bounds": {
          "northeast": {
            "lat": 40.275103,
            "lng": -80.129857
          },
          "southwest": {
            "lat": 40.0482109,
            "lng": -80.3685979
          }
        },
        "location": {
          "lat": 40.1627412,
          "lng": -80.254435
        },
        "location_type": "APPROXIMATE",
        "viewport": {
          "northeast": {
            "lat": 40.275103,
            "lng": -80.129857
          },
          "southwest": {
            "lat": 40.0482109,
            "lng": -80.3685979
          }
        }
      },
      "place_id": "ChIJXeCB4r-tNYgRLjdMr76HIs8",
      "types": [
        "postal_code"
      ]
    },
    {
      "address_components": [
        {
          "long_name": "Washington County",
          "short_name": "Washington County",
          "types": [
            "administrative_area_level_2",
            "political"
          ]
        },
        {
          "long_name": "Pennsylvania",
          "short_name": "PA",
          "types": [
            "administrative_area_level_1",
            "political"
          ]
        },
        {
          "long_name": "United States",
          "short_name": "US",
          "types": [
            "country",
            "political"
          ]
        }
      ],
      "formatted_address": "Washington County, PA, USA",
      "geometry": {
        "bounds": {
          "northeast": {
            "lat": 40.477789,
            "lng": -79.838999
          },
          "southwest": {
            "lat": 39.9520799,
            "lng": -80.51928
          }
        },
        "location": {
          "lat": 40.1367719,
          "lng": -80.1875065
        },
        "location_type": "APPROXIMATE",
        "viewport": {
          "northeast": {
            "lat": 40.477789,
            "lng": -79.838999
          },
          "southwest": {
            "lat": 39.9520799,
            "lng": -80.51928
          }
        }
      },
      "place_id": "ChIJ77mzXIhUNIgRLeIAh52V2HI",
      "types": [
        "administrative_area_level_2",
        "political"
      ]
    },
    {
      "address_components": [
        {
          "long_name": "Pittsburgh",
          "short_name": "Pittsburgh",
          "types": [
            "political"
          ]
        },
        {
          "long_name": "United States",
          "short_name": "US",
          "types": [
            "country",
            "political"
          ]
        }
      ],
      "formatted_address": "Pittsburgh, USA",
      "geometry": {
        "bounds": {
          "northeast": {
            "lat": 41.1731849,
            "lng": -78.974649
          },
          "southwest": {
            "lat": 39.7207129,
            "lng": -80.5192179
          }
        },
        "location": {
          "lat": 40.3565093,
          "lng": -79.9192702
        },
        "location_type": "APPROXIMATE",
        "viewport": {
          "northeast": {
            "lat": 41.1731849,
            "lng": -78.974649
          },
          "southwest": {
            "lat": 39.7207129,
            "lng": -80.5192179
          }
        }
      },
      "place_id": "ChIJiWjZkAfsNIgRSXopSLGQlS4",
      "types": [
        "political"
      ]
    },
    {
      "address_components": [
        {
          "long_name": "Pennsylvania",
          "short_name": "PA",
          "types": [
            "administrative_area_level_1",
            "political"
          ]
        },
        {
          "long_name": "United States",
          "short_name": "US",
          "types": [
            "country",
            "political"
          ]
        }
      ],
      "formatted_address": "Pennsylvania, USA",
      "geometry": {
        "bounds": {
          "northeast": {
            "lat": 42.2693866,
            "lng": -74.6895018
          },
          "southwest": {
            "lat": 39.7197989,
            "lng": -80.51989499999999
          }
        },
        "location": {
          "lat": 41.2033216,
          "lng": -77.1945247
        },
        "location_type": "APPROXIMATE",
        "viewport": {
          "northeast": {
            "lat": 42.2693866,
            "lng": -74.6895018
          },
          "southwest": {
            "lat": 39.7197989,
            "lng": -80.51989499999999
          }
        }
      },
      "place_id": "ChIJieUyHiaALYgRPbQiUEchRsI",
      "types": [
        "administrative_area_level_1",
        "political"
      ]
    },
    {
      "address_components": [
        {
          "long_name": "United States",
          "short_name": "US",
          "types": [
            "country",
            "political"
          ]
        }
      ],
      "formatted_address": "United States",
      "geometry": {
        "bounds": {
          "northeast": {
            "lat": 71.3867745,
            "lng": -66.9502861
          },
          "southwest": {
            "lat": 18.9106768,
            "lng": 172.4458955
          }
        },
        "location": {
          "lat": 37.09024,
          "lng": -95.712891
        },
        "location_type": "APPROXIMATE",
        "viewport": {
          "northeast": {
            "lat": 49.38,
            "lng": -66.94
          },
          "southwest": {
            "lat": 25.82,
            "lng": -124.39
          }
        }
      },
      "place_id": "ChIJCzYy5IS16lQRQrfeQ5K5Oxw",
      "types": [
        "country",
        "political"
      ]
    }
  ],
  "status": "OK"
}
