{
  "results": [
    {
      "address_components": [
        {
          "long_name": "West Front Street",
          "short_name": "W Front St",
          "types": [
            "route"
          ]
        },
        {
          "long_name": "La Prairie",
          "short_name": "La Prairie",
          "types": [
            "locality",
            "political"
          ]
        },
        {
          "long_name": "Northeast Township",
          "short_name": "Northeast Township",
          "types": [
            "administrative_area_level_3",
            "political"
          ]
        },
        {
          "long_name": "Adams County",
          "short_name": "Adams County",
          "types": [
            "administrative_area_level_2",
            "political"
          ]
        },
        {
          "long_name": "Illinois",
          "short_name": "IL",
          "types": [
            "administrative_area_level_1",
            "political"
          ]
        },
        {
          "long_name": "United States",
          "short_name": "US",
          "types": [
            "country",
            "political"
          ]
        },
        {
          "long_name": "62346",
          "short_name": "62346",
          "types": [
            "postal_code"
          ]
        }
      ],
      "formatted_address": "W Front St, La Prairie, IL 62346, USA",
      "geometry": {
        "bounds": {
          "northeast": {
            "lat": 40.1477197,
            "lng": -91.0021283
          },
          "southwest": {
            "lat": 40.1465795,
            "lng": -91.0025366
          }
        },
        "location": {
          "lat": 40.1471496,
          "lng": -91.0023325
        },
        "location_type": "GEOMETRIC_CENTER",
        "viewport": {
          "northeast": {
            "lat": 40.14849858029149,
            "lng": -91.0009834697085
          },
          "southwest": {
            "lat": 40.1458006197085,
            "lng": -91.00368143029151
          }
        }
      },
      "place_id": "ChIJiSzbFDa74IcRFv3CO9Ue9YA",
      "types": [
        "route"
      ]
    },
    {
      "address_components": [
        {
          "long_name": "La Prairie",
          "short_name": "La Prairie",
          "types": [
            "locality",
            "political"
          ]
        },
        {
          "long_name": "Northeast Township",
          "short_name": "Northeast Township",
          "types": [
            "administrative_area_level_3",
            "political"
          ]
        },
        {
          "long_name": "Adams County",
          "short_name": "Adams County",
          "types": [
            "administrative_area_level_2",
            "political"
          ]
        },
        {
          "long_name": "Illinois",
          "short_name": "IL",
          "types": [
            "administrative_area_level_1",
            "political"
          ]
        },
        {
          "long_name": "United States",
          "short_name": "US",
          "types": [
            "country",
            "political"
          ]
        }
      ],
      "formatted_address": "La Prairie, IL, USA",
      "geometry": {
        "bounds": {
          "northeast": {
            "lat": 40.1573488,
            "lng": -90.996708
          },
          "southwest": {
            "lat": 40.135673,
            "lng": -91.007977
          }
        },
        "location": {
          "lat": 40.1478242,
          "lng": -91.00291299999999
        },
        "location_type": "APPROXIMATE",
        "viewport": {
          "northeast": {
            "lat": 40.1573488,
            "lng": -90.996708
          },
          "southwest": {
            "lat": 40.135673,
            "lng": -91.007977
          }
        }
      },
      "place_id": "ChIJ58vFDDa74IcRAFaWmsxoqzI",
      "types": [
        "locality",
        "political"
      ]
    },
    {
      "address_components": [
        {
          "long_name": "Northeast Township",
          "short_name": "Northeast Township",
          "types": [
            "administrative_area_level_3",
            "political"
          ]
        },
        {
          "long_name": "Adams County",
          "short_name": "Adams County",
          "types": [
            "administrative_area_level_2",
            "political"
          ]
        },
        {
          "long_name": "Illinois",
          "short_name": "IL",
          "types": [
            "administrative_area_level_1",
            "political"
          ]
        },
        {
          "long_name": "United States",
          "short_name": "US",
          "types": [
            "country",
            "political"
          ]
        }
      ],
      "formatted_address": "Northeast Township, IL, USA",
      "geometry": {
        "bounds": {
          "northeast": {
            "lat": 40.1944691,
            "lng": -90.911969
          },
          "southwest": {
            "lat": 40.1044519,
            "lng": -91.0289119
          }
        },
        "location": {
          "lat": 40.1617579,
          "lng": -90.9629523
        },
        "location_type": "APPROXIMATE",
        "viewport": {
          "northeast": {
            "lat": 40.1944691,
            "lng": -90.911969
          },
          "southwest": {
            "lat": 40.1044519,
            "lng": -91.0289119
          }
        }
      },
      "place_id": "ChIJgW71-rC84IcRmGgmHl7Nn_0",
      "types": [
        "administrative_area_level_3",
        "political"
      ]
    },
    {
      "address_components": [
        {
          "long_name": "62346",
          "short_name": "62346",
          "types": [
            "postal_code"
          ]
        },
        {
          "long_name": "La Prairie",
          "short_name": "La Prairie",
          "types": [
            "locality",
            "political"
          ]
        },
        {
          "long_name": "Illinois",
          "short_name": "IL",
          "types": [
            "administrative_area_level_1",
            "political"
          ]
        },
        {
          "long_name": "United States",
          "short_name": "US",
          "types": [
            "country",
            "political"
          ]
        }
      ],
      "formatted_address": "La Prairie, IL 62346, USA",
      "geometry": {
        "bounds": {
          "northeast": {
            "lat": 40.19938399999999,
            "lng": -90.833078
          },
          "southwest": {
            "lat": 40.111993,
            "lng": -91.0659089
          }
        },
        "location": {
          "lat": 40.15160119999999,
          "lng": -90.9533984
        },
        "location_type": "APPROXIMATE",
        "viewport": {
          "northeast": {
            "lat": 40.19938399999999,
            "lng": -90.833078
          },
          "southwest": {
            "lat": 40.111993,
            "lng": -91.0659089
          }
        }
      },
      "place_id": "ChIJz-wO97C84IcRnPrtZWn7foQ",
      "types": [
        "postal_code"
      ]
    },
    {
      "address_components": [
        {
          "long_name": "Adams County",
          "short_name": "Adams County",
          "types": [
            "administrative_area_level_2",
            "political"
          ]
        },
        {
          "long_name": "Illinois",
          "short_name": "IL",
          "types": [
            "administrative_area_level_1",
            "political"
          ]
        },
        {
          "long_name": "United States",
          "short_name": "US",
          "types": [
            "country",
            "political"
          ]
        }
      ],
      "formatted_address": "Adams County, IL, USA",
      "geometry": {
        "bounds": {
          "northeast": {
            "lat": 40.200486,
            "lng": -90.911969
          },
          "southwest": {
            "lat": 39.75683,
            "lng": -91.5130789
          }
        },
        "location": {
          "lat": 40.0577692,
          "lng": -91.13530200000001
        },
        "location_type": "APPROXIMATE",
        "viewport": {
          "northeast": {
            "lat": 40.200486,
            "lng": -90.911969
          },
          "southwest": {
            "lat": 39.75683,
            "lng": -91.5130789
          }
        }
      },
      "place_id": "ChIJsdzXkH-s4IcRBDTdeT-x9v0",
      "types": [
        "administrative_area_level_2",
        "political"
      ]
    },
    {
      "address_components": [
        {
          "long_name": "Quincy",
          "short_name": "Quincy",
          "types": [
            "political"
          ]
        },
        {
          "long_name": "United States",
          "short_name": "US",
          "types": [
            "country",
            "political"
          ]
        }
      ],
      "formatted_address": "Quincy, USA",
      "geometry": {
        "bounds": {
          "northeast": {
            "lat": 40.257251,
            "lng": -90.9120411
          },
          "southwest": {
            "lat": 39.756774,
            "lng": -91.952726
          }
        },
        "location": {
          "lat": 40.0543526,
          "lng": -91.44346900000001
        },
        "location_type": "APPROXIMATE",
        "viewport": {
          "northeast": {
            "lat": 40.257251,
            "lng": -90.9120411
          },
          "southwest": {
            "lat": 39.756774,
            "lng": -91.952726
          }
        }
      },
      "place_id": "ChIJm5V-X8dZ54cR0R8UWYCoUyc",
      "types": [
        "political"
      ]
    },
    {
      "address_components": [
        {
          "long_name": "Illinois",
          "short_name": "IL",
          "types": [
            "administrative_area_level_1",
            "political"
          ]
        },
        {
          "long_name": "United States",
          "short_name": "US",
          "types": [
            "country",
            "political"
          ]
        }
      ],
      "formatted_address": "Illinois, USA",
      "geometry": {
        "bounds": {
          "northeast": {
            "lat": 42.5083379,
            "lng": -87.4951991
          },
          "southwest": {
            "lat": 36.970298,
            "lng": -91.5130789
          }
        },
        "location": {
          "lat": 40.6331249,
          "lng": -89.3985283
        },
        "location_type": "APPROXIMATE",
        "viewport": {
          "northeast": {
            "lat": 42.5083379,
            "lng": -87.4951991
          },
          "southwest": {
            "lat": 36.970298,
            "lng": -91.5130789
          }
        }
      },
      "place_id": "ChIJGSZubzgtC4gRVlkRZFCCFX8",
      "types": [
        "administrative_area_level_1",
        "political"
      ]
    },
    {
      "address_components": [
        {
          "long_name": "United States",
          "short_name": "US",
          "types": [
            "country",
            "political"
          ]
        }
      ],
      "formatted_address": "United States",
      "geometry": {
        "bounds": {
          "northeast": {
            "lat": 71.3867745,
            "lng": -66.9502861
          },
          "southwest": {
            "lat": 18.9106768,
            "lng": 172.4458955
          }
        },
        "location": {
          "lat": 37.09024,
          "lng": -95.712891
        },
        "location_type": "APPROXIMATE",
        "viewport": {
          "northeast": {
            "lat": 49.38,
            "lng": -66.94
          },
          "southwest": {
            "lat": 25.82,
            "lng": -124.39
          }
        }
      },
      "place_id": "ChIJCzYy5IS16lQRQrfeQ5K5Oxw",
      "types": [
        "country",
        "political"
      ]
    }
  ],
  "status": "OK"
}
