{
  "results": [
    {
      "address_components": [
        {
          "long_name": "Miller Street",
          "short_name": "Miller St",
          "types": [
            "route"
          ]
        },
        {
          "long_name": "Steward",
          "short_name": "Steward",
          "types": [
            "locality",
            "political"
          ]
        },
        {
          "long_name": "Alto Township",
          "short_name": "Alto Township",
          "types": [
            "administrative_area_level_3",
            "political"
          ]
        },
        {
          "long_name": "Lee County",
          "short_name": "Lee County",
          "types": [
            "administrative_area_level_2",
            "political"
          ]
        },
        {
          "long_name": "Illinois",
          "short_name": "IL",
          "types": [
            "administrative_area_level_1",
            "political"
          ]
        },
        {
          "long_name": "United States",
          "short_name": "US",
          "types": [
            "country",
            "political"
          ]
        },
        {
          "long_name": "60553",
          "short_name": "60553",
          "types": [
            "postal_code"
          ]
        }
      ],
      "formatted_address": "Miller St, Steward, IL 60553, USA",
      "geometry": {
        "bounds": {
          "northeast": {
            "lat": 41.8485871,
            "lng": -89.01561339999999
          },
          "southwest": {
            "lat": 41.8485636,
            "lng": -89.0170498
          }
        },
        "location": {
          "lat": 41.8485754,
          "lng": -89.0163316
        },
        "location_type": "GEOMETRIC_CENTER",
        "viewport": {
          "northeast": {
            "lat": 41.8499243302915,
            "lng": -89.01498261970849
          },
          "southwest": {
            "lat": 41.8472263697085,
            "lng": -89.0176805802915
          }
        }
      },
      "place_id": "ChIJAYuyHbMmCYgR7cdyuZBqSKc",
      "types": [
        "route"
      ]
    },
    {
      "address_components": [
        {
          "long_name": "Steward",
          "short_name": "Steward",
          "types": [
            "locality",
            "political"
          ]
        },
        {
          "long_name": "Alto Township",
          "short_name": "Alto Township",
          "types": [
            "administrative_area_level_3",
            "political"
          ]
        },
        {
          "long_name": "Lee County",
          "short_name": "Lee County",
          "types": [
            "administrative_area_level_2",
            "political"
          ]
        },
        {
          "long_name": "Illinois",
          "short_name": "IL",
          "types": [
            "administrative_area_level_1",
            "political"
          ]
        },
        {
          "long_name": "United States",
          "short_name": "US",
          "types": [
            "country",
            "political"
          ]
        }
      ],
      "formatted_address": "Steward, IL, USA",
      "geometry": {
        "bounds": {
          "northeast": {
            "lat": 41.851585,
            "lng": -89.015569
          },
          "southwest": {
            "lat": 41.8462781,
            "lng": -89.0246619
          }
        },
        "location": {
          "lat": 41.84780689999999,
          "lng": -89.0200933
        },
        "location_type": "APPROXIMATE",
        "viewport": {
          "northeast": {
            "lat": 41.851585,
            "lng": -89.015569
          },
          "southwest": {
            "lat": 41.8462781,
            "lng": -89.0246619
          }
        }
      },
      "place_id": "ChIJIxgH-UwhCYgRUb4d7WQUmR8",
      "types": [
        "locality",
        "political"
      ]
    },
    {
      "address_components": [
        {
          "long_name": "Alto Township",
          "short_name": "Alto Township",
          "types": [
            "administrative_area_level_3",
            "political"
          ]
        },
        {
          "long_name": "Lee County",
          "short_name": "Lee County",
          "types": [
            "administrative_area_level_2",
            "political"
          ]
        },
        {
          "long_name": "Illinois",
          "short_name": "IL",
          "types": [
            "administrative_area_level_1",
            "political"
          ]
        },
        {
          "long_name": "United States",
          "short_name": "US",
          "types": [
            "country",
            "political"
          ]
        }
      ],
      "formatted_address": "Alto Township, IL, USA",
      "geometry": {
        "bounds": {
          "northeast": {
            "lat": 41.8917518,
            "lng": -88.941279
          },
          "southwest": {
            "lat": 41.803444,
            "lng": -89.05409399999999
          }
        },
        "location": {
          "lat": 41.8557291,
          "lng": -88.99880979999999
        },
        "location_type": "APPROXIMATE",
        "viewport": {
          "northeast": {
            "lat": 41.8917518,
            "lng": -88.941279
          },
          "southwest": {
            "lat": 41.803444,
            "lng": -89.05409399999999
          }
        }
      },
      "place_id": "ChIJIwAMi-omCYgRAN1QHHykn1w",
      "types": [
        "administrative_area_level_3",
        "political"
      ]
    },
    {
      "address_components": [
        {
          "long_name": "60553",
          "short_name": "60553",
          "types": [
            "postal_code"
          ]
        },
        {
          "long_name": "Steward",
          "short_name": "Steward",
          "types": [
            "locality",
            "political"
          ]
        },
        {
          "long_name": "Illinois",
          "short_name": "IL",
          "types": [
            "administrative_area_level_1",
            "political"
          ]
        },
        {
          "long_name": "United States",
          "short_name": "US",
          "types": [
            "country",
            "political"
          ]
        }
      ],
      "formatted_address": "Steward, IL 60553, USA",
      "geometry": {
        "bounds": {
          "northeast": {
            "lat": 41.902131,
            "lng": -88.941279
          },
          "southwest": {
            "lat": 41.695527,
            "lng": -89.11236
          }
        },
        "location": {
          "lat": 41.8553904,
          "lng": -88.96053649999999
        },
        "location_type": "APPROXIMATE",
        "viewport": {
          "northeast": {
            "lat": 41.902131,
            "lng": -88.941279
          },
          "southwest": {
            "lat": 41.695527,
            "lng": -89.11236
          }
        }
      },
      "place_id": "ChIJw0iZ_J8jCYgR2PQZtYcI0f4",
      "types": [
        "postal_code"
      ]
    },
    {
      "address_components": [
        {
          "long_name": "Dixon",
          "short_name": "Dixon",
          "types": [
            "political"
          ]
        },
        {
          "long_name": "Illinois",
          "short_name": "IL",
          "types": [
            "administrative_area_level_1",
            "political"
          ]
        },
        {
          "long_name": "United States",
          "short_name": "US",
          "types": [
            "country",
            "political"
          ]
        }
      ],
      "formatted_address": "Dixon, IL, USA",
      "geometry": {
        "bounds": {
          "northeast": {
            "lat": 41.9125239,
            "lng": -88.938634
          },
          "southwest": {
            "lat": 41.58465899999999,
            "lng": -89.63239709999999
          }
        },
        "location": {
          "lat": 41.6789842,
          "lng": -89.3226954
        },
        "location_type": "APPROXIMATE",
        "viewport": {
          "northeast": {
            "lat": 41.9125239,
            "lng": -88.938634
          },
          "southwest": {
            "lat": 41.58465899999999,
            "lng": -89.63239709999999
          }
        }
      },
      "place_id": "ChIJwd4-4mgPCYgRcFHiZWw2wgc",
      "types": [
        "political"
      ]
    },
    {
      "address_components": [
        {
          "long_name": "Lee County",
          "short_name": "Lee County",
          "types": [
            "administrative_area_level_2",
            "political"
          ]
        },
        {
          "long_name": "Illinois",
          "short_name": "IL",
          "types": [
            "administrative_area_level_1",
            "political"
          ]
        },
        {
          "long_name": "United States",
          "short_name": "US",
          "types": [
            "country",
            "political"
          ]
        }
      ],
      "formatted_address": "Lee County, IL, USA",
      "geometry": {
        "bounds": {
          "northeast": {
            "lat": 41.9125239,
            "lng": -88.9386179
          },
          "southwest": {
            "lat": 41.5849059,
            "lng": -89.6324219
          }
        },
        "location": {
          "lat": 41.6789842,
          "lng": -89.3226954
        },
        "location_type": "APPROXIMATE",
        "viewport": {
          "northeast": {
            "lat": 41.9125239,
            "lng": -88.9386179
          },
          "southwest": {
            "lat": 41.5849059,
            "lng": -89.6324219
          }
        }
      },
      "place_id": "ChIJI9KqpU2oCYgRuLFiqhq7Qg4",
      "types": [
        "administrative_area_level_2",
        "political"
      ]
    },
    {
      "address_components": [
        {
          "long_name": "Illinois",
          "short_name": "IL",
          "types": [
            "administrative_area_level_1",
            "political"
          ]
        },
        {
          "long_name": "United States",
          "short_name": "US",
          "types": [
            "country",
            "political"
          ]
        }
      ],
      "formatted_address": "Illinois, USA",
      "geometry": {
        "bounds": {
          "northeast": {
            "lat": 42.5083379,
            "lng": -87.4951991
          },
          "southwest": {
            "lat": 36.970298,
            "lng": -91.5130789
          }
        },
        "location": {
          "lat": 40.6331249,
          "lng": -89.3985283
        },
        "location_type": "APPROXIMATE",
        "viewport": {
          "northeast": {
            "lat": 42.5083379,
            "lng": -87.4951991
          },
          "southwest": {
            "lat": 36.970298,
            "lng": -91.5130789
          }
        }
      },
      "place_id": "ChIJGSZubzgtC4gRVlkRZFCCFX8",
      "types": [
        "administrative_area_level_1",
        "political"
      ]
    },
    {
      "address_components": [
        {
          "long_name": "United States",
          "short_name": "US",
          "types": [
            "country",
            "political"
          ]
        }
      ],
      "formatted_address": "United States",
      "geometry": {
        "bounds": {
          "northeast": {
            "lat": 71.3867745,
            "lng": -66.9502861
          },
          "southwest": {
            "lat": 18.9106768,
            "lng": 172.4458955
          }
        },
        "location": {
          "lat": 37.09024,
          "lng": -95.712891
        },
        "location_type": "APPROXIMATE",
        "viewport": {
          "northeast": {
            "lat": 49.38,
            "lng": -66.94
          },
          "southwest": {
            "lat": 25.82,
            "lng": -124.39
          }
        }
      },
      "place_id": "ChIJCzYy5IS16lQRQrfeQ5K5Oxw",
      "types": [
        "country",
        "political"
      ]
    }
  ],
  "status": "OK"
}
