{
  "results": [
    {
      "address_components": [
        {
          "long_name": "9956-9962",
          "short_name": "9956-9962",
          "types": [
            "street_number"
          ]
        },
        {
          "long_name": "31st Avenue Northeast",
          "short_name": "31st Ave NE",
          "types": [
            "route"
          ]
        },
        {
          "long_name": "Dunseith",
          "short_name": "Dunseith",
          "types": [
            "locality",
            "political"
          ]
        },
        {
          "long_name": "North Rolette",
          "short_name": "North Rolette",
          "types": [
            "administrative_area_level_3",
            "political"
          ]
        },
        {
          "long_name": "Rolette County",
          "short_name": "Rolette County",
          "types": [
            "administrative_area_level_2",
            "political"
          ]
        },
        {
          "long_name": "North Dakota",
          "short_name": "ND",
          "types": [
            "administrative_area_level_1",
            "political"
          ]
        },
        {
          "long_name": "United States",
          "short_name": "US",
          "types": [
            "country",
            "political"
          ]
        },
        {
          "long_name": "58329",
          "short_name": "58329",
          "types": [
            "postal_code"
          ]
        }
      ],
      "formatted_address": "9956-9962 31st Ave NE, Dunseith, ND 58329, USA",
      "geometry": {
        "bounds": {
          "northeast": {
            "lat": 48.8577681,
            "lng": -100.0296408
          },
          "southwest": {
            "lat": 48.8537606,
            "lng": -100.0297101
          }
        },
        "location": {
          "lat": 48.8546231,
          "lng": -100.0296764
        },
        "location_type": "RANGE_INTERPOLATED",
        "viewport": {
          "northeast": {
            "lat": 48.8577681,
            "lng": -100.0283264697085
          },
          "southwest": {
            "lat": 48.8537606,
            "lng": -100.0310244302915
          }
        }
      },
      "place_id": "Ei45OTU2LTk5NjIgMzFzdCBBdmUgTkUsIER1bnNlaXRoLCBORCA1ODMyOSwgVVNB",
      "types": [
        "street_address"
      ]
    },
    {
      "address_components": [
        {
          "long_name": "East Dunseith",
          "short_name": "East Dunseith",
          "types": [
            "locality",
            "political"
          ]
        },
        {
          "long_name": "North Rolette",
          "short_name": "North Rolette",
          "types": [
            "administrative_area_level_3",
            "political"
          ]
        },
        {
          "long_name": "Rolette County",
          "short_name": "Rolette County",
          "types": [
            "administrative_area_level_2",
            "political"
          ]
        },
        {
          "long_name": "North Dakota",
          "short_name": "ND",
          "types": [
            "administrative_area_level_1",
            "political"
          ]
        },
        {
          "long_name": "United States",
          "short_name": "US",
          "types": [
            "country",
            "political"
          ]
        },
        {
          "long_name": "58329",
          "short_name": "58329",
          "types": [
            "postal_code"
          ]
        }
      ],
      "formatted_address": "East Dunseith, ND 58329, USA",
      "geometry": {
        "bounds": {
          "northeast": {
            "lat": 48.8779271,
            "lng": -100.0080649
          },
          "southwest": {
            "lat": 48.8492259,
            "lng": -100.0298338
          }
        },
        "location": {
          "lat": 48.8655575,
          "lng": -100.0167982
        },
        "location_type": "APPROXIMATE",
        "viewport": {
          "northeast": {
            "lat": 48.8779271,
            "lng": -100.0080649
          },
          "southwest": {
            "lat": 48.8492259,
            "lng": -100.0298338
          }
        }
      },
      "place_id": "ChIJ7ygFJz5S3FIRDbl8rGnhFOY",
      "types": [
        "locality",
        "political"
      ]
    },
    {
      "address_components": [
        {
          "long_name": "58329",
          "short_name": "58329",
          "types": [
            "postal_code"
          ]
        },
        {
          "long_name": "Dunseith",
          "short_name": "Dunseith",
          "types": [
            "locality",
            "political"
          ]
        },
        {
          "long_name": "North Dakota",
          "short_name": "ND",
          "types": [
            "administrative_area_level_1",
            "political"
          ]
        },
        {
          "long_name": "United States",
          "short_name": "US",
          "types": [
            "country",
            "political"
          ]
        }
      ],
      "formatted_address": "Dunseith, ND 58329, USA",
      "geometry": {
        "bounds": {
          "northeast": {
            "lat": 48.9992779,
            "lng": -99.876531
          },
          "southwest": {
            "lat": 48.7188549,
            "lng": -100.254406
          }
        },
        "location": {
          "lat": 48.8817917,
          "lng": -100.1009319
        },
        "location_type": "APPROXIMATE",
        "viewport": {
          "northeast": {
            "lat": 48.9992779,
            "lng": -99.876531
          },
          "southwest": {
            "lat": 48.7188549,
            "lng": -100.254406
          }
        }
      },
      "place_id": "ChIJ9_X-1b9N3FIRcxNLxfazmaI",
      "postcode_localities": [
        "Dunseith",
        "San Haven"
      ],
      "types": [
        "postal_code"
      ]
    },
    {
      "address_components": [
        {
          "long_name": "North Rolette",
          "short_name": "North Rolette",
          "types": [
            "administrative_area_level_3",
            "political"
          ]
        },
        {
          "long_name": "Rolette County",
          "short_name": "Rolette County",
          "types": [
            "administrative_area_level_2",
            "political"
          ]
        },
        {
          "long_name": "North Dakota",
          "short_name": "ND",
          "types": [
            "administrative_area_level_1",
            "political"
          ]
        },
        {
          "long_name": "United States",
          "short_name": "US",
          "types": [
            "country",
            "political"
          ]
        }
      ],
      "formatted_address": "North Rolette, ND, USA",
      "geometry": {
        "bounds": {
          "northeast": {
            "lat": 48.99929710000001,
            "lng": -99.6569749
          },
          "southwest": {
            "lat": 48.762113,
            "lng": -100.1829986
          }
        },
        "location": {
          "lat": 48.8907116,
          "lng": -99.9993397
        },
        "location_type": "APPROXIMATE",
        "viewport": {
          "northeast": {
            "lat": 48.99929710000001,
            "lng": -99.6569749
          },
          "southwest": {
            "lat": 48.762113,
            "lng": -100.1829986
          }
        }
      },
      "place_id": "ChIJ2wQVSWpU3FIRgRx4GK6qgkA",
      "types": [
        "administrative_area_level_3",
        "political"
      ]
    },
    {
      "address_components": [
        {
          "long_name": "Rolette County",
          "short_name": "Rolette County",
          "types": [
            "administrative_area_level_2",
            "political"
          ]
        },
        {
          "long_name": "North Dakota",
          "short_name": "ND",
          "types": [
            "administrative_area_level_1",
            "political"
          ]
        },
        {
          "long_name": "United States",
          "short_name": "US",
          "types": [
            "country",
            "political"
          ]
        }
      ],
      "formatted_address": "Rolette County, ND, USA",
      "geometry": {
        "bounds": {
          "northeast": {
            "lat": 48.9993079,
            "lng": -99.492915
          },
          "southwest": {
            "lat": 48.5447889,
            "lng": -100.1830491
          }
        },
        "location": {
          "lat": 48.6981517,
          "lng": -99.87911659999999
        },
        "location_type": "APPROXIMATE",
        "viewport": {
          "northeast": {
            "lat": 48.9993079,
            "lng": -99.492915
          },
          "southwest": {
            "lat": 48.5447889,
            "lng": -100.1830491
          }
        }
      },
      "place_id": "ChIJUwunjPVY3FIRY0dBdCS41uE",
      "types": [
        "administrative_area_level_2",
        "political"
      ]
    },
    {
      "address_components": [
        {
          "long_name": "North Dakota",
          "short_name": "ND",
          "types": [
            "administrative_area_level_1",
            "political"
          ]
        },
        {
          "long_name": "United States",
          "short_name": "US",
          "types": [
            "country",
            "political"
          ]
        }
      ],
      "formatted_address": "North Dakota, USA",
      "geometry": {
        "bounds": {
          "northeast": {
            "lat": 49.000692,
            "lng": -96.554491
          },
          "southwest": {
            "lat": 45.9350719,
            "lng": -104.05004
          }
        },
        "location": {
          "lat": 47.5514926,
          "lng": -101.0020119
        },
        "location_type": "APPROXIMATE",
        "viewport": {
          "northeast": {
            "lat": 49.000692,
            "lng": -96.554491
          },
          "southwest": {
            "lat": 45.9350719,
            "lng": -104.05004
          }
        }
      },
      "place_id": "ChIJY-nYVxKD11IRyc9egzmahA0",
      "types": [
        "administrative_area_level_1",
        "political"
      ]
    },
    {
      "address_components": [
        {
          "long_name": "United States",
          "short_name": "US",
          "types": [
            "country",
            "political"
          ]
        }
      ],
      "formatted_address": "United States",
      "geometry": {
        "bounds": {
          "northeast": {
            "lat": 71.3867745,
            "lng": -66.9502861
          },
          "southwest": {
            "lat": 18.9106768,
            "lng": 172.4458955
          }
        },
        "location": {
          "lat": 37.09024,
          "lng": -95.712891
        },
        "location_type": "APPROXIMATE",
        "viewport": {
          "northeast": {
            "lat": 49.38,
            "lng": -66.94
          },
          "southwest": {
            "lat": 25.82,
            "lng": -124.39
          }
        }
      },
      "place_id": "ChIJCzYy5IS16lQRQrfeQ5K5Oxw",
      "types": [
        "country",
        "political"
      ]
    }
  ],
  "status": "OK"
}
