{
  "results": [
    {
      "address_components": [
        {
          "long_name": "613",
          "short_name": "613",
          "types": [
            "street_number"
          ]
        },
        {
          "long_name": "Fleming Street",
          "short_name": "Fleming St",
          "types": [
            "route"
          ]
        },
        {
          "long_name": "Mitchell",
          "short_name": "Mitchell",
          "types": [
            "neighborhood",
            "political"
          ]
        },
        {
          "long_name": "Granite City",
          "short_name": "Granite City",
          "types": [
            "locality",
            "political"
          ]
        },
        {
          "long_name": "Chouteau Township",
          "short_name": "Chouteau Township",
          "types": [
            "administrative_area_level_3",
            "political"
          ]
        },
        {
          "long_name": "Madison County",
          "short_name": "Madison County",
          "types": [
            "administrative_area_level_2",
            "political"
          ]
        },
        {
          "long_name": "Illinois",
          "short_name": "IL",
          "types": [
            "administrative_area_level_1",
            "political"
          ]
        },
        {
          "long_name": "United States",
          "short_name": "US",
          "types": [
            "country",
            "political"
          ]
        },
        {
          "long_name": "62040",
          "short_name": "62040",
          "types": [
            "postal_code"
          ]
        },
        {
          "long_name": "2821",
          "short_name": "2821",
          "types": [
            "postal_code_suffix"
          ]
        }
      ],
      "formatted_address": "613 Fleming St, Granite City, IL 62040, USA",
      "geometry": {
        "location": {
          "lat": 38.7630363,
          "lng": -90.0810773
        },
        "location_type": "ROOFTOP",
        "viewport": {
          "northeast": {
            "lat": 38.76438528029149,
            "lng": -90.07972831970851
          },
          "southwest": {
            "lat": 38.76168731970849,
            "lng": -90.08242628029151
          }
        }
      },
      "place_id": "ChIJP7ejMjFR34cRJs3q-vE3Wpk",
      "types": [
        "street_address"
      ]
    },
    {
      "address_components": [
        {
          "long_name": "Mitchell",
          "short_name": "Mitchell",
          "types": [
            "neighborhood",
            "political"
          ]
        },
        {
          "long_name": "Chouteau Township",
          "short_name": "Chouteau Township",
          "types": [
            "administrative_area_level_3",
            "political"
          ]
        },
        {
          "long_name": "Madison County",
          "short_name": "Madison County",
          "types": [
            "administrative_area_level_2",
            "political"
          ]
        },
        {
          "long_name": "Illinois",
          "short_name": "IL",
          "types": [
            "administrative_area_level_1",
            "political"
          ]
        },
        {
          "long_name": "United States",
          "short_name": "US",
          "types": [
            "country",
            "political"
          ]
        },
        {
          "long_name": "62040",
          "short_name": "62040",
          "types": [
            "postal_code"
          ]
        }
      ],
      "formatted_address": "Mitchell, Chouteau Township, IL 62040, USA",
      "geometry": {
        "bounds": {
          "northeast": {
            "lat": 38.7690394,
            "lng": -90.0667481
          },
          "southwest": {
            "lat": 38.7577918,
            "lng": -90.09386119999999
          }
        },
        "location": {
          "lat": 38.76427580000001,
          "lng": -90.08051689999999
        },
        "location_type": "APPROXIMATE",
        "viewport": {
          "northeast": {
            "lat": 38.7690394,
            "lng": -90.0667481
          },
          "southwest": {
            "lat": 38.7577918,
            "lng": -90.09386119999999
          }
        }
      },
      "place_id": "ChIJZwiJkzlR34cR682nbuB4OtM",
      "types": [
        "neighborhood",
        "political"
      ]
    },
    {
      "address_components": [
        {
          "long_name": "Chouteau Township",
          "short_name": "Chouteau Township",
          "types": [
            "administrative_area_level_3",
            "political"
          ]
        },
        {
          "long_name": "Madison County",
          "short_name": "Madison County",
          "types": [
            "administrative_area_level_2",
            "political"
          ]
        },
        {
          "long_name": "Illinois",
          "short_name": "IL",
          "types": [
            "administrative_area_level_1",
            "political"
          ]
        },
        {
          "long_name": "United States",
          "short_name": "US",
          "types": [
            "country",
            "political"
          ]
        }
      ],
      "formatted_address": "Chouteau Township, IL, USA",
      "geometry": {
        "bounds": {
          "northeast": {
            "lat": 38.8335761,
            "lng": -90.03820300000001
          },
          "southwest": {
            "lat": 38.745948,
            "lng": -90.1836089
          }
        },
        "location": {
          "lat": 38.7995867,
          "lng": -90.09336859999999
        },
        "location_type": "APPROXIMATE",
        "viewport": {
          "northeast": {
            "lat": 38.8335761,
            "lng": -90.03820300000001
          },
          "southwest": {
            "lat": 38.745948,
            "lng": -90.1836089
          }
        }
      },
      "place_id": "ChIJDfJZsfNQ34cR9wgHZoO219k",
      "types": [
        "administrative_area_level_3",
        "political"
      ]
    },
    {
      "address_components": [
        {
          "long_name": "62040",
          "short_name": "62040",
          "types": [
            "postal_code"
          ]
        },
        {
          "long_name": "Granite City",
          "short_name": "Granite City",
          "types": [
            "locality",
            "political"
          ]
        },
        {
          "long_name": "Illinois",
          "short_name": "IL",
          "types": [
            "administrative_area_level_1",
            "political"
          ]
        },
        {
          "long_name": "United States",
          "short_name": "US",
          "types": [
            "country",
            "political"
          ]
        }
      ],
      "formatted_address": "Granite City, IL 62040, USA",
      "geometry": {
        "bounds": {
          "northeast": {
            "lat": 38.805748,
            "lng": -90.0253939
          },
          "southwest": {
            "lat": 38.6627999,
            "lng": -90.21298
          }
        },
        "location": {
          "lat": 38.7157973,
          "lng": -90.13077969999999
        },
        "location_type": "APPROXIMATE",
        "viewport": {
          "northeast": {
            "lat": 38.805748,
            "lng": -90.0253939
          },
          "southwest": {
            "lat": 38.6627999,
            "lng": -90.21298
          }
        }
      },
      "place_id": "ChIJ7QWWazJS34cRy4AE81CEkt0",
      "postcode_localities": [
        "Granite City",
        "Pontoon Beach"
      ],
      "types": [
        "postal_code"
      ]
    },
    {
      "address_components": [
        {
          "long_name": "Madison County",
          "short_name": "Madison County",
          "types": [
            "administrative_area_level_2",
            "political"
          ]
        },
        {
          "long_name": "Illinois",
          "short_name": "IL",
          "types": [
            "administrative_area_level_1",
            "political"
          ]
        },
        {
          "long_name": "United States",
          "short_name": "US",
          "types": [
            "country",
            "political"
          ]
        }
      ],
      "formatted_address": "Madison County, IL, USA",
      "geometry": {
        "bounds": {
          "northeast": {
            "lat": 39.000047,
            "lng": -89.595103
          },
          "southwest": {
            "lat": 38.655079,
            "lng": -90.27601200000001
          }
        },
        "location": {
          "lat": 38.9041402,
          "lng": -89.9253233
        },
        "location_type": "APPROXIMATE",
        "viewport": {
          "northeast": {
            "lat": 39.0000488,
            "lng": -89.595103
          },
          "southwest": {
            "lat": 38.655079,
            "lng": -90.27601200000001
          }
        }
      },
      "place_id": "ChIJCbty6Ib3dYgR05bPn6vNj2M",
      "types": [
        "administrative_area_level_2",
        "political"
      ]
    },
    {
      "address_components": [
        {
          "long_name": "St. Louis",
          "short_name": "St. Louis",
          "types": [
            "political"
          ]
        },
        {
          "long_name": "United States",
          "short_name": "US",
          "types": [
            "country",
            "political"
          ]
        }
      ],
      "formatted_address": "St. Louis, USA",
      "geometry": {
        "bounds": {
          "northeast": {
            "lat": 39.5233661,
            "lng": -89.138356
          },
          "southwest": {
            "lat": 37.7341961,
            "lng": -91.4186371
          }
        },
        "location": {
          "lat": 38.8196814,
          "lng": -90.4502368
        },
        "location_type": "APPROXIMATE",
        "viewport": {
          "northeast": {
            "lat": 39.5233661,
            "lng": -89.138356
          },
          "southwest": {
            "lat": 37.7341961,
            "lng": -91.4186371
          }
        }
      },
      "place_id": "ChIJneBzzj4z34cRFGg2ez6q57o",
      "types": [
        "political"
      ]
    },
    {
      "address_components": [
        {
          "long_name": "Illinois",
          "short_name": "IL",
          "types": [
            "administrative_area_level_1",
            "political"
          ]
        },
        {
          "long_name": "United States",
          "short_name": "US",
          "types": [
            "country",
            "political"
          ]
        }
      ],
      "formatted_address": "Illinois, USA",
      "geometry": {
        "bounds": {
          "northeast": {
            "lat": 42.5083379,
            "lng": -87.4951991
          },
          "southwest": {
            "lat": 36.970298,
            "lng": -91.5130789
          }
        },
        "location": {
          "lat": 40.6331249,
          "lng": -89.3985283
        },
        "location_type": "APPROXIMATE",
        "viewport": {
          "northeast": {
            "lat": 42.5083379,
            "lng": -87.4951991
          },
          "southwest": {
            "lat": 36.970298,
            "lng": -91.5130789
          }
        }
      },
      "place_id": "ChIJGSZubzgtC4gRVlkRZFCCFX8",
      "types": [
        "administrative_area_level_1",
        "political"
      ]
    },
    {
      "address_components": [
        {
          "long_name": "United States",
          "short_name": "US",
          "types": [
            "country",
            "political"
          ]
        }
      ],
      "formatted_address": "United States",
      "geometry": {
        "bounds": {
          "northeast": {
            "lat": 71.3867745,
            "lng": -66.9502861
          },
          "southwest": {
            "lat": 18.9106768,
            "lng": 172.4458955
          }
        },
        "location": {
          "lat": 37.09024,
          "lng": -95.712891
        },
        "location_type": "APPROXIMATE",
        "viewport": {
          "northeast": {
            "lat": 49.38,
            "lng": -66.94
          },
          "southwest": {
            "lat": 25.82,
            "lng": -124.39
          }
        }
      },
      "place_id": "ChIJCzYy5IS16lQRQrfeQ5K5Oxw",
      "types": [
        "country",
        "political"
      ]
    }
  ],
  "status": "OK"
}
