{
  "results": [
    {
      "address_components": [
        {
          "long_name": "908",
          "short_name": "908",
          "types": [
            "street_number"
          ]
        },
        {
          "long_name": "Walnut Street",
          "short_name": "Walnut St",
          "types": [
            "route"
          ]
        },
        {
          "long_name": "Eldorado",
          "short_name": "Eldorado",
          "types": [
            "locality",
            "political"
          ]
        },
        {
          "long_name": "East Eldorado Township",
          "short_name": "East Eldorado Township",
          "types": [
            "administrative_area_level_3",
            "political"
          ]
        },
        {
          "long_name": "Saline County",
          "short_name": "Saline County",
          "types": [
            "administrative_area_level_2",
            "political"
          ]
        },
        {
          "long_name": "Illinois",
          "short_name": "IL",
          "types": [
            "administrative_area_level_1",
            "political"
          ]
        },
        {
          "long_name": "United States",
          "short_name": "US",
          "types": [
            "country",
            "political"
          ]
        },
        {
          "long_name": "62930",
          "short_name": "62930",
          "types": [
            "postal_code"
          ]
        },
        {
          "long_name": "1224",
          "short_name": "1224",
          "types": [
            "postal_code_suffix"
          ]
        }
      ],
      "formatted_address": "908 Walnut St, Eldorado, IL 62930, USA",
      "geometry": {
        "location": {
          "lat": 37.8115394,
          "lng": -88.4418575
        },
        "location_type": "ROOFTOP",
        "viewport": {
          "northeast": {
            "lat": 37.8128883802915,
            "lng": -88.44050851970849
          },
          "southwest": {
            "lat": 37.8101904197085,
            "lng": -88.44320648029151
          }
        }
      },
      "place_id": "ChIJB6iXHs3ncIgR6_bndB_MiaU",
      "types": [
        "street_address"
      ]
    },
    {
      "address_components": [
        {
          "long_name": "Eldorado",
          "short_name": "Eldorado",
          "types": [
            "locality",
            "political"
          ]
        },
        {
          "long_name": "East Eldorado Township",
          "short_name": "East Eldorado Township",
          "types": [
            "administrative_area_level_3",
            "political"
          ]
        },
        {
          "long_name": "Saline County",
          "short_name": "Saline County",
          "types": [
            "administrative_area_level_2",
            "political"
          ]
        },
        {
          "long_name": "Illinois",
          "short_name": "IL",
          "types": [
            "administrative_area_level_1",
            "political"
          ]
        },
        {
          "long_name": "United States",
          "short_name": "US",
          "types": [
            "country",
            "political"
          ]
        },
        {
          "long_name": "62930",
          "short_name": "62930",
          "types": [
            "postal_code"
          ]
        }
      ],
      "formatted_address": "Eldorado, IL 62930, USA",
      "geometry": {
        "bounds": {
          "northeast": {
            "lat": 37.834269,
            "lng": -88.420816
          },
          "southwest": {
            "lat": 37.7976559,
            "lng": -88.465604
          }
        },
        "location": {
          "lat": 37.8136583,
          "lng": -88.43810289999999
        },
        "location_type": "APPROXIMATE",
        "viewport": {
          "northeast": {
            "lat": 37.834269,
            "lng": -88.420816
          },
          "southwest": {
            "lat": 37.7976559,
            "lng": -88.465604
          }
        }
      },
      "place_id": "ChIJJdQITDXmcIgR3M2q5gqCgP4",
      "types": [
        "locality",
        "political"
      ]
    },
    {
      "address_components": [
        {
          "long_name": "East Eldorado Township",
          "short_name": "East Eldorado Township",
          "types": [
            "administrative_area_level_3",
            "political"
          ]
        },
        {
          "long_name": "Saline County",
          "short_name": "Saline County",
          "types": [
            "administrative_area_level_2",
            "political"
          ]
        },
        {
          "long_name": "Illinois",
          "short_name": "IL",
          "types": [
            "administrative_area_level_1",
            "political"
          ]
        },
        {
          "long_name": "United States",
          "short_name": "US",
          "types": [
            "country",
            "political"
          ]
        }
      ],
      "formatted_address": "East Eldorado Township, IL, USA",
      "geometry": {
        "bounds": {
          "northeast": {
            "lat": 37.8639638,
            "lng": -88.37388390000001
          },
          "southwest": {
            "lat": 37.7754289,
            "lng": -88.48622490000001
          }
        },
        "location": {
          "lat": 37.8194627,
          "lng": -88.4210006
        },
        "location_type": "APPROXIMATE",
        "viewport": {
          "northeast": {
            "lat": 37.8639638,
            "lng": -88.37388390000001
          },
          "southwest": {
            "lat": 37.7754289,
            "lng": -88.48622490000001
          }
        }
      },
      "place_id": "ChIJH08jAkjmcIgRQ_hBKbZa6UM",
      "types": [
        "administrative_area_level_3",
        "political"
      ]
    },
    {
      "address_components": [
        {
          "long_name": "62930",
          "short_name": "62930",
          "types": [
            "postal_code"
          ]
        },
        {
          "long_name": "Eldorado",
          "short_name": "Eldorado",
          "types": [
            "locality",
            "political"
          ]
        },
        {
          "long_name": "Illinois",
          "short_name": "IL",
          "types": [
            "administrative_area_level_1",
            "political"
          ]
        },
        {
          "long_name": "United States",
          "short_name": "US",
          "types": [
            "country",
            "political"
          ]
        }
      ],
      "formatted_address": "Eldorado, IL 62930, USA",
      "geometry": {
        "bounds": {
          "northeast": {
            "lat": 37.94737,
            "lng": -88.346195
          },
          "southwest": {
            "lat": 37.7389358,
            "lng": -88.53139709999999
          }
        },
        "location": {
          "lat": 37.8409455,
          "lng": -88.4403883
        },
        "location_type": "APPROXIMATE",
        "viewport": {
          "northeast": {
            "lat": 37.94737,
            "lng": -88.346195
          },
          "southwest": {
            "lat": 37.7389358,
            "lng": -88.53139709999999
          }
        }
      },
      "place_id": "ChIJ6ZZvCarncIgR1DFnM-ZQzpw",
      "types": [
        "postal_code"
      ]
    },
    {
      "address_components": [
        {
          "long_name": "Saline County",
          "short_name": "Saline County",
          "types": [
            "administrative_area_level_2",
            "political"
          ]
        },
        {
          "long_name": "Illinois",
          "short_name": "IL",
          "types": [
            "administrative_area_level_1",
            "political"
          ]
        },
        {
          "long_name": "United States",
          "short_name": "US",
          "types": [
            "country",
            "political"
          ]
        }
      ],
      "formatted_address": "Saline County, IL, USA",
      "geometry": {
        "bounds": {
          "northeast": {
            "lat": 37.9077499,
            "lng": -88.3737721
          },
          "southwest": {
            "lat": 37.599087,
            "lng": -88.7086379
          }
        },
        "location": {
          "lat": 37.7149675,
          "lng": -88.55653099999999
        },
        "location_type": "APPROXIMATE",
        "viewport": {
          "northeast": {
            "lat": 37.9077499,
            "lng": -88.3737721
          },
          "southwest": {
            "lat": 37.599087,
            "lng": -88.7086379
          }
        }
      },
      "place_id": "ChIJL0_yRhrEcIgRRtIhzkZKa8s",
      "types": [
        "administrative_area_level_2",
        "political"
      ]
    },
    {
      "address_components": [
        {
          "long_name": "Harrisburg",
          "short_name": "Harrisburg",
          "types": [
            "political"
          ]
        },
        {
          "long_name": "Illinois",
          "short_name": "IL",
          "types": [
            "administrative_area_level_1",
            "political"
          ]
        },
        {
          "long_name": "United States",
          "short_name": "US",
          "types": [
            "country",
            "political"
          ]
        }
      ],
      "formatted_address": "Harrisburg, IL, USA",
      "geometry": {
        "bounds": {
          "northeast": {
            "lat": 37.907678,
            "lng": -88.37383
          },
          "southwest": {
            "lat": 37.599277,
            "lng": -88.708546
          }
        },
        "location": {
          "lat": 37.7149675,
          "lng": -88.55653099999999
        },
        "location_type": "APPROXIMATE",
        "viewport": {
          "northeast": {
            "lat": 37.907678,
            "lng": -88.37383
          },
          "southwest": {
            "lat": 37.599277,
            "lng": -88.708546
          }
        }
      },
      "place_id": "ChIJa5h3wJ7DcIgR-tDcIzb4fzo",
      "types": [
        "political"
      ]
    },
    {
      "address_components": [
        {
          "long_name": "Illinois",
          "short_name": "IL",
          "types": [
            "administrative_area_level_1",
            "political"
          ]
        },
        {
          "long_name": "United States",
          "short_name": "US",
          "types": [
            "country",
            "political"
          ]
        }
      ],
      "formatted_address": "Illinois, USA",
      "geometry": {
        "bounds": {
          "northeast": {
            "lat": 42.5083379,
            "lng": -87.4951991
          },
          "southwest": {
            "lat": 36.970298,
            "lng": -91.5130789
          }
        },
        "location": {
          "lat": 40.6331249,
          "lng": -89.3985283
        },
        "location_type": "APPROXIMATE",
        "viewport": {
          "northeast": {
            "lat": 42.5083379,
            "lng": -87.4951991
          },
          "southwest": {
            "lat": 36.970298,
            "lng": -91.5130789
          }
        }
      },
      "place_id": "ChIJGSZubzgtC4gRVlkRZFCCFX8",
      "types": [
        "administrative_area_level_1",
        "political"
      ]
    },
    {
      "address_components": [
        {
          "long_name": "United States",
          "short_name": "US",
          "types": [
            "country",
            "political"
          ]
        }
      ],
      "formatted_address": "United States",
      "geometry": {
        "bounds": {
          "northeast": {
            "lat": 71.3867745,
            "lng": -66.9502861
          },
          "southwest": {
            "lat": 18.9106768,
            "lng": 172.4458955
          }
        },
        "location": {
          "lat": 37.09024,
          "lng": -95.712891
        },
        "location_type": "APPROXIMATE",
        "viewport": {
          "northeast": {
            "lat": 49.38,
            "lng": -66.94
          },
          "southwest": {
            "lat": 25.82,
            "lng": -124.39
          }
        }
      },
      "place_id": "ChIJCzYy5IS16lQRQrfeQ5K5Oxw",
      "types": [
        "country",
        "political"
      ]
    }
  ],
  "status": "OK"
}
