{
  "results": [
    {
      "address_components": [
        {
          "long_name": "435",
          "short_name": "435",
          "types": [
            "street_number"
          ]
        },
        {
          "long_name": "Ponderosa Drive",
          "short_name": "Ponderosa Dr",
          "types": [
            "route"
          ]
        },
        {
          "long_name": "Howard",
          "short_name": "Howard",
          "types": [
            "locality",
            "political"
          ]
        },
        {
          "long_name": "Walker Township",
          "short_name": "Walker Township",
          "types": [
            "administrative_area_level_3",
            "political"
          ]
        },
        {
          "long_name": "Centre County",
          "short_name": "Centre County",
          "types": [
            "administrative_area_level_2",
            "political"
          ]
        },
        {
          "long_name": "Pennsylvania",
          "short_name": "PA",
          "types": [
            "administrative_area_level_1",
            "political"
          ]
        },
        {
          "long_name": "United States",
          "short_name": "US",
          "types": [
            "country",
            "political"
          ]
        },
        {
          "long_name": "16841",
          "short_name": "16841",
          "types": [
            "postal_code"
          ]
        },
        {
          "long_name": "4019",
          "short_name": "4019",
          "types": [
            "postal_code_suffix"
          ]
        }
      ],
      "formatted_address": "435 Ponderosa Dr, Howard, PA 16841, USA",
      "geometry": {
        "location": {
          "lat": 40.9857612,
          "lng": -77.5952372
        },
        "location_type": "ROOFTOP",
        "viewport": {
          "northeast": {
            "lat": 40.98711018029149,
            "lng": -77.59388821970849
          },
          "southwest": {
            "lat": 40.9844122197085,
            "lng": -77.59658618029151
          }
        }
      },
      "place_id": "ChIJuyau7u2UzokRoZNujUUrIAw",
      "types": [
        "street_address"
      ]
    },
    {
      "address_components": [
        {
          "long_name": "Walker Township",
          "short_name": "Walker Township",
          "types": [
            "administrative_area_level_3",
            "political"
          ]
        },
        {
          "long_name": "Centre County",
          "short_name": "Centre County",
          "types": [
            "administrative_area_level_2",
            "political"
          ]
        },
        {
          "long_name": "Pennsylvania",
          "short_name": "PA",
          "types": [
            "administrative_area_level_1",
            "political"
          ]
        },
        {
          "long_name": "United States",
          "short_name": "US",
          "types": [
            "country",
            "political"
          ]
        }
      ],
      "formatted_address": "Walker Township, PA, USA",
      "geometry": {
        "bounds": {
          "northeast": {
            "lat": 41.02167499999999,
            "lng": -77.50869709999999
          },
          "southwest": {
            "lat": 40.8749389,
            "lng": -77.709696
          }
        },
        "location": {
          "lat": 40.9427674,
          "lng": -77.6192447
        },
        "location_type": "APPROXIMATE",
        "viewport": {
          "northeast": {
            "lat": 41.02167499999999,
            "lng": -77.50869709999999
          },
          "southwest": {
            "lat": 40.8749389,
            "lng": -77.709696
          }
        }
      },
      "place_id": "ChIJAYqbOJ6VzokRuVYkutF0gvw",
      "types": [
        "administrative_area_level_3",
        "political"
      ]
    },
    {
      "address_components": [
        {
          "long_name": "16841",
          "short_name": "16841",
          "types": [
            "postal_code"
          ]
        },
        {
          "long_name": "Howard",
          "short_name": "Howard",
          "types": [
            "locality",
            "political"
          ]
        },
        {
          "long_name": "Pennsylvania",
          "short_name": "PA",
          "types": [
            "administrative_area_level_1",
            "political"
          ]
        },
        {
          "long_name": "United States",
          "short_name": "US",
          "types": [
            "country",
            "political"
          ]
        }
      ],
      "formatted_address": "Howard, PA 16841, USA",
      "geometry": {
        "bounds": {
          "northeast": {
            "lat": 41.1813949,
            "lng": -77.51427509999999
          },
          "southwest": {
            "lat": 40.912596,
            "lng": -77.848679
          }
        },
        "location": {
          "lat": 41.03844900000001,
          "lng": -77.67651839999999
        },
        "location_type": "APPROXIMATE",
        "viewport": {
          "northeast": {
            "lat": 41.1813949,
            "lng": -77.51427509999999
          },
          "southwest": {
            "lat": 40.912596,
            "lng": -77.848679
          }
        }
      },
      "place_id": "ChIJpSN8RPuTzokRpCjnZ9PFQqQ",
      "types": [
        "postal_code"
      ]
    },
    {
      "address_components": [
        {
          "long_name": "Centre County",
          "short_name": "Centre County",
          "types": [
            "administrative_area_level_2",
            "political"
          ]
        },
        {
          "long_name": "Pennsylvania",
          "short_name": "PA",
          "types": [
            "administrative_area_level_1",
            "political"
          ]
        },
        {
          "long_name": "United States",
          "short_name": "US",
          "types": [
            "country",
            "political"
          ]
        }
      ],
      "formatted_address": "Centre County, PA, USA",
      "geometry": {
        "bounds": {
          "northeast": {
            "lat": 41.2527521,
            "lng": -77.1438039
          },
          "southwest": {
            "lat": 40.69155809999999,
            "lng": -78.376674
          }
        },
        "location": {
          "lat": 40.8765649,
          "lng": -77.8367282
        },
        "location_type": "APPROXIMATE",
        "viewport": {
          "northeast": {
            "lat": 41.2527521,
            "lng": -77.1438039
          },
          "southwest": {
            "lat": 40.69155809999999,
            "lng": -78.376674
          }
        }
      },
      "place_id": "ChIJGag74PqazokRAZZDKnhbMOk",
      "types": [
        "administrative_area_level_2",
        "political"
      ]
    },
    {
      "address_components": [
        {
          "long_name": "State College",
          "short_name": "State College",
          "types": [
            "political"
          ]
        },
        {
          "long_name": "Pennsylvania",
          "short_name": "PA",
          "types": [
            "administrative_area_level_1",
            "political"
          ]
        },
        {
          "long_name": "United States",
          "short_name": "US",
          "types": [
            "country",
            "political"
          ]
        }
      ],
      "formatted_address": "State College, PA, USA",
      "geometry": {
        "bounds": {
          "northeast": {
            "lat": 41.252868,
            "lng": -77.143667
          },
          "southwest": {
            "lat": 40.691591,
            "lng": -78.376678
          }
        },
        "location": {
          "lat": 40.8765649,
          "lng": -77.8367282
        },
        "location_type": "APPROXIMATE",
        "viewport": {
          "northeast": {
            "lat": 41.252868,
            "lng": -77.143667
          },
          "southwest": {
            "lat": 40.691591,
            "lng": -78.376678
          }
        }
      },
      "place_id": "ChIJZ-tZ-DOizokRDxWcxSBdBvQ",
      "types": [
        "political"
      ]
    },
    {
      "address_components": [
        {
          "long_name": "Pennsylvania",
          "short_name": "PA",
          "types": [
            "administrative_area_level_1",
            "political"
          ]
        },
        {
          "long_name": "United States",
          "short_name": "US",
          "types": [
            "country",
            "political"
          ]
        }
      ],
      "formatted_address": "Pennsylvania, USA",
      "geometry": {
        "bounds": {
          "northeast": {
            "lat": 42.2693866,
            "lng": -74.6895018
          },
          "southwest": {
            "lat": 39.7197989,
            "lng": -80.51989499999999
          }
        },
        "location": {
          "lat": 41.2033216,
          "lng": -77.1945247
        },
        "location_type": "APPROXIMATE",
        "viewport": {
          "northeast": {
            "lat": 42.2693866,
            "lng": -74.6895018
          },
          "southwest": {
            "lat": 39.7197989,
            "lng": -80.51989499999999
          }
        }
      },
      "place_id": "ChIJieUyHiaALYgRPbQiUEchRsI",
      "types": [
        "administrative_area_level_1",
        "political"
      ]
    },
    {
      "address_components": [
        {
          "long_name": "United States",
          "short_name": "US",
          "types": [
            "country",
            "political"
          ]
        }
      ],
      "formatted_address": "United States",
      "geometry": {
        "bounds": {
          "northeast": {
            "lat": 71.3867745,
            "lng": -66.9502861
          },
          "southwest": {
            "lat": 18.9106768,
            "lng": 172.4458955
          }
        },
        "location": {
          "lat": 37.09024,
          "lng": -95.712891
        },
        "location_type": "APPROXIMATE",
        "viewport": {
          "northeast": {
            "lat": 49.38,
            "lng": -66.94
          },
          "southwest": {
            "lat": 25.82,
            "lng": -124.39
          }
        }
      },
      "place_id": "ChIJCzYy5IS16lQRQrfeQ5K5Oxw",
      "types": [
        "country",
        "political"
      ]
    }
  ],
  "status": "OK"
}
