{
  "results": [
    {
      "address_components": [
        {
          "long_name": "5th Avenue Northwest",
          "short_name": "5th Ave NW",
          "types": [
            "route"
          ]
        },
        {
          "long_name": "Gwinner",
          "short_name": "Gwinner",
          "types": [
            "locality",
            "political"
          ]
        },
        {
          "long_name": "Sargent County",
          "short_name": "Sargent County",
          "types": [
            "administrative_area_level_2",
            "political"
          ]
        },
        {
          "long_name": "North Dakota",
          "short_name": "ND",
          "types": [
            "administrative_area_level_1",
            "political"
          ]
        },
        {
          "long_name": "United States",
          "short_name": "US",
          "types": [
            "country",
            "political"
          ]
        },
        {
          "long_name": "58040",
          "short_name": "58040",
          "types": [
            "postal_code"
          ]
        }
      ],
      "formatted_address": "5th Ave NW, Gwinner, ND 58040, USA",
      "geometry": {
        "bounds": {
          "northeast": {
            "lat": 46.2328771,
            "lng": -97.6708366
          },
          "southwest": {
            "lat": 46.2321204,
            "lng": -97.67422069999999
          }
        },
        "location": {
          "lat": 46.2327291,
          "lng": -97.67236820000001
        },
        "location_type": "GEOMETRIC_CENTER",
        "viewport": {
          "northeast": {
            "lat": 46.2338477302915,
            "lng": -97.6708366
          },
          "southwest": {
            "lat": 46.2311497697085,
            "lng": -97.67422069999999
          }
        }
      },
      "place_id": "ChIJn3QQYkJozlIR44qziQZMgV8",
      "types": [
        "route"
      ]
    },
    {
      "address_components": [
        {
          "long_name": "Whitestone Hill",
          "short_name": "Whitestone Hill",
          "types": [
            "administrative_area_level_3",
            "political"
          ]
        },
        {
          "long_name": "Sargent County",
          "short_name": "Sargent County",
          "types": [
            "administrative_area_level_2",
            "political"
          ]
        },
        {
          "long_name": "North Dakota",
          "short_name": "ND",
          "types": [
            "administrative_area_level_1",
            "political"
          ]
        },
        {
          "long_name": "United States",
          "short_name": "US",
          "types": [
            "country",
            "political"
          ]
        }
      ],
      "formatted_address": "Whitestone Hill, ND, USA",
      "geometry": {
        "bounds": {
          "northeast": {
            "lat": 46.282456,
            "lng": -97.63213309999999
          },
          "southwest": {
            "lat": 46.196362,
            "lng": -97.75725589999999
          }
        },
        "location": {
          "lat": 46.2365505,
          "lng": -97.71883319999999
        },
        "location_type": "APPROXIMATE",
        "viewport": {
          "northeast": {
            "lat": 46.282456,
            "lng": -97.63213309999999
          },
          "southwest": {
            "lat": 46.196362,
            "lng": -97.75725589999999
          }
        }
      },
      "place_id": "ChIJqy0lFDVozlIRVteT8aPSGiY",
      "types": [
        "administrative_area_level_3",
        "political"
      ]
    },
    {
      "address_components": [
        {
          "long_name": "58040",
          "short_name": "58040",
          "types": [
            "postal_code"
          ]
        },
        {
          "long_name": "Gwinner",
          "short_name": "Gwinner",
          "types": [
            "locality",
            "political"
          ]
        },
        {
          "long_name": "North Dakota",
          "short_name": "ND",
          "types": [
            "administrative_area_level_1",
            "political"
          ]
        },
        {
          "long_name": "United States",
          "short_name": "US",
          "types": [
            "country",
            "political"
          ]
        }
      ],
      "formatted_address": "Gwinner, ND 58040, USA",
      "geometry": {
        "bounds": {
          "northeast": {
            "lat": 46.2970789,
            "lng": -97.5599269
          },
          "southwest": {
            "lat": 46.1666429,
            "lng": -98.0278249
          }
        },
        "location": {
          "lat": 46.1987493,
          "lng": -97.70858369999999
        },
        "location_type": "APPROXIMATE",
        "viewport": {
          "northeast": {
            "lat": 46.2969789,
            "lng": -97.5599269
          },
          "southwest": {
            "lat": 46.1666429,
            "lng": -97.81974989999999
          }
        }
      },
      "place_id": "ChIJRY_TrO5ozlIRRB1tWvD0fYQ",
      "postcode_localities": [
        "Crete",
        "Gwinner"
      ],
      "types": [
        "postal_code"
      ]
    },
    {
      "address_components": [
        {
          "long_name": "Sargent County",
          "short_name": "Sargent County",
          "types": [
            "administrative_area_level_2",
            "political"
          ]
        },
        {
          "long_name": "North Dakota",
          "short_name": "ND",
          "types": [
            "administrative_area_level_1",
            "political"
          ]
        },
        {
          "long_name": "United States",
          "short_name": "US",
          "types": [
            "country",
            "political"
          ]
        }
      ],
      "formatted_address": "Sargent County, ND, USA",
      "geometry": {
        "bounds": {
          "northeast": {
            "lat": 46.2826719,
            "lng": -97.22829100000001
          },
          "southwest": {
            "lat": 45.9350719,
            "lng": -98.0081101
          }
        },
        "location": {
          "lat": 46.1089195,
          "lng": -97.61524179999999
        },
        "location_type": "APPROXIMATE",
        "viewport": {
          "northeast": {
            "lat": 46.2826719,
            "lng": -97.22829100000001
          },
          "southwest": {
            "lat": 45.9350719,
            "lng": -98.0081101
          }
        }
      },
      "place_id": "ChIJcUtsRPdlzlIR9gOtepj52jw",
      "types": [
        "administrative_area_level_2",
        "political"
      ]
    },
    {
      "address_components": [
        {
          "long_name": "North Dakota",
          "short_name": "ND",
          "types": [
            "administrative_area_level_1",
            "political"
          ]
        },
        {
          "long_name": "United States",
          "short_name": "US",
          "types": [
            "country",
            "political"
          ]
        }
      ],
      "formatted_address": "North Dakota, USA",
      "geometry": {
        "bounds": {
          "northeast": {
            "lat": 49.000692,
            "lng": -96.554491
          },
          "southwest": {
            "lat": 45.9350719,
            "lng": -104.05004
          }
        },
        "location": {
          "lat": 47.5514926,
          "lng": -101.0020119
        },
        "location_type": "APPROXIMATE",
        "viewport": {
          "northeast": {
            "lat": 49.000692,
            "lng": -96.554491
          },
          "southwest": {
            "lat": 45.9350719,
            "lng": -104.05004
          }
        }
      },
      "place_id": "ChIJY-nYVxKD11IRyc9egzmahA0",
      "types": [
        "administrative_area_level_1",
        "political"
      ]
    },
    {
      "address_components": [
        {
          "long_name": "United States",
          "short_name": "US",
          "types": [
            "country",
            "political"
          ]
        }
      ],
      "formatted_address": "United States",
      "geometry": {
        "bounds": {
          "northeast": {
            "lat": 71.3867745,
            "lng": -66.9502861
          },
          "southwest": {
            "lat": 18.9106768,
            "lng": 172.4458955
          }
        },
        "location": {
          "lat": 37.09024,
          "lng": -95.712891
        },
        "location_type": "APPROXIMATE",
        "viewport": {
          "northeast": {
            "lat": 49.38,
            "lng": -66.94
          },
          "southwest": {
            "lat": 25.82,
            "lng": -124.39
          }
        }
      },
      "place_id": "ChIJCzYy5IS16lQRQrfeQ5K5Oxw",
      "types": [
        "country",
        "political"
      ]
    }
  ],
  "status": "OK"
}
