{
  "results": [
    {
      "address_components": [
        {
          "long_name": "625",
          "short_name": "625",
          "types": [
            "street_number"
          ]
        },
        {
          "long_name": "South Charlotte Street",
          "short_name": "S Charlotte St",
          "types": [
            "route"
          ]
        },
        {
          "long_name": "Lombard",
          "short_name": "Lombard",
          "types": [
            "locality",
            "political"
          ]
        },
        {
          "long_name": "York Township",
          "short_name": "York Township",
          "types": [
            "administrative_area_level_3",
            "political"
          ]
        },
        {
          "long_name": "DuPage County",
          "short_name": "Dupage County",
          "types": [
            "administrative_area_level_2",
            "political"
          ]
        },
        {
          "long_name": "Illinois",
          "short_name": "IL",
          "types": [
            "administrative_area_level_1",
            "political"
          ]
        },
        {
          "long_name": "United States",
          "short_name": "US",
          "types": [
            "country",
            "political"
          ]
        },
        {
          "long_name": "60148",
          "short_name": "60148",
          "types": [
            "postal_code"
          ]
        },
        {
          "long_name": "3401",
          "short_name": "3401",
          "types": [
            "postal_code_suffix"
          ]
        }
      ],
      "formatted_address": "625 S Charlotte St, Lombard, IL 60148, USA",
      "geometry": {
        "location": {
          "lat": 41.873821,
          "lng": -88.0158469
        },
        "location_type": "ROOFTOP",
        "viewport": {
          "northeast": {
            "lat": 41.8751699802915,
            "lng": -88.01449791970849
          },
          "southwest": {
            "lat": 41.8724720197085,
            "lng": -88.01719588029151
          }
        }
      },
      "place_id": "ChIJyRIkvJxSDogRkwidrzVP4xo",
      "types": [
        "street_address"
      ]
    },
    {
      "address_components": [
        {
          "long_name": "Lombard",
          "short_name": "Lombard",
          "types": [
            "locality",
            "political"
          ]
        },
        {
          "long_name": "York Township",
          "short_name": "York Township",
          "types": [
            "administrative_area_level_3",
            "political"
          ]
        },
        {
          "long_name": "DuPage County",
          "short_name": "Dupage County",
          "types": [
            "administrative_area_level_2",
            "political"
          ]
        },
        {
          "long_name": "Illinois",
          "short_name": "IL",
          "types": [
            "administrative_area_level_1",
            "political"
          ]
        },
        {
          "long_name": "United States",
          "short_name": "US",
          "types": [
            "country",
            "political"
          ]
        }
      ],
      "formatted_address": "Lombard, IL, USA",
      "geometry": {
        "bounds": {
          "northeast": {
            "lat": 41.915062,
            "lng": -87.9872561
          },
          "southwest": {
            "lat": 41.8316091,
            "lng": -88.051531
          }
        },
        "location": {
          "lat": 41.8800296,
          "lng": -88.00784349999999
        },
        "location_type": "APPROXIMATE",
        "viewport": {
          "northeast": {
            "lat": 41.915062,
            "lng": -87.9872561
          },
          "southwest": {
            "lat": 41.8316091,
            "lng": -88.051531
          }
        }
      },
      "place_id": "ChIJtUlccJtSDogRZ1FtY1yt2og",
      "types": [
        "locality",
        "political"
      ]
    },
    {
      "address_components": [
        {
          "long_name": "60148",
          "short_name": "60148",
          "types": [
            "postal_code"
          ]
        },
        {
          "long_name": "Lombard",
          "short_name": "Lombard",
          "types": [
            "locality",
            "political"
          ]
        },
        {
          "long_name": "DuPage County",
          "short_name": "Dupage County",
          "types": [
            "administrative_area_level_2",
            "political"
          ]
        },
        {
          "long_name": "Illinois",
          "short_name": "IL",
          "types": [
            "administrative_area_level_1",
            "political"
          ]
        },
        {
          "long_name": "United States",
          "short_name": "US",
          "types": [
            "country",
            "political"
          ]
        }
      ],
      "formatted_address": "Lombard, IL 60148, USA",
      "geometry": {
        "bounds": {
          "northeast": {
            "lat": 41.923379,
            "lng": -87.974863
          },
          "southwest": {
            "lat": 41.815176,
            "lng": -88.073172
          }
        },
        "location": {
          "lat": 41.8725524,
          "lng": -88.0020589
        },
        "location_type": "APPROXIMATE",
        "viewport": {
          "northeast": {
            "lat": 41.923379,
            "lng": -87.974863
          },
          "southwest": {
            "lat": 41.815176,
            "lng": -88.073172
          }
        }
      },
      "place_id": "ChIJr3dJnYZSDogRXCoAWnijhFg",
      "types": [
        "postal_code"
      ]
    },
    {
      "address_components": [
        {
          "long_name": "York Township",
          "short_name": "York Township",
          "types": [
            "administrative_area_level_3",
            "political"
          ]
        },
        {
          "long_name": "DuPage County",
          "short_name": "Dupage County",
          "types": [
            "administrative_area_level_2",
            "political"
          ]
        },
        {
          "long_name": "Illinois",
          "short_name": "IL",
          "types": [
            "administrative_area_level_1",
            "political"
          ]
        },
        {
          "long_name": "United States",
          "short_name": "US",
          "types": [
            "country",
            "political"
          ]
        }
      ],
      "formatted_address": "York Township, IL, USA",
      "geometry": {
        "bounds": {
          "northeast": {
            "lat": 41.9068,
            "lng": -87.9183819
          },
          "southwest": {
            "lat": 41.815473,
            "lng": -88.034066
          }
        },
        "location": {
          "lat": 41.8621106,
          "lng": -87.97268100000001
        },
        "location_type": "APPROXIMATE",
        "viewport": {
          "northeast": {
            "lat": 41.9068,
            "lng": -87.9183819
          },
          "southwest": {
            "lat": 41.815473,
            "lng": -88.034066
          }
        }
      },
      "place_id": "ChIJbXOa0n1SDogRkyhvGIYpqgo",
      "types": [
        "administrative_area_level_3",
        "political"
      ]
    },
    {
      "address_components": [
        {
          "long_name": "DuPage County",
          "short_name": "Dupage County",
          "types": [
            "administrative_area_level_2",
            "political"
          ]
        },
        {
          "long_name": "Illinois",
          "short_name": "IL",
          "types": [
            "administrative_area_level_1",
            "political"
          ]
        },
        {
          "long_name": "United States",
          "short_name": "US",
          "types": [
            "country",
            "political"
          ]
        }
      ],
      "formatted_address": "Dupage County, IL, USA",
      "geometry": {
        "bounds": {
          "northeast": {
            "lat": 41.994029,
            "lng": -87.91425690000001
          },
          "southwest": {
            "lat": 41.68533,
            "lng": -88.26317809999999
          }
        },
        "location": {
          "lat": 41.8243831,
          "lng": -88.0900762
        },
        "location_type": "APPROXIMATE",
        "viewport": {
          "northeast": {
            "lat": 41.994029,
            "lng": -87.91425690000001
          },
          "southwest": {
            "lat": 41.68533,
            "lng": -88.26317809999999
          }
        }
      },
      "place_id": "ChIJa_8YHt6oD4gRaux4XvaID0k",
      "types": [
        "administrative_area_level_2",
        "political"
      ]
    },
    {
      "address_components": [
        {
          "long_name": "Chicago Metropolitan Area",
          "short_name": "Chicago Metropolitan Area",
          "types": [
            "political"
          ]
        },
        {
          "long_name": "United States",
          "short_name": "US",
          "types": [
            "country",
            "political"
          ]
        }
      ],
      "formatted_address": "Chicago Metropolitan Area, USA",
      "geometry": {
        "bounds": {
          "northeast": {
            "lat": 42.670123,
            "lng": -86.92925699999999
          },
          "southwest": {
            "lat": 40.7364641,
            "lng": -88.942292
          }
        },
        "location": {
          "lat": 41.7435073,
          "lng": -88.0118473
        },
        "location_type": "APPROXIMATE",
        "viewport": {
          "northeast": {
            "lat": 42.670123,
            "lng": -86.92925699999999
          },
          "southwest": {
            "lat": 40.7364641,
            "lng": -88.942292
          }
        }
      },
      "place_id": "ChIJg-CZjExEDogRNJNXmgqEe9o",
      "types": [
        "political"
      ]
    },
    {
      "address_components": [
        {
          "long_name": "Illinois",
          "short_name": "IL",
          "types": [
            "administrative_area_level_1",
            "political"
          ]
        },
        {
          "long_name": "United States",
          "short_name": "US",
          "types": [
            "country",
            "political"
          ]
        }
      ],
      "formatted_address": "Illinois, USA",
      "geometry": {
        "bounds": {
          "northeast": {
            "lat": 42.5083379,
            "lng": -87.4951991
          },
          "southwest": {
            "lat": 36.970298,
            "lng": -91.5130789
          }
        },
        "location": {
          "lat": 40.6331249,
          "lng": -89.3985283
        },
        "location_type": "APPROXIMATE",
        "viewport": {
          "northeast": {
            "lat": 42.5083379,
            "lng": -87.4951991
          },
          "southwest": {
            "lat": 36.970298,
            "lng": -91.5130789
          }
        }
      },
      "place_id": "ChIJGSZubzgtC4gRVlkRZFCCFX8",
      "types": [
        "administrative_area_level_1",
        "political"
      ]
    },
    {
      "address_components": [
        {
          "long_name": "United States",
          "short_name": "US",
          "types": [
            "country",
            "political"
          ]
        }
      ],
      "formatted_address": "United States",
      "geometry": {
        "bounds": {
          "northeast": {
            "lat": 71.3867745,
            "lng": -66.9502861
          },
          "southwest": {
            "lat": 18.9106768,
            "lng": 172.4458955
          }
        },
        "location": {
          "lat": 37.09024,
          "lng": -95.712891
        },
        "location_type": "APPROXIMATE",
        "viewport": {
          "northeast": {
            "lat": 49.38,
            "lng": -66.94
          },
          "southwest": {
            "lat": 25.82,
            "lng": -124.39
          }
        }
      },
      "place_id": "ChIJCzYy5IS16lQRQrfeQ5K5Oxw",
      "types": [
        "country",
        "political"
      ]
    }
  ],
  "status": "OK"
}
