{
  "results": [
    {
      "address_components": [
        {
          "long_name": "56-64",
          "short_name": "56-64",
          "types": [
            "street_number"
          ]
        },
        {
          "long_name": "Smith Hill",
          "short_name": "Smith Hill",
          "types": [
            "route"
          ]
        },
        {
          "long_name": "Benton",
          "short_name": "Benton",
          "types": [
            "locality",
            "political"
          ]
        },
        {
          "long_name": "Jackson Township",
          "short_name": "Jackson Township",
          "types": [
            "administrative_area_level_3",
            "political"
          ]
        },
        {
          "long_name": "Columbia County",
          "short_name": "Columbia County",
          "types": [
            "administrative_area_level_2",
            "political"
          ]
        },
        {
          "long_name": "Pennsylvania",
          "short_name": "PA",
          "types": [
            "administrative_area_level_1",
            "political"
          ]
        },
        {
          "long_name": "United States",
          "short_name": "US",
          "types": [
            "country",
            "political"
          ]
        },
        {
          "long_name": "17814",
          "short_name": "17814",
          "types": [
            "postal_code"
          ]
        }
      ],
      "formatted_address": "56-64 Smith Hill, Benton, PA 17814, USA",
      "geometry": {
        "bounds": {
          "northeast": {
            "lat": 41.2359859,
            "lng": -76.422466
          },
          "southwest": {
            "lat": 41.232885,
            "lng": -76.4233749
          }
        },
        "location": {
          "lat": 41.233678,
          "lng": -76.4224473
        },
        "location_type": "RANGE_INTERPOLATED",
        "viewport": {
          "northeast": {
            "lat": 41.2359859,
            "lng": -76.4215714697085
          },
          "southwest": {
            "lat": 41.232885,
            "lng": -76.4242694302915
          }
        }
      },
      "place_id": "Eic1Ni02NCBTbWl0aCBIaWxsLCBCZW50b24sIFBBIDE3ODE0LCBVU0E",
      "types": [
        "street_address"
      ]
    },
    {
      "address_components": [
        {
          "long_name": "Waller",
          "short_name": "Waller",
          "types": [
            "locality",
            "political"
          ]
        },
        {
          "long_name": "Jackson Township",
          "short_name": "Jackson Township",
          "types": [
            "administrative_area_level_3",
            "political"
          ]
        },
        {
          "long_name": "Columbia County",
          "short_name": "Columbia County",
          "types": [
            "administrative_area_level_2",
            "political"
          ]
        },
        {
          "long_name": "Pennsylvania",
          "short_name": "PA",
          "types": [
            "administrative_area_level_1",
            "political"
          ]
        },
        {
          "long_name": "United States",
          "short_name": "US",
          "types": [
            "country",
            "political"
          ]
        },
        {
          "long_name": "17814",
          "short_name": "17814",
          "types": [
            "postal_code"
          ]
        }
      ],
      "formatted_address": "Waller, PA 17814, USA",
      "geometry": {
        "bounds": {
          "northeast": {
            "lat": 41.2453519,
            "lng": -76.40799190000001
          },
          "southwest": {
            "lat": 41.22044289999999,
            "lng": -76.43373989999999
          }
        },
        "location": {
          "lat": 41.23258329999999,
          "lng": -76.4232772
        },
        "location_type": "APPROXIMATE",
        "viewport": {
          "northeast": {
            "lat": 41.2453519,
            "lng": -76.40799190000001
          },
          "southwest": {
            "lat": 41.22044289999999,
            "lng": -76.43373989999999
          }
        }
      },
      "place_id": "ChIJl-bVfKd9xYkRniGlPgZt2Ts",
      "types": [
        "locality",
        "political"
      ]
    },
    {
      "address_components": [
        {
          "long_name": "Jackson Township",
          "short_name": "Jackson Township",
          "types": [
            "administrative_area_level_3",
            "political"
          ]
        },
        {
          "long_name": "Columbia County",
          "short_name": "Columbia County",
          "types": [
            "administrative_area_level_2",
            "political"
          ]
        },
        {
          "long_name": "Pennsylvania",
          "short_name": "PA",
          "types": [
            "administrative_area_level_1",
            "political"
          ]
        },
        {
          "long_name": "United States",
          "short_name": "US",
          "types": [
            "country",
            "political"
          ]
        }
      ],
      "formatted_address": "Jackson Township, PA, USA",
      "geometry": {
        "bounds": {
          "northeast": {
            "lat": 41.29679,
            "lng": -76.4056569
          },
          "southwest": {
            "lat": 41.1784849,
            "lng": -76.47930910000001
          }
        },
        "location": {
          "lat": 41.2419559,
          "lng": -76.4215988
        },
        "location_type": "APPROXIMATE",
        "viewport": {
          "northeast": {
            "lat": 41.29679,
            "lng": -76.4056569
          },
          "southwest": {
            "lat": 41.1784849,
            "lng": -76.47930910000001
          }
        }
      },
      "place_id": "ChIJKz1IBXd9xYkR7X2XU3oT7dI",
      "types": [
        "administrative_area_level_3",
        "political"
      ]
    },
    {
      "address_components": [
        {
          "long_name": "17814",
          "short_name": "17814",
          "types": [
            "postal_code"
          ]
        },
        {
          "long_name": "Benton",
          "short_name": "Benton",
          "types": [
            "locality",
            "political"
          ]
        },
        {
          "long_name": "Pennsylvania",
          "short_name": "PA",
          "types": [
            "administrative_area_level_1",
            "political"
          ]
        },
        {
          "long_name": "United States",
          "short_name": "US",
          "types": [
            "country",
            "political"
          ]
        }
      ],
      "formatted_address": "Benton, PA 17814, USA",
      "geometry": {
        "bounds": {
          "northeast": {
            "lat": 41.387605,
            "lng": -76.2416849
          },
          "southwest": {
            "lat": 41.1411371,
            "lng": -76.5219328
          }
        },
        "location": {
          "lat": 41.2871032,
          "lng": -76.3868797
        },
        "location_type": "APPROXIMATE",
        "viewport": {
          "northeast": {
            "lat": 41.387605,
            "lng": -76.2416849
          },
          "southwest": {
            "lat": 41.1411371,
            "lng": -76.5219328
          }
        }
      },
      "place_id": "ChIJsXv4HFJjxYkReDVTOsfZb7A",
      "types": [
        "postal_code"
      ]
    },
    {
      "address_components": [
        {
          "long_name": "Columbia County",
          "short_name": "Columbia County",
          "types": [
            "administrative_area_level_2",
            "political"
          ]
        },
        {
          "long_name": "Pennsylvania",
          "short_name": "PA",
          "types": [
            "administrative_area_level_1",
            "political"
          ]
        },
        {
          "long_name": "United States",
          "short_name": "US",
          "types": [
            "country",
            "political"
          ]
        }
      ],
      "formatted_address": "Columbia County, PA, USA",
      "geometry": {
        "bounds": {
          "northeast": {
            "lat": 41.3087019,
            "lng": -76.207827
          },
          "southwest": {
            "lat": 40.775511,
            "lng": -76.640767
          }
        },
        "location": {
          "lat": 41.0274439,
          "lng": -76.3637285
        },
        "location_type": "APPROXIMATE",
        "viewport": {
          "northeast": {
            "lat": 41.3087019,
            "lng": -76.207827
          },
          "southwest": {
            "lat": 40.775511,
            "lng": -76.640767
          }
        }
      },
      "place_id": "ChIJ6zqpgHSSxYkRRlRcTP_lFMs",
      "types": [
        "administrative_area_level_2",
        "political"
      ]
    },
    {
      "address_components": [
        {
          "long_name": "Pennsylvania",
          "short_name": "PA",
          "types": [
            "administrative_area_level_1",
            "political"
          ]
        },
        {
          "long_name": "United States",
          "short_name": "US",
          "types": [
            "country",
            "political"
          ]
        }
      ],
      "formatted_address": "Pennsylvania, USA",
      "geometry": {
        "bounds": {
          "northeast": {
            "lat": 42.2693866,
            "lng": -74.6895018
          },
          "southwest": {
            "lat": 39.7197989,
            "lng": -80.51989499999999
          }
        },
        "location": {
          "lat": 41.2033216,
          "lng": -77.1945247
        },
        "location_type": "APPROXIMATE",
        "viewport": {
          "northeast": {
            "lat": 42.2693866,
            "lng": -74.6895018
          },
          "southwest": {
            "lat": 39.7197989,
            "lng": -80.51989499999999
          }
        }
      },
      "place_id": "ChIJieUyHiaALYgRPbQiUEchRsI",
      "types": [
        "administrative_area_level_1",
        "political"
      ]
    },
    {
      "address_components": [
        {
          "long_name": "United States",
          "short_name": "US",
          "types": [
            "country",
            "political"
          ]
        }
      ],
      "formatted_address": "United States",
      "geometry": {
        "bounds": {
          "northeast": {
            "lat": 71.3867745,
            "lng": -66.9502861
          },
          "southwest": {
            "lat": 18.9106768,
            "lng": 172.4458955
          }
        },
        "location": {
          "lat": 37.09024,
          "lng": -95.712891
        },
        "location_type": "APPROXIMATE",
        "viewport": {
          "northeast": {
            "lat": 49.38,
            "lng": -66.94
          },
          "southwest": {
            "lat": 25.82,
            "lng": -124.39
          }
        }
      },
      "place_id": "ChIJCzYy5IS16lQRQrfeQ5K5Oxw",
      "types": [
        "country",
        "political"
      ]
    }
  ],
  "status": "OK"
}
