{
  "results": [
    {
      "address_components": [
        {
          "long_name": "751",
          "short_name": "751",
          "types": [
            "street_number"
          ]
        },
        {
          "long_name": "McClellan Drive",
          "short_name": "McClellan Dr",
          "types": [
            "route"
          ]
        },
        {
          "long_name": "Gettysburg",
          "short_name": "Gettysburg",
          "types": [
            "locality",
            "political"
          ]
        },
        {
          "long_name": "Mount Joy Township",
          "short_name": "Mt Joy Township",
          "types": [
            "administrative_area_level_3",
            "political"
          ]
        },
        {
          "long_name": "Adams County",
          "short_name": "Adams County",
          "types": [
            "administrative_area_level_2",
            "political"
          ]
        },
        {
          "long_name": "Pennsylvania",
          "short_name": "PA",
          "types": [
            "administrative_area_level_1",
            "political"
          ]
        },
        {
          "long_name": "United States",
          "short_name": "US",
          "types": [
            "country",
            "political"
          ]
        },
        {
          "long_name": "17325",
          "short_name": "17325",
          "types": [
            "postal_code"
          ]
        },
        {
          "long_name": "8966",
          "short_name": "8966",
          "types": [
            "postal_code_suffix"
          ]
        }
      ],
      "formatted_address": "751 McClellan Dr, Gettysburg, PA 17325, USA",
      "geometry": {
        "location": {
          "lat": 39.808464,
          "lng": -77.184848
        },
        "location_type": "ROOFTOP",
        "viewport": {
          "northeast": {
            "lat": 39.8098129802915,
            "lng": -77.1834990197085
          },
          "southwest": {
            "lat": 39.8071150197085,
            "lng": -77.18619698029151
          }
        }
      },
      "place_id": "ChIJXzN8pC9TyIkRGd7LaWbQx9M",
      "types": [
        "street_address"
      ]
    },
    {
      "address_components": [
        {
          "long_name": "Lake Heritage",
          "short_name": "Lake Heritage",
          "types": [
            "locality",
            "political"
          ]
        },
        {
          "long_name": "Adams County",
          "short_name": "Adams County",
          "types": [
            "administrative_area_level_2",
            "political"
          ]
        },
        {
          "long_name": "Pennsylvania",
          "short_name": "PA",
          "types": [
            "administrative_area_level_1",
            "political"
          ]
        },
        {
          "long_name": "United States",
          "short_name": "US",
          "types": [
            "country",
            "political"
          ]
        },
        {
          "long_name": "17325",
          "short_name": "17325",
          "types": [
            "postal_code"
          ]
        }
      ],
      "formatted_address": "Lake Heritage, PA 17325, USA",
      "geometry": {
        "bounds": {
          "northeast": {
            "lat": 39.81917500000001,
            "lng": -77.17311680000002
          },
          "southwest": {
            "lat": 39.798344,
            "lng": -77.195897
          }
        },
        "location": {
          "lat": 39.8095415,
          "lng": -77.1838727
        },
        "location_type": "APPROXIMATE",
        "viewport": {
          "northeast": {
            "lat": 39.81917500000001,
            "lng": -77.17311680000002
          },
          "southwest": {
            "lat": 39.798344,
            "lng": -77.195897
          }
        }
      },
      "place_id": "ChIJJ4jr6y9TyIkR1tMSzEE6kj8",
      "types": [
        "locality",
        "political"
      ]
    },
    {
      "address_components": [
        {
          "long_name": "Mount Joy Township",
          "short_name": "Mt Joy Township",
          "types": [
            "administrative_area_level_3",
            "political"
          ]
        },
        {
          "long_name": "Adams County",
          "short_name": "Adams County",
          "types": [
            "administrative_area_level_2",
            "political"
          ]
        },
        {
          "long_name": "Pennsylvania",
          "short_name": "PA",
          "types": [
            "administrative_area_level_1",
            "political"
          ]
        },
        {
          "long_name": "United States",
          "short_name": "US",
          "types": [
            "country",
            "political"
          ]
        }
      ],
      "formatted_address": "Mt Joy Township, PA, USA",
      "geometry": {
        "bounds": {
          "northeast": {
            "lat": 39.817423,
            "lng": -77.1127669
          },
          "southwest": {
            "lat": 39.719816,
            "lng": -77.232709
          }
        },
        "location": {
          "lat": 39.769794,
          "lng": -77.1830243
        },
        "location_type": "APPROXIMATE",
        "viewport": {
          "northeast": {
            "lat": 39.817423,
            "lng": -77.1127669
          },
          "southwest": {
            "lat": 39.719816,
            "lng": -77.232709
          }
        }
      },
      "place_id": "ChIJU67atKJSyIkROWu9NYAKt30",
      "types": [
        "administrative_area_level_3",
        "political"
      ]
    },
    {
      "address_components": [
        {
          "long_name": "17325",
          "short_name": "17325",
          "types": [
            "postal_code"
          ]
        },
        {
          "long_name": "Gettysburg",
          "short_name": "Gettysburg",
          "types": [
            "locality",
            "political"
          ]
        },
        {
          "long_name": "Pennsylvania",
          "short_name": "PA",
          "types": [
            "administrative_area_level_1",
            "political"
          ]
        },
        {
          "long_name": "United States",
          "short_name": "US",
          "types": [
            "country",
            "political"
          ]
        }
      ],
      "formatted_address": "Gettysburg, PA 17325, USA",
      "geometry": {
        "bounds": {
          "northeast": {
            "lat": 39.9624151,
            "lng": -77.08671
          },
          "southwest": {
            "lat": 39.71984399999999,
            "lng": -77.375022
          }
        },
        "location": {
          "lat": 39.8243121,
          "lng": -77.2175223
        },
        "location_type": "APPROXIMATE",
        "viewport": {
          "northeast": {
            "lat": 39.9624151,
            "lng": -77.08671
          },
          "southwest": {
            "lat": 39.71984399999999,
            "lng": -77.375022
          }
        }
      },
      "place_id": "ChIJuaBURZKsyYkRbwooQ3gNUMI",
      "types": [
        "postal_code"
      ]
    },
    {
      "address_components": [
        {
          "long_name": "Adams County",
          "short_name": "Adams County",
          "types": [
            "administrative_area_level_2",
            "political"
          ]
        },
        {
          "long_name": "Pennsylvania",
          "short_name": "PA",
          "types": [
            "administrative_area_level_1",
            "political"
          ]
        },
        {
          "long_name": "United States",
          "short_name": "US",
          "types": [
            "country",
            "political"
          ]
        }
      ],
      "formatted_address": "Adams County, PA, USA",
      "geometry": {
        "bounds": {
          "northeast": {
            "lat": 40.0699449,
            "lng": -76.95493189999999
          },
          "southwest": {
            "lat": 39.71981290000001,
            "lng": -77.471085
          }
        },
        "location": {
          "lat": 39.8522417,
          "lng": -77.2864879
        },
        "location_type": "APPROXIMATE",
        "viewport": {
          "northeast": {
            "lat": 40.0699449,
            "lng": -76.95493189999999
          },
          "southwest": {
            "lat": 39.71981290000001,
            "lng": -77.471085
          }
        }
      },
      "place_id": "ChIJCWVbo3AByYkRHNZRi5Q0HDM",
      "types": [
        "administrative_area_level_2",
        "political"
      ]
    },
    {
      "address_components": [
        {
          "long_name": "Gettysburg",
          "short_name": "Gettysburg",
          "types": [
            "political"
          ]
        },
        {
          "long_name": "United States",
          "short_name": "US",
          "types": [
            "country",
            "political"
          ]
        }
      ],
      "formatted_address": "Gettysburg, USA",
      "geometry": {
        "bounds": {
          "northeast": {
            "lat": 40.0697039,
            "lng": -76.9553701
          },
          "southwest": {
            "lat": 39.7198309,
            "lng": -77.4716159
          }
        },
        "location": {
          "lat": 39.8522417,
          "lng": -77.2864879
        },
        "location_type": "APPROXIMATE",
        "viewport": {
          "northeast": {
            "lat": 40.0697039,
            "lng": -76.9553701
          },
          "southwest": {
            "lat": 39.7198309,
            "lng": -77.4716159
          }
        }
      },
      "place_id": "ChIJrRvsIxaryYkR10VrsPfoOjc",
      "types": [
        "political"
      ]
    },
    {
      "address_components": [
        {
          "long_name": "Pennsylvania",
          "short_name": "PA",
          "types": [
            "administrative_area_level_1",
            "political"
          ]
        },
        {
          "long_name": "United States",
          "short_name": "US",
          "types": [
            "country",
            "political"
          ]
        }
      ],
      "formatted_address": "Pennsylvania, USA",
      "geometry": {
        "bounds": {
          "northeast": {
            "lat": 42.2693866,
            "lng": -74.6895018
          },
          "southwest": {
            "lat": 39.7197989,
            "lng": -80.51989499999999
          }
        },
        "location": {
          "lat": 41.2033216,
          "lng": -77.1945247
        },
        "location_type": "APPROXIMATE",
        "viewport": {
          "northeast": {
            "lat": 42.2693866,
            "lng": -74.6895018
          },
          "southwest": {
            "lat": 39.7197989,
            "lng": -80.51989499999999
          }
        }
      },
      "place_id": "ChIJieUyHiaALYgRPbQiUEchRsI",
      "types": [
        "administrative_area_level_1",
        "political"
      ]
    },
    {
      "address_components": [
        {
          "long_name": "United States",
          "short_name": "US",
          "types": [
            "country",
            "political"
          ]
        }
      ],
      "formatted_address": "United States",
      "geometry": {
        "bounds": {
          "northeast": {
            "lat": 71.3867745,
            "lng": -66.9502861
          },
          "southwest": {
            "lat": 18.9106768,
            "lng": 172.4458955
          }
        },
        "location": {
          "lat": 37.09024,
          "lng": -95.712891
        },
        "location_type": "APPROXIMATE",
        "viewport": {
          "northeast": {
            "lat": 49.38,
            "lng": -66.94
          },
          "southwest": {
            "lat": 25.82,
            "lng": -124.39
          }
        }
      },
      "place_id": "ChIJCzYy5IS16lQRQrfeQ5K5Oxw",
      "types": [
        "country",
        "political"
      ]
    }
  ],
  "status": "OK"
}
