{
  "results": [
    {
      "address_components": [
        {
          "long_name": "Harris Hall",
          "short_name": "Harris Hall",
          "types": [
            "premise"
          ]
        },
        {
          "long_name": "Ardmore",
          "short_name": "Ardmore",
          "types": [
            "locality",
            "political"
          ]
        },
        {
          "long_name": "Haverford Township",
          "short_name": "Haverford Township",
          "types": [
            "administrative_area_level_3",
            "political"
          ]
        },
        {
          "long_name": "Delaware County",
          "short_name": "Delaware County",
          "types": [
            "administrative_area_level_2",
            "political"
          ]
        },
        {
          "long_name": "Pennsylvania",
          "short_name": "PA",
          "types": [
            "administrative_area_level_1",
            "political"
          ]
        },
        {
          "long_name": "United States",
          "short_name": "US",
          "types": [
            "country",
            "political"
          ]
        },
        {
          "long_name": "19003",
          "short_name": "19003",
          "types": [
            "postal_code"
          ]
        }
      ],
      "formatted_address": "Harris Hall, Ardmore, PA 19003, USA",
      "geometry": {
        "location": {
          "lat": 40.0083489,
          "lng": -75.3063461
        },
        "location_type": "ROOFTOP",
        "viewport": {
          "northeast": {
            "lat": 40.0096978802915,
            "lng": -75.30499711970849
          },
          "southwest": {
            "lat": 40.0069999197085,
            "lng": -75.30769508029151
          }
        }
      },
      "place_id": "ChIJ3dUNB3DAxokRz4kTFqA8RLA",
      "types": [
        "premise"
      ]
    },
    {
      "address_components": [
        {
          "long_name": "Hilles Hall",
          "short_name": "Hilles Hall",
          "types": [
            "premise"
          ]
        },
        {
          "long_name": "Ardmore",
          "short_name": "Ardmore",
          "types": [
            "locality",
            "political"
          ]
        },
        {
          "long_name": "Haverford Township",
          "short_name": "Haverford Township",
          "types": [
            "administrative_area_level_3",
            "political"
          ]
        },
        {
          "long_name": "Delaware County",
          "short_name": "Delaware County",
          "types": [
            "administrative_area_level_2",
            "political"
          ]
        },
        {
          "long_name": "Pennsylvania",
          "short_name": "PA",
          "types": [
            "administrative_area_level_1",
            "political"
          ]
        },
        {
          "long_name": "United States",
          "short_name": "US",
          "types": [
            "country",
            "political"
          ]
        },
        {
          "long_name": "19003",
          "short_name": "19003",
          "types": [
            "postal_code"
          ]
        }
      ],
      "formatted_address": "Hilles Hall, Ardmore, PA 19003, USA",
      "geometry": {
        "location": {
          "lat": 40.0085448,
          "lng": -75.3064045
        },
        "location_type": "ROOFTOP",
        "viewport": {
          "northeast": {
            "lat": 40.00989378029149,
            "lng": -75.3050555197085
          },
          "southwest": {
            "lat": 40.00719581970849,
            "lng": -75.30775348029151
          }
        }
      },
      "place_id": "ChIJP4F_CHDAxokRh7z3Hx77dXw",
      "types": [
        "premise"
      ]
    },
    {
      "address_components": [
        {
          "long_name": "Hall Drive",
          "short_name": "Hall Drive",
          "types": [
            "route"
          ]
        },
        {
          "long_name": "Ardmore",
          "short_name": "Ardmore",
          "types": [
            "locality",
            "political"
          ]
        },
        {
          "long_name": "Haverford Township",
          "short_name": "Haverford Township",
          "types": [
            "administrative_area_level_3",
            "political"
          ]
        },
        {
          "long_name": "Delaware County",
          "short_name": "Delaware County",
          "types": [
            "administrative_area_level_2",
            "political"
          ]
        },
        {
          "long_name": "Pennsylvania",
          "short_name": "PA",
          "types": [
            "administrative_area_level_1",
            "political"
          ]
        },
        {
          "long_name": "United States",
          "short_name": "US",
          "types": [
            "country",
            "political"
          ]
        },
        {
          "long_name": "19003",
          "short_name": "19003",
          "types": [
            "postal_code"
          ]
        }
      ],
      "formatted_address": "Hall Drive, Ardmore, PA 19003, USA",
      "geometry": {
        "bounds": {
          "northeast": {
            "lat": 40.0082566,
            "lng": -75.3071033
          },
          "southwest": {
            "lat": 40.0079032,
            "lng": -75.30725799999999
          }
        },
        "location": {
          "lat": 40.00808019999999,
          "lng": -75.3071806
        },
        "location_type": "GEOMETRIC_CENTER",
        "viewport": {
          "northeast": {
            "lat": 40.00942888029149,
            "lng": -75.3058316697085
          },
          "southwest": {
            "lat": 40.0067309197085,
            "lng": -75.3085296302915
          }
        }
      },
      "place_id": "ChIJ35eZHXDAxokRgIEpngJ0d9s",
      "types": [
        "route"
      ]
    },
    {
      "address_components": [
        {
          "long_name": "Haverford",
          "short_name": "Haverford",
          "types": [
            "locality",
            "political"
          ]
        },
        {
          "long_name": "Delaware County",
          "short_name": "Delaware County",
          "types": [
            "administrative_area_level_2",
            "political"
          ]
        },
        {
          "long_name": "Pennsylvania",
          "short_name": "PA",
          "types": [
            "administrative_area_level_1",
            "political"
          ]
        },
        {
          "long_name": "United States",
          "short_name": "US",
          "types": [
            "country",
            "political"
          ]
        }
      ],
      "formatted_address": "Haverford, PA, USA",
      "geometry": {
        "bounds": {
          "northeast": {
            "lat": 40.0273109,
            "lng": -75.2843279
          },
          "southwest": {
            "lat": 39.985811,
            "lng": -75.35103409999999
          }
        },
        "location": {
          "lat": 40.0022406,
          "lng": -75.3208107
        },
        "location_type": "APPROXIMATE",
        "viewport": {
          "northeast": {
            "lat": 40.0273109,
            "lng": -75.2843279
          },
          "southwest": {
            "lat": 39.985811,
            "lng": -75.35103409999999
          }
        }
      },
      "place_id": "ChIJ13J51GzAxokRVECfMrj2hjo",
      "types": [
        "locality",
        "political"
      ]
    },
    {
      "address_components": [
        {
          "long_name": "19003",
          "short_name": "19003",
          "types": [
            "postal_code"
          ]
        },
        {
          "long_name": "Ardmore",
          "short_name": "Ardmore",
          "types": [
            "locality",
            "political"
          ]
        },
        {
          "long_name": "Pennsylvania",
          "short_name": "PA",
          "types": [
            "administrative_area_level_1",
            "political"
          ]
        },
        {
          "long_name": "United States",
          "short_name": "US",
          "types": [
            "country",
            "political"
          ]
        }
      ],
      "formatted_address": "Ardmore, PA 19003, USA",
      "geometry": {
        "bounds": {
          "northeast": {
            "lat": 40.0182578,
            "lng": -75.277729
          },
          "southwest": {
            "lat": 39.9868728,
            "lng": -75.32323
          }
        },
        "location": {
          "lat": 40.0021177,
          "lng": -75.3004009
        },
        "location_type": "APPROXIMATE",
        "viewport": {
          "northeast": {
            "lat": 40.0182578,
            "lng": -75.277729
          },
          "southwest": {
            "lat": 39.9868728,
            "lng": -75.32323
          }
        }
      },
      "place_id": "ChIJpRUEY2HAxokRMSSQ__4Pnto",
      "types": [
        "postal_code"
      ]
    },
    {
      "address_components": [
        {
          "long_name": "Haverford Township",
          "short_name": "Haverford Township",
          "types": [
            "administrative_area_level_3",
            "political"
          ]
        },
        {
          "long_name": "Delaware County",
          "short_name": "Delaware County",
          "types": [
            "administrative_area_level_2",
            "political"
          ]
        },
        {
          "long_name": "Pennsylvania",
          "short_name": "PA",
          "types": [
            "administrative_area_level_1",
            "political"
          ]
        },
        {
          "long_name": "United States",
          "short_name": "US",
          "types": [
            "country",
            "political"
          ]
        }
      ],
      "formatted_address": "Haverford Township, PA, USA",
      "geometry": {
        "bounds": {
          "northeast": {
            "lat": 40.0198111,
            "lng": -75.27647499999999
          },
          "southwest": {
            "lat": 39.9519109,
            "lng": -75.36273489999999
          }
        },
        "location": {
          "lat": 39.9877992,
          "lng": -75.30623260000002
        },
        "location_type": "APPROXIMATE",
        "viewport": {
          "northeast": {
            "lat": 40.0198111,
            "lng": -75.27647499999999
          },
          "southwest": {
            "lat": 39.9519109,
            "lng": -75.36273489999999
          }
        }
      },
      "place_id": "ChIJNXEVPTjAxokRcl79g46jt0w",
      "types": [
        "administrative_area_level_3",
        "political"
      ]
    },
    {
      "address_components": [
        {
          "long_name": "Delaware County",
          "short_name": "Delaware County",
          "types": [
            "administrative_area_level_2",
            "political"
          ]
        },
        {
          "long_name": "Pennsylvania",
          "short_name": "PA",
          "types": [
            "administrative_area_level_1",
            "political"
          ]
        },
        {
          "long_name": "United States",
          "short_name": "US",
          "types": [
            "country",
            "political"
          ]
        }
      ],
      "formatted_address": "Delaware County, PA, USA",
      "geometry": {
        "bounds": {
          "northeast": {
            "lat": 40.066197,
            "lng": -75.21572189999999
          },
          "southwest": {
            "lat": 39.8059886,
            "lng": -75.6015401
          }
        },
        "location": {
          "lat": 39.907793,
          "lng": -75.3878525
        },
        "location_type": "APPROXIMATE",
        "viewport": {
          "northeast": {
            "lat": 40.066197,
            "lng": -75.21572189999999
          },
          "southwest": {
            "lat": 39.8059886,
            "lng": -75.6015401
          }
        }
      },
      "place_id": "ChIJM-XEj6nuxokR4Dx2JFH4Zho",
      "types": [
        "administrative_area_level_2",
        "political"
      ]
    },
    {
      "address_components": [
        {
          "long_name": "Pennsylvania",
          "short_name": "PA",
          "types": [
            "administrative_area_level_1",
            "political"
          ]
        },
        {
          "long_name": "United States",
          "short_name": "US",
          "types": [
            "country",
            "political"
          ]
        }
      ],
      "formatted_address": "Pennsylvania, USA",
      "geometry": {
        "bounds": {
          "northeast": {
            "lat": 42.2693866,
            "lng": -74.6895018
          },
          "southwest": {
            "lat": 39.7197989,
            "lng": -80.51989499999999
          }
        },
        "location": {
          "lat": 41.2033216,
          "lng": -77.1945247
        },
        "location_type": "APPROXIMATE",
        "viewport": {
          "northeast": {
            "lat": 42.2693866,
            "lng": -74.6895018
          },
          "southwest": {
            "lat": 39.7197989,
            "lng": -80.51989499999999
          }
        }
      },
      "place_id": "ChIJieUyHiaALYgRPbQiUEchRsI",
      "types": [
        "administrative_area_level_1",
        "political"
      ]
    },
    {
      "address_components": [
        {
          "long_name": "United States",
          "short_name": "US",
          "types": [
            "country",
            "political"
          ]
        }
      ],
      "formatted_address": "United States",
      "geometry": {
        "bounds": {
          "northeast": {
            "lat": 71.3867745,
            "lng": -66.9502861
          },
          "southwest": {
            "lat": 18.9106768,
            "lng": 172.4458955
          }
        },
        "location": {
          "lat": 37.09024,
          "lng": -95.712891
        },
        "location_type": "APPROXIMATE",
        "viewport": {
          "northeast": {
            "lat": 49.38,
            "lng": -66.94
          },
          "southwest": {
            "lat": 25.82,
            "lng": -124.39
          }
        }
      },
      "place_id": "ChIJCzYy5IS16lQRQrfeQ5K5Oxw",
      "types": [
        "country",
        "political"
      ]
    }
  ],
  "status": "OK"
}
