{
  "results": [
    {
      "address_components": [
        {
          "long_name": "208",
          "short_name": "208",
          "types": [
            "street_number"
          ]
        },
        {
          "long_name": "Schorie Avenue",
          "short_name": "Schorie Ave",
          "types": [
            "route"
          ]
        },
        {
          "long_name": "Joliet",
          "short_name": "Joliet",
          "types": [
            "locality",
            "political"
          ]
        },
        {
          "long_name": "Joliet Township",
          "short_name": "Joliet Township",
          "types": [
            "administrative_area_level_3",
            "political"
          ]
        },
        {
          "long_name": "Will County",
          "short_name": "Will County",
          "types": [
            "administrative_area_level_2",
            "political"
          ]
        },
        {
          "long_name": "Illinois",
          "short_name": "IL",
          "types": [
            "administrative_area_level_1",
            "political"
          ]
        },
        {
          "long_name": "United States",
          "short_name": "US",
          "types": [
            "country",
            "political"
          ]
        },
        {
          "long_name": "60433",
          "short_name": "60433",
          "types": [
            "postal_code"
          ]
        },
        {
          "long_name": "1410",
          "short_name": "1410",
          "types": [
            "postal_code_suffix"
          ]
        }
      ],
      "formatted_address": "208 Schorie Ave, Joliet, IL 60433, USA",
      "geometry": {
        "location": {
          "lat": 41.520288,
          "lng": -88.03450699999999
        },
        "location_type": "ROOFTOP",
        "viewport": {
          "northeast": {
            "lat": 41.5216369802915,
            "lng": -88.03315801970848
          },
          "southwest": {
            "lat": 41.5189390197085,
            "lng": -88.0358559802915
          }
        }
      },
      "place_id": "ChIJw2h7kGtmDogR_jDwj-8LCVg",
      "types": [
        "street_address"
      ]
    },
    {
      "address_components": [
        {
          "long_name": "Ingalls Park",
          "short_name": "Ingalls Park",
          "types": [
            "locality",
            "political"
          ]
        },
        {
          "long_name": "Joliet Township",
          "short_name": "Joliet Township",
          "types": [
            "administrative_area_level_3",
            "political"
          ]
        },
        {
          "long_name": "Will County",
          "short_name": "Will County",
          "types": [
            "administrative_area_level_2",
            "political"
          ]
        },
        {
          "long_name": "Illinois",
          "short_name": "IL",
          "types": [
            "administrative_area_level_1",
            "political"
          ]
        },
        {
          "long_name": "United States",
          "short_name": "US",
          "types": [
            "country",
            "political"
          ]
        }
      ],
      "formatted_address": "Ingalls Park, IL, USA",
      "geometry": {
        "bounds": {
          "northeast": {
            "lat": 41.5298309,
            "lng": -88.0230559
          },
          "southwest": {
            "lat": 41.51330189999999,
            "lng": -88.05032899999999
          }
        },
        "location": {
          "lat": 41.5195604,
          "lng": -88.0363086
        },
        "location_type": "APPROXIMATE",
        "viewport": {
          "northeast": {
            "lat": 41.5298309,
            "lng": -88.0230559
          },
          "southwest": {
            "lat": 41.51330189999999,
            "lng": -88.05032899999999
          }
        }
      },
      "place_id": "ChIJsYqLp2tmDogRq4DW3mYq5qw",
      "types": [
        "locality",
        "political"
      ]
    },
    {
      "address_components": [
        {
          "long_name": "60433",
          "short_name": "60433",
          "types": [
            "postal_code"
          ]
        },
        {
          "long_name": "Joliet",
          "short_name": "Joliet",
          "types": [
            "locality",
            "political"
          ]
        },
        {
          "long_name": "Will County",
          "short_name": "Will County",
          "types": [
            "administrative_area_level_2",
            "political"
          ]
        },
        {
          "long_name": "Illinois",
          "short_name": "IL",
          "types": [
            "administrative_area_level_1",
            "political"
          ]
        },
        {
          "long_name": "United States",
          "short_name": "US",
          "types": [
            "country",
            "political"
          ]
        }
      ],
      "formatted_address": "Joliet, IL 60433, USA",
      "geometry": {
        "bounds": {
          "northeast": {
            "lat": 41.5312798,
            "lng": -87.9885731
          },
          "southwest": {
            "lat": 41.46636300000001,
            "lng": -88.08219799999999
          }
        },
        "location": {
          "lat": 41.4997384,
          "lng": -88.0460894
        },
        "location_type": "APPROXIMATE",
        "viewport": {
          "northeast": {
            "lat": 41.5312798,
            "lng": -87.9885731
          },
          "southwest": {
            "lat": 41.46636300000001,
            "lng": -88.08219799999999
          }
        }
      },
      "place_id": "ChIJH8xAuNdlDogRzZzN7z2KsRg",
      "types": [
        "postal_code"
      ]
    },
    {
      "address_components": [
        {
          "long_name": "Joliet Township",
          "short_name": "Joliet Township",
          "types": [
            "administrative_area_level_3",
            "political"
          ]
        },
        {
          "long_name": "Will County",
          "short_name": "Will County",
          "types": [
            "administrative_area_level_2",
            "political"
          ]
        },
        {
          "long_name": "Illinois",
          "short_name": "IL",
          "types": [
            "administrative_area_level_1",
            "political"
          ]
        },
        {
          "long_name": "United States",
          "short_name": "US",
          "types": [
            "country",
            "political"
          ]
        }
      ],
      "formatted_address": "Joliet Township, IL, USA",
      "geometry": {
        "bounds": {
          "northeast": {
            "lat": 41.554231,
            "lng": -88.021155
          },
          "southwest": {
            "lat": 41.4649299,
            "lng": -88.141735
          }
        },
        "location": {
          "lat": 41.5251336,
          "lng": -88.0705319
        },
        "location_type": "APPROXIMATE",
        "viewport": {
          "northeast": {
            "lat": 41.554231,
            "lng": -88.021155
          },
          "southwest": {
            "lat": 41.4649299,
            "lng": -88.141735
          }
        }
      },
      "place_id": "ChIJr2S7aQNkDogRa2EdCFbT8uA",
      "types": [
        "administrative_area_level_3",
        "political"
      ]
    },
    {
      "address_components": [
        {
          "long_name": "Will County",
          "short_name": "Will County",
          "types": [
            "administrative_area_level_2",
            "political"
          ]
        },
        {
          "long_name": "Illinois",
          "short_name": "IL",
          "types": [
            "administrative_area_level_1",
            "political"
          ]
        },
        {
          "long_name": "United States",
          "short_name": "US",
          "types": [
            "country",
            "political"
          ]
        }
      ],
      "formatted_address": "Will County, IL, USA",
      "geometry": {
        "bounds": {
          "northeast": {
            "lat": 41.72893,
            "lng": -87.52530209999999
          },
          "southwest": {
            "lat": 41.2015529,
            "lng": -88.2614679
          }
        },
        "location": {
          "lat": 41.5054724,
          "lng": -88.0900762
        },
        "location_type": "APPROXIMATE",
        "viewport": {
          "northeast": {
            "lat": 41.72893,
            "lng": -87.52530209999999
          },
          "southwest": {
            "lat": 41.2015529,
            "lng": -88.2614679
          }
        }
      },
      "place_id": "ChIJuwvCvgOLDogRSNhOfXa7wKA",
      "types": [
        "administrative_area_level_2",
        "political"
      ]
    },
    {
      "address_components": [
        {
          "long_name": "Chicago Metropolitan Area",
          "short_name": "Chicago Metropolitan Area",
          "types": [
            "political"
          ]
        },
        {
          "long_name": "United States",
          "short_name": "US",
          "types": [
            "country",
            "political"
          ]
        }
      ],
      "formatted_address": "Chicago Metropolitan Area, USA",
      "geometry": {
        "bounds": {
          "northeast": {
            "lat": 42.670123,
            "lng": -86.92925699999999
          },
          "southwest": {
            "lat": 40.7364641,
            "lng": -88.942292
          }
        },
        "location": {
          "lat": 41.7435073,
          "lng": -88.0118473
        },
        "location_type": "APPROXIMATE",
        "viewport": {
          "northeast": {
            "lat": 42.670123,
            "lng": -86.92925699999999
          },
          "southwest": {
            "lat": 40.7364641,
            "lng": -88.942292
          }
        }
      },
      "place_id": "ChIJg-CZjExEDogRNJNXmgqEe9o",
      "types": [
        "political"
      ]
    },
    {
      "address_components": [
        {
          "long_name": "Illinois",
          "short_name": "IL",
          "types": [
            "administrative_area_level_1",
            "political"
          ]
        },
        {
          "long_name": "United States",
          "short_name": "US",
          "types": [
            "country",
            "political"
          ]
        }
      ],
      "formatted_address": "Illinois, USA",
      "geometry": {
        "bounds": {
          "northeast": {
            "lat": 42.5083379,
            "lng": -87.4951991
          },
          "southwest": {
            "lat": 36.970298,
            "lng": -91.5130789
          }
        },
        "location": {
          "lat": 40.6331249,
          "lng": -89.3985283
        },
        "location_type": "APPROXIMATE",
        "viewport": {
          "northeast": {
            "lat": 42.5083379,
            "lng": -87.4951991
          },
          "southwest": {
            "lat": 36.970298,
            "lng": -91.5130789
          }
        }
      },
      "place_id": "ChIJGSZubzgtC4gRVlkRZFCCFX8",
      "types": [
        "administrative_area_level_1",
        "political"
      ]
    },
    {
      "address_components": [
        {
          "long_name": "United States",
          "short_name": "US",
          "types": [
            "country",
            "political"
          ]
        }
      ],
      "formatted_address": "United States",
      "geometry": {
        "bounds": {
          "northeast": {
            "lat": 71.3867745,
            "lng": -66.9502861
          },
          "southwest": {
            "lat": 18.9106768,
            "lng": 172.4458955
          }
        },
        "location": {
          "lat": 37.09024,
          "lng": -95.712891
        },
        "location_type": "APPROXIMATE",
        "viewport": {
          "northeast": {
            "lat": 49.38,
            "lng": -66.94
          },
          "southwest": {
            "lat": 25.82,
            "lng": -124.39
          }
        }
      },
      "place_id": "ChIJCzYy5IS16lQRQrfeQ5K5Oxw",
      "types": [
        "country",
        "political"
      ]
    }
  ],
  "status": "OK"
}
