{
  "results": [
    {
      "address_components": [
        {
          "long_name": "6th Way",
          "short_name": "6th Way",
          "types": [
            "route"
          ]
        },
        {
          "long_name": "Tarentum",
          "short_name": "Tarentum",
          "types": [
            "locality",
            "political"
          ]
        },
        {
          "long_name": "West Deer Township",
          "short_name": "West Deer Township",
          "types": [
            "administrative_area_level_3",
            "political"
          ]
        },
        {
          "long_name": "Allegheny County",
          "short_name": "Allegheny County",
          "types": [
            "administrative_area_level_2",
            "political"
          ]
        },
        {
          "long_name": "Pennsylvania",
          "short_name": "PA",
          "types": [
            "administrative_area_level_1",
            "political"
          ]
        },
        {
          "long_name": "United States",
          "short_name": "US",
          "types": [
            "country",
            "political"
          ]
        },
        {
          "long_name": "15084",
          "short_name": "15084",
          "types": [
            "postal_code"
          ]
        }
      ],
      "formatted_address": "6th Way, Tarentum, PA 15084, USA",
      "geometry": {
        "bounds": {
          "northeast": {
            "lat": 40.65019909999999,
            "lng": -79.8491433
          },
          "southwest": {
            "lat": 40.6496251,
            "lng": -79.84955479999999
          }
        },
        "location": {
          "lat": 40.64990969999999,
          "lng": -79.8493544
        },
        "location_type": "GEOMETRIC_CENTER",
        "viewport": {
          "northeast": {
            "lat": 40.6512610802915,
            "lng": -79.84800006970849
          },
          "southwest": {
            "lat": 40.6485631197085,
            "lng": -79.8506980302915
          }
        }
      },
      "place_id": "ChIJRXphqsGQNIgRs6CnEQKqXTk",
      "types": [
        "route"
      ]
    },
    {
      "address_components": [
        {
          "long_name": "Curtisville",
          "short_name": "Curtisville",
          "types": [
            "locality",
            "political"
          ]
        },
        {
          "long_name": "West Deer Township",
          "short_name": "West Deer Township",
          "types": [
            "administrative_area_level_3",
            "political"
          ]
        },
        {
          "long_name": "Allegheny County",
          "short_name": "Allegheny County",
          "types": [
            "administrative_area_level_2",
            "political"
          ]
        },
        {
          "long_name": "Pennsylvania",
          "short_name": "PA",
          "types": [
            "administrative_area_level_1",
            "political"
          ]
        },
        {
          "long_name": "United States",
          "short_name": "US",
          "types": [
            "country",
            "political"
          ]
        }
      ],
      "formatted_address": "Curtisville, PA, USA",
      "geometry": {
        "bounds": {
          "northeast": {
            "lat": 40.6610419,
            "lng": -79.83865399999999
          },
          "southwest": {
            "lat": 40.6338099,
            "lng": -79.86359879999999
          }
        },
        "location": {
          "lat": 40.6422887,
          "lng": -79.85088569999999
        },
        "location_type": "APPROXIMATE",
        "viewport": {
          "northeast": {
            "lat": 40.6610419,
            "lng": -79.83865399999999
          },
          "southwest": {
            "lat": 40.6338099,
            "lng": -79.86359879999999
          }
        }
      },
      "place_id": "ChIJvweiP8GQNIgR-03P0Lia9FQ",
      "types": [
        "locality",
        "political"
      ]
    },
    {
      "address_components": [
        {
          "long_name": "West Deer Township",
          "short_name": "West Deer Township",
          "types": [
            "administrative_area_level_3",
            "political"
          ]
        },
        {
          "long_name": "Allegheny County",
          "short_name": "Allegheny County",
          "types": [
            "administrative_area_level_2",
            "political"
          ]
        },
        {
          "long_name": "Pennsylvania",
          "short_name": "PA",
          "types": [
            "administrative_area_level_1",
            "political"
          ]
        },
        {
          "long_name": "United States",
          "short_name": "US",
          "types": [
            "country",
            "political"
          ]
        }
      ],
      "formatted_address": "West Deer Township, PA, USA",
      "geometry": {
        "bounds": {
          "northeast": {
            "lat": 40.673234,
            "lng": -79.81269999999999
          },
          "southwest": {
            "lat": 40.596243,
            "lng": -79.92544079999999
          }
        },
        "location": {
          "lat": 40.6437754,
          "lng": -79.8632834
        },
        "location_type": "APPROXIMATE",
        "viewport": {
          "northeast": {
            "lat": 40.673234,
            "lng": -79.81269999999999
          },
          "southwest": {
            "lat": 40.596243,
            "lng": -79.92544079999999
          }
        }
      },
      "place_id": "ChIJyRJBkv2QNIgRp832z_iyCZg",
      "types": [
        "administrative_area_level_3",
        "political"
      ]
    },
    {
      "address_components": [
        {
          "long_name": "15084",
          "short_name": "15084",
          "types": [
            "postal_code"
          ]
        },
        {
          "long_name": "Tarentum",
          "short_name": "Tarentum",
          "types": [
            "locality",
            "political"
          ]
        },
        {
          "long_name": "Pennsylvania",
          "short_name": "PA",
          "types": [
            "administrative_area_level_1",
            "political"
          ]
        },
        {
          "long_name": "United States",
          "short_name": "US",
          "types": [
            "country",
            "political"
          ]
        }
      ],
      "formatted_address": "Tarentum, PA 15084, USA",
      "geometry": {
        "bounds": {
          "northeast": {
            "lat": 40.672264,
            "lng": -79.74117009999999
          },
          "southwest": {
            "lat": 40.544153,
            "lng": -79.8660309
          }
        },
        "location": {
          "lat": 40.6378147,
          "lng": -79.7960523
        },
        "location_type": "APPROXIMATE",
        "viewport": {
          "northeast": {
            "lat": 40.672264,
            "lng": -79.74117009999999
          },
          "southwest": {
            "lat": 40.544153,
            "lng": -79.8660309
          }
        }
      },
      "place_id": "ChIJyxXKQ-uWNIgRJJRW5L__mRg",
      "types": [
        "postal_code"
      ]
    },
    {
      "address_components": [
        {
          "long_name": "Allegheny County",
          "short_name": "Allegheny County",
          "types": [
            "administrative_area_level_2",
            "political"
          ]
        },
        {
          "long_name": "Pennsylvania",
          "short_name": "PA",
          "types": [
            "administrative_area_level_1",
            "political"
          ]
        },
        {
          "long_name": "United States",
          "short_name": "US",
          "types": [
            "country",
            "political"
          ]
        }
      ],
      "formatted_address": "Allegheny County, PA, USA",
      "geometry": {
        "bounds": {
          "northeast": {
            "lat": 40.67453,
            "lng": -79.6899755
          },
          "southwest": {
            "lat": 40.1943428,
            "lng": -80.36087289999999
          }
        },
        "location": {
          "lat": 40.4450813,
          "lng": -80.0087746
        },
        "location_type": "APPROXIMATE",
        "viewport": {
          "northeast": {
            "lat": 40.67453,
            "lng": -79.6899755
          },
          "southwest": {
            "lat": 40.1943428,
            "lng": -80.36087289999999
          }
        }
      },
      "place_id": "ChIJu-PIH-y5NIgRVFV1McCaCyw",
      "types": [
        "administrative_area_level_2",
        "political"
      ]
    },
    {
      "address_components": [
        {
          "long_name": "Pittsburgh",
          "short_name": "Pittsburgh",
          "types": [
            "political"
          ]
        },
        {
          "long_name": "United States",
          "short_name": "US",
          "types": [
            "country",
            "political"
          ]
        }
      ],
      "formatted_address": "Pittsburgh, USA",
      "geometry": {
        "bounds": {
          "northeast": {
            "lat": 41.1731849,
            "lng": -78.974649
          },
          "southwest": {
            "lat": 39.7207129,
            "lng": -80.5192179
          }
        },
        "location": {
          "lat": 40.3565093,
          "lng": -79.9192702
        },
        "location_type": "APPROXIMATE",
        "viewport": {
          "northeast": {
            "lat": 41.1731849,
            "lng": -78.974649
          },
          "southwest": {
            "lat": 39.7207129,
            "lng": -80.5192179
          }
        }
      },
      "place_id": "ChIJiWjZkAfsNIgRSXopSLGQlS4",
      "types": [
        "political"
      ]
    },
    {
      "address_components": [
        {
          "long_name": "Pennsylvania",
          "short_name": "PA",
          "types": [
            "administrative_area_level_1",
            "political"
          ]
        },
        {
          "long_name": "United States",
          "short_name": "US",
          "types": [
            "country",
            "political"
          ]
        }
      ],
      "formatted_address": "Pennsylvania, USA",
      "geometry": {
        "bounds": {
          "northeast": {
            "lat": 42.2693866,
            "lng": -74.6895018
          },
          "southwest": {
            "lat": 39.7197989,
            "lng": -80.51989499999999
          }
        },
        "location": {
          "lat": 41.2033216,
          "lng": -77.1945247
        },
        "location_type": "APPROXIMATE",
        "viewport": {
          "northeast": {
            "lat": 42.2693866,
            "lng": -74.6895018
          },
          "southwest": {
            "lat": 39.7197989,
            "lng": -80.51989499999999
          }
        }
      },
      "place_id": "ChIJieUyHiaALYgRPbQiUEchRsI",
      "types": [
        "administrative_area_level_1",
        "political"
      ]
    },
    {
      "address_components": [
        {
          "long_name": "United States",
          "short_name": "US",
          "types": [
            "country",
            "political"
          ]
        }
      ],
      "formatted_address": "United States",
      "geometry": {
        "bounds": {
          "northeast": {
            "lat": 71.3867745,
            "lng": -66.9502861
          },
          "southwest": {
            "lat": 18.9106768,
            "lng": 172.4458955
          }
        },
        "location": {
          "lat": 37.09024,
          "lng": -95.712891
        },
        "location_type": "APPROXIMATE",
        "viewport": {
          "northeast": {
            "lat": 49.38,
            "lng": -66.94
          },
          "southwest": {
            "lat": 25.82,
            "lng": -124.39
          }
        }
      },
      "place_id": "ChIJCzYy5IS16lQRQrfeQ5K5Oxw",
      "types": [
        "country",
        "political"
      ]
    }
  ],
  "status": "OK"
}
