{
  "results": [
    {
      "address_components": [
        {
          "long_name": "2-74",
          "short_name": "2-74",
          "types": [
            "street_number"
          ]
        },
        {
          "long_name": "Illinois 83",
          "short_name": "IL-83",
          "types": [
            "route"
          ]
        },
        {
          "long_name": "Mount Prospect",
          "short_name": "Mt Prospect",
          "types": [
            "locality",
            "political"
          ]
        },
        {
          "long_name": "Elk Grove Township",
          "short_name": "Elk Grove Township",
          "types": [
            "administrative_area_level_3",
            "political"
          ]
        },
        {
          "long_name": "Cook County",
          "short_name": "Cook County",
          "types": [
            "administrative_area_level_2",
            "political"
          ]
        },
        {
          "long_name": "Illinois",
          "short_name": "IL",
          "types": [
            "administrative_area_level_1",
            "political"
          ]
        },
        {
          "long_name": "United States",
          "short_name": "US",
          "types": [
            "country",
            "political"
          ]
        },
        {
          "long_name": "60056",
          "short_name": "60056",
          "types": [
            "postal_code"
          ]
        },
        {
          "long_name": "3224",
          "short_name": "3224",
          "types": [
            "postal_code_suffix"
          ]
        }
      ],
      "formatted_address": "2-74 IL-83, Mt Prospect, IL 60056, USA",
      "geometry": {
        "bounds": {
          "northeast": {
            "lat": 42.0662641,
            "lng": -87.93683759999999
          },
          "southwest": {
            "lat": 42.0649729,
            "lng": -87.9368606
          }
        },
        "location": {
          "lat": 42.0652816,
          "lng": -87.9368619
        },
        "location_type": "RANGE_INTERPOLATED",
        "viewport": {
          "northeast": {
            "lat": 42.0669674802915,
            "lng": -87.9355001197085
          },
          "southwest": {
            "lat": 42.0642695197085,
            "lng": -87.9381980802915
          }
        }
      },
      "place_id": "EiYyLTc0IElMLTgzLCBNdCBQcm9zcGVjdCwgSUwgNjAwNTYsIFVTQQ",
      "types": [
        "street_address"
      ]
    },
    {
      "address_components": [
        {
          "long_name": "20-74",
          "short_name": "20-74",
          "types": [
            "street_number"
          ]
        },
        {
          "long_name": "South Main Street",
          "short_name": "S Main St",
          "types": [
            "route"
          ]
        },
        {
          "long_name": "Mount Prospect",
          "short_name": "Mt Prospect",
          "types": [
            "locality",
            "political"
          ]
        },
        {
          "long_name": "Elk Grove Township",
          "short_name": "Elk Grove Township",
          "types": [
            "administrative_area_level_3",
            "political"
          ]
        },
        {
          "long_name": "Cook County",
          "short_name": "Cook County",
          "types": [
            "administrative_area_level_2",
            "political"
          ]
        },
        {
          "long_name": "Illinois",
          "short_name": "IL",
          "types": [
            "administrative_area_level_1",
            "political"
          ]
        },
        {
          "long_name": "United States",
          "short_name": "US",
          "types": [
            "country",
            "political"
          ]
        },
        {
          "long_name": "60056",
          "short_name": "60056",
          "types": [
            "postal_code"
          ]
        },
        {
          "long_name": "3224",
          "short_name": "3224",
          "types": [
            "postal_code_suffix"
          ]
        }
      ],
      "formatted_address": "20-74 S Main St, Mt Prospect, IL 60056, USA",
      "geometry": {
        "bounds": {
          "northeast": {
            "lat": 42.0662641,
            "lng": -87.93683759999999
          },
          "southwest": {
            "lat": 42.0649729,
            "lng": -87.9368606
          }
        },
        "location": {
          "lat": 42.0652816,
          "lng": -87.9368619
        },
        "location_type": "RANGE_INTERPOLATED",
        "viewport": {
          "northeast": {
            "lat": 42.0669674802915,
            "lng": -87.9355001197085
          },
          "southwest": {
            "lat": 42.0642695197085,
            "lng": -87.9381980802915
          }
        }
      },
      "place_id": "EisyMC03NCBTIE1haW4gU3QsIE10IFByb3NwZWN0LCBJTCA2MDA1NiwgVVNB",
      "types": [
        "street_address"
      ]
    },
    {
      "address_components": [
        {
          "long_name": "Mount Prospect",
          "short_name": "Mt Prospect",
          "types": [
            "locality",
            "political"
          ]
        },
        {
          "long_name": "Cook County",
          "short_name": "Cook County",
          "types": [
            "administrative_area_level_2",
            "political"
          ]
        },
        {
          "long_name": "Illinois",
          "short_name": "IL",
          "types": [
            "administrative_area_level_1",
            "political"
          ]
        },
        {
          "long_name": "United States",
          "short_name": "US",
          "types": [
            "country",
            "political"
          ]
        }
      ],
      "formatted_address": "Mt Prospect, IL, USA",
      "geometry": {
        "bounds": {
          "northeast": {
            "lat": 42.102127,
            "lng": -87.888676
          },
          "southwest": {
            "lat": 42.0300258,
            "lng": -87.975511
          }
        },
        "location": {
          "lat": 42.0664167,
          "lng": -87.9372908
        },
        "location_type": "APPROXIMATE",
        "viewport": {
          "northeast": {
            "lat": 42.102127,
            "lng": -87.888676
          },
          "southwest": {
            "lat": 42.0300258,
            "lng": -87.975511
          }
        }
      },
      "place_id": "ChIJM2JHxpa6D4gRGCkbLYZQIsQ",
      "types": [
        "locality",
        "political"
      ]
    },
    {
      "address_components": [
        {
          "long_name": "60056",
          "short_name": "60056",
          "types": [
            "postal_code"
          ]
        },
        {
          "long_name": "Mount Prospect",
          "short_name": "Mt Prospect",
          "types": [
            "locality",
            "political"
          ]
        },
        {
          "long_name": "Cook County",
          "short_name": "Cook County",
          "types": [
            "administrative_area_level_2",
            "political"
          ]
        },
        {
          "long_name": "Illinois",
          "short_name": "IL",
          "types": [
            "administrative_area_level_1",
            "political"
          ]
        },
        {
          "long_name": "United States",
          "short_name": "US",
          "types": [
            "country",
            "political"
          ]
        }
      ],
      "formatted_address": "Mt Prospect, IL 60056, USA",
      "geometry": {
        "bounds": {
          "northeast": {
            "lat": 42.103017,
            "lng": -87.8866449
          },
          "southwest": {
            "lat": 42.022596,
            "lng": -87.974991
          }
        },
        "location": {
          "lat": 42.0646736,
          "lng": -87.93838219999999
        },
        "location_type": "APPROXIMATE",
        "viewport": {
          "northeast": {
            "lat": 42.103017,
            "lng": -87.8866449
          },
          "southwest": {
            "lat": 42.022596,
            "lng": -87.974991
          }
        }
      },
      "place_id": "ChIJA0XwDv-5D4gRZ4SqKyd7oX0",
      "types": [
        "postal_code"
      ]
    },
    {
      "address_components": [
        {
          "long_name": "Elk Grove Township",
          "short_name": "Elk Grove Township",
          "types": [
            "administrative_area_level_3",
            "political"
          ]
        },
        {
          "long_name": "Cook County",
          "short_name": "Cook County",
          "types": [
            "administrative_area_level_2",
            "political"
          ]
        },
        {
          "long_name": "Illinois",
          "short_name": "IL",
          "types": [
            "administrative_area_level_1",
            "political"
          ]
        },
        {
          "long_name": "United States",
          "short_name": "US",
          "types": [
            "country",
            "political"
          ]
        }
      ],
      "formatted_address": "Elk Grove Township, IL, USA",
      "geometry": {
        "bounds": {
          "northeast": {
            "lat": 42.066827,
            "lng": -87.920366
          },
          "southwest": {
            "lat": 41.9924071,
            "lng": -88.031117
          }
        },
        "location": {
          "lat": 42.0408898,
          "lng": -87.9922684
        },
        "location_type": "APPROXIMATE",
        "viewport": {
          "northeast": {
            "lat": 42.066827,
            "lng": -87.920366
          },
          "southwest": {
            "lat": 41.9924071,
            "lng": -88.031117
          }
        }
      },
      "place_id": "ChIJRTfnRvqwD4gRJS3CXiEjcF8",
      "types": [
        "administrative_area_level_3",
        "political"
      ]
    },
    {
      "address_components": [
        {
          "long_name": "Cook County",
          "short_name": "Cook County",
          "types": [
            "administrative_area_level_2",
            "political"
          ]
        },
        {
          "long_name": "Illinois",
          "short_name": "IL",
          "types": [
            "administrative_area_level_1",
            "political"
          ]
        },
        {
          "long_name": "United States",
          "short_name": "US",
          "types": [
            "country",
            "political"
          ]
        }
      ],
      "formatted_address": "Cook County, IL, USA",
      "geometry": {
        "bounds": {
          "northeast": {
            "lat": 42.1543239,
            "lng": -87.52404399999999
          },
          "southwest": {
            "lat": 41.46953389999999,
            "lng": -88.2634779
          }
        },
        "location": {
          "lat": 41.7376587,
          "lng": -87.697554
        },
        "location_type": "APPROXIMATE",
        "viewport": {
          "northeast": {
            "lat": 42.1543239,
            "lng": -87.52404399999999
          },
          "southwest": {
            "lat": 41.46953389999999,
            "lng": -88.2634779
          }
        }
      },
      "place_id": "ChIJdRNDZqqxD4gRPOAOIwnX2Yo",
      "types": [
        "administrative_area_level_2",
        "political"
      ]
    },
    {
      "address_components": [
        {
          "long_name": "Chicago Metropolitan Area",
          "short_name": "Chicago Metropolitan Area",
          "types": [
            "political"
          ]
        },
        {
          "long_name": "United States",
          "short_name": "US",
          "types": [
            "country",
            "political"
          ]
        }
      ],
      "formatted_address": "Chicago Metropolitan Area, USA",
      "geometry": {
        "bounds": {
          "northeast": {
            "lat": 42.670123,
            "lng": -86.92925699999999
          },
          "southwest": {
            "lat": 40.7364641,
            "lng": -88.942292
          }
        },
        "location": {
          "lat": 41.7435073,
          "lng": -88.0118473
        },
        "location_type": "APPROXIMATE",
        "viewport": {
          "northeast": {
            "lat": 42.670123,
            "lng": -86.92925699999999
          },
          "southwest": {
            "lat": 40.7364641,
            "lng": -88.942292
          }
        }
      },
      "place_id": "ChIJg-CZjExEDogRNJNXmgqEe9o",
      "types": [
        "political"
      ]
    },
    {
      "address_components": [
        {
          "long_name": "Illinois",
          "short_name": "IL",
          "types": [
            "administrative_area_level_1",
            "political"
          ]
        },
        {
          "long_name": "United States",
          "short_name": "US",
          "types": [
            "country",
            "political"
          ]
        }
      ],
      "formatted_address": "Illinois, USA",
      "geometry": {
        "bounds": {
          "northeast": {
            "lat": 42.5083379,
            "lng": -87.4951991
          },
          "southwest": {
            "lat": 36.970298,
            "lng": -91.5130789
          }
        },
        "location": {
          "lat": 40.6331249,
          "lng": -89.3985283
        },
        "location_type": "APPROXIMATE",
        "viewport": {
          "northeast": {
            "lat": 42.5083379,
            "lng": -87.4951991
          },
          "southwest": {
            "lat": 36.970298,
            "lng": -91.5130789
          }
        }
      },
      "place_id": "ChIJGSZubzgtC4gRVlkRZFCCFX8",
      "types": [
        "administrative_area_level_1",
        "political"
      ]
    },
    {
      "address_components": [
        {
          "long_name": "United States",
          "short_name": "US",
          "types": [
            "country",
            "political"
          ]
        }
      ],
      "formatted_address": "United States",
      "geometry": {
        "bounds": {
          "northeast": {
            "lat": 71.3867745,
            "lng": -66.9502861
          },
          "southwest": {
            "lat": 18.9106768,
            "lng": 172.4458955
          }
        },
        "location": {
          "lat": 37.09024,
          "lng": -95.712891
        },
        "location_type": "APPROXIMATE",
        "viewport": {
          "northeast": {
            "lat": 49.38,
            "lng": -66.94
          },
          "southwest": {
            "lat": 25.82,
            "lng": -124.39
          }
        }
      },
      "place_id": "ChIJCzYy5IS16lQRQrfeQ5K5Oxw",
      "types": [
        "country",
        "political"
      ]
    }
  ],
  "status": "OK"
}
