{
  "results": [
    {
      "address_components": [
        {
          "long_name": "401",
          "short_name": "401",
          "types": [
            "street_number"
          ]
        },
        {
          "long_name": "Terryville Road",
          "short_name": "Terryville Rd",
          "types": [
            "route"
          ]
        },
        {
          "long_name": "Port Jefferson Station",
          "short_name": "Port Jefferson Station",
          "types": [
            "locality",
            "political"
          ]
        },
        {
          "long_name": "Brookhaven",
          "short_name": "Brookhaven",
          "types": [
            "administrative_area_level_3",
            "political"
          ]
        },
        {
          "long_name": "Suffolk County",
          "short_name": "Suffolk County",
          "types": [
            "administrative_area_level_2",
            "political"
          ]
        },
        {
          "long_name": "New York",
          "short_name": "NY",
          "types": [
            "administrative_area_level_1",
            "political"
          ]
        },
        {
          "long_name": "United States",
          "short_name": "US",
          "types": [
            "country",
            "political"
          ]
        },
        {
          "long_name": "11776",
          "short_name": "11776",
          "types": [
            "postal_code"
          ]
        },
        {
          "long_name": "2988",
          "short_name": "2988",
          "types": [
            "postal_code_suffix"
          ]
        }
      ],
      "formatted_address": "401 Terryville Rd, Port Jefferson Station, NY 11776, USA",
      "geometry": {
        "location": {
          "lat": 40.90909569999999,
          "lng": -73.0499854
        },
        "location_type": "ROOFTOP",
        "viewport": {
          "northeast": {
            "lat": 40.91044468029149,
            "lng": -73.04863641970849
          },
          "southwest": {
            "lat": 40.90774671970849,
            "lng": -73.0513343802915
          }
        }
      },
      "place_id": "ChIJgbHUftxA6IkRc4ZS-AIalbA",
      "types": [
        "street_address"
      ]
    },
    {
      "address_components": [
        {
          "long_name": "Terryville",
          "short_name": "Terryville",
          "types": [
            "locality",
            "political"
          ]
        },
        {
          "long_name": "Brookhaven",
          "short_name": "Brookhaven",
          "types": [
            "administrative_area_level_3",
            "political"
          ]
        },
        {
          "long_name": "Suffolk County",
          "short_name": "Suffolk County",
          "types": [
            "administrative_area_level_2",
            "political"
          ]
        },
        {
          "long_name": "New York",
          "short_name": "NY",
          "types": [
            "administrative_area_level_1",
            "political"
          ]
        },
        {
          "long_name": "United States",
          "short_name": "US",
          "types": [
            "country",
            "political"
          ]
        }
      ],
      "formatted_address": "Terryville, NY, USA",
      "geometry": {
        "bounds": {
          "northeast": {
            "lat": 40.9315498,
            "lng": -73.0279989
          },
          "southwest": {
            "lat": 40.888503,
            "lng": -73.07233579999999
          }
        },
        "location": {
          "lat": 40.9089874,
          "lng": -73.0651072
        },
        "location_type": "APPROXIMATE",
        "viewport": {
          "northeast": {
            "lat": 40.9315498,
            "lng": -73.0279989
          },
          "southwest": {
            "lat": 40.888503,
            "lng": -73.07233579999999
          }
        }
      },
      "place_id": "ChIJeQiucNtA6IkRwJ-cAXuhK8U",
      "types": [
        "locality",
        "political"
      ]
    },
    {
      "address_components": [
        {
          "long_name": "11776",
          "short_name": "11776",
          "types": [
            "postal_code"
          ]
        },
        {
          "long_name": "Port Jefferson Station",
          "short_name": "Port Jefferson Station",
          "types": [
            "locality",
            "political"
          ]
        },
        {
          "long_name": "Brookhaven",
          "short_name": "Brookhaven",
          "types": [
            "administrative_area_level_3",
            "political"
          ]
        },
        {
          "long_name": "Suffolk County",
          "short_name": "Suffolk County",
          "types": [
            "administrative_area_level_2",
            "political"
          ]
        },
        {
          "long_name": "New York",
          "short_name": "NY",
          "types": [
            "administrative_area_level_1",
            "political"
          ]
        },
        {
          "long_name": "United States",
          "short_name": "US",
          "types": [
            "country",
            "political"
          ]
        }
      ],
      "formatted_address": "Port Jefferson Station, NY 11776, USA",
      "geometry": {
        "bounds": {
          "northeast": {
            "lat": 40.937698,
            "lng": -73.008309
          },
          "southwest": {
            "lat": 40.888503,
            "lng": -73.0763651
          }
        },
        "location": {
          "lat": 40.90860139999999,
          "lng": -73.0464309
        },
        "location_type": "APPROXIMATE",
        "viewport": {
          "northeast": {
            "lat": 40.937698,
            "lng": -73.008309
          },
          "southwest": {
            "lat": 40.888503,
            "lng": -73.0763651
          }
        }
      },
      "place_id": "ChIJJ9atd-BA6IkRfXg_wE1Klkg",
      "postcode_localities": [
        "PORT JEFF STA",
        "Port Jefferson Station"
      ],
      "types": [
        "postal_code"
      ]
    },
    {
      "address_components": [
        {
          "long_name": "Brookhaven",
          "short_name": "Brookhaven",
          "types": [
            "administrative_area_level_3",
            "political"
          ]
        },
        {
          "long_name": "Suffolk County",
          "short_name": "Suffolk County",
          "types": [
            "administrative_area_level_2",
            "political"
          ]
        },
        {
          "long_name": "New York",
          "short_name": "NY",
          "types": [
            "administrative_area_level_1",
            "political"
          ]
        },
        {
          "long_name": "United States",
          "short_name": "US",
          "types": [
            "country",
            "political"
          ]
        }
      ],
      "formatted_address": "Brookhaven, NY, USA",
      "geometry": {
        "bounds": {
          "northeast": {
            "lat": 40.9776667,
            "lng": -72.7029008
          },
          "southwest": {
            "lat": 40.6455704,
            "lng": -73.1590131
          }
        },
        "location": {
          "lat": 40.8858353,
          "lng": -72.99329689999999
        },
        "location_type": "APPROXIMATE",
        "viewport": {
          "northeast": {
            "lat": 40.9776667,
            "lng": -72.7029008
          },
          "southwest": {
            "lat": 40.6455704,
            "lng": -73.1590131
          }
        }
      },
      "place_id": "ChIJC6iSqSlf6IkRKpM-iqF_WnY",
      "types": [
        "administrative_area_level_3",
        "political"
      ]
    },
    {
      "address_components": [
        {
          "long_name": "Suffolk County",
          "short_name": "Suffolk County",
          "types": [
            "administrative_area_level_2",
            "political"
          ]
        },
        {
          "long_name": "New York",
          "short_name": "NY",
          "types": [
            "administrative_area_level_1",
            "political"
          ]
        },
        {
          "long_name": "United States",
          "short_name": "US",
          "types": [
            "country",
            "political"
          ]
        }
      ],
      "formatted_address": "Suffolk County, NY, USA",
      "geometry": {
        "bounds": {
          "northeast": {
            "lat": 41.2923797,
            "lng": -71.8562082
          },
          "southwest": {
            "lat": 40.6094203,
            "lng": -73.497125
          }
        },
        "location": {
          "lat": 40.9848784,
          "lng": -72.61511689999999
        },
        "location_type": "APPROXIMATE",
        "viewport": {
          "northeast": {
            "lat": 41.2923194,
            "lng": -71.8562082
          },
          "southwest": {
            "lat": 40.6094203,
            "lng": -73.497125
          }
        }
      },
      "place_id": "ChIJ1_mbyICu4IkRU18dDUkMxJU",
      "types": [
        "administrative_area_level_2",
        "political"
      ]
    },
    {
      "address_components": [
        {
          "long_name": "New York",
          "short_name": "NY",
          "types": [
            "administrative_area_level_1",
            "political"
          ]
        },
        {
          "long_name": "United States",
          "short_name": "US",
          "types": [
            "country",
            "political"
          ]
        }
      ],
      "formatted_address": "New York, USA",
      "geometry": {
        "bounds": {
          "northeast": {
            "lat": 45.015865,
            "lng": -71.85620639999999
          },
          "southwest": {
            "lat": 40.496091,
            "lng": -79.76214379999999
          }
        },
        "location": {
          "lat": 43.2994285,
          "lng": -74.21793260000001
        },
        "location_type": "APPROXIMATE",
        "viewport": {
          "northeast": {
            "lat": 45.015859,
            "lng": -71.85620639999999
          },
          "southwest": {
            "lat": 40.496091,
            "lng": -79.76214379999999
          }
        }
      },
      "place_id": "ChIJqaUj8fBLzEwRZ5UY3sHGz90",
      "types": [
        "administrative_area_level_1",
        "political"
      ]
    },
    {
      "address_components": [
        {
          "long_name": "United States",
          "short_name": "US",
          "types": [
            "country",
            "political"
          ]
        }
      ],
      "formatted_address": "United States",
      "geometry": {
        "bounds": {
          "northeast": {
            "lat": 71.3867745,
            "lng": -66.9502861
          },
          "southwest": {
            "lat": 18.9106768,
            "lng": 172.4458955
          }
        },
        "location": {
          "lat": 37.09024,
          "lng": -95.712891
        },
        "location_type": "APPROXIMATE",
        "viewport": {
          "northeast": {
            "lat": 49.38,
            "lng": -66.94
          },
          "southwest": {
            "lat": 25.82,
            "lng": -124.39
          }
        }
      },
      "place_id": "ChIJCzYy5IS16lQRQrfeQ5K5Oxw",
      "types": [
        "country",
        "political"
      ]
    }
  ],
  "status": "OK"
}
