{
  "results": [
    {
      "address_components": [
        {
          "long_name": "502-508",
          "short_name": "502-508",
          "types": [
            "street_number"
          ]
        },
        {
          "long_name": "North Patterson Street",
          "short_name": "N Patterson St",
          "types": [
            "route"
          ]
        },
        {
          "long_name": "Forest",
          "short_name": "Forest",
          "types": [
            "locality",
            "political"
          ]
        },
        {
          "long_name": "Jackson Township",
          "short_name": "Jackson Township",
          "types": [
            "administrative_area_level_3",
            "political"
          ]
        },
        {
          "long_name": "Hardin County",
          "short_name": "Hardin County",
          "types": [
            "administrative_area_level_2",
            "political"
          ]
        },
        {
          "long_name": "Ohio",
          "short_name": "OH",
          "types": [
            "administrative_area_level_1",
            "political"
          ]
        },
        {
          "long_name": "United States",
          "short_name": "US",
          "types": [
            "country",
            "political"
          ]
        },
        {
          "long_name": "45843",
          "short_name": "45843",
          "types": [
            "postal_code"
          ]
        },
        {
          "long_name": "1048",
          "short_name": "1048",
          "types": [
            "postal_code_suffix"
          ]
        }
      ],
      "formatted_address": "502-508 N Patterson St, Forest, OH 45843, USA",
      "geometry": {
        "bounds": {
          "northeast": {
            "lat": 40.8065252,
            "lng": -83.5118877
          },
          "southwest": {
            "lat": 40.8054986,
            "lng": -83.5119397
          }
        },
        "location": {
          "lat": 40.8063922,
          "lng": -83.51187039999999
        },
        "location_type": "RANGE_INTERPOLATED",
        "viewport": {
          "northeast": {
            "lat": 40.8073608802915,
            "lng": -83.5105647197085
          },
          "southwest": {
            "lat": 40.80466291970851,
            "lng": -83.5132626802915
          }
        }
      },
      "place_id": "Ei01MDItNTA4IE4gUGF0dGVyc29uIFN0LCBGb3Jlc3QsIE9IIDQ1ODQzLCBVU0E",
      "types": [
        "street_address"
      ]
    },
    {
      "address_components": [
        {
          "long_name": "Forest",
          "short_name": "Forest",
          "types": [
            "locality",
            "political"
          ]
        },
        {
          "long_name": "Jackson Township",
          "short_name": "Jackson Township",
          "types": [
            "administrative_area_level_3",
            "political"
          ]
        },
        {
          "long_name": "Hardin County",
          "short_name": "Hardin County",
          "types": [
            "administrative_area_level_2",
            "political"
          ]
        },
        {
          "long_name": "Ohio",
          "short_name": "OH",
          "types": [
            "administrative_area_level_1",
            "political"
          ]
        },
        {
          "long_name": "United States",
          "short_name": "US",
          "types": [
            "country",
            "political"
          ]
        },
        {
          "long_name": "45843",
          "short_name": "45843",
          "types": [
            "postal_code"
          ]
        }
      ],
      "formatted_address": "Forest, OH 45843, USA",
      "geometry": {
        "bounds": {
          "northeast": {
            "lat": 40.8110889,
            "lng": -83.5009749
          },
          "southwest": {
            "lat": 40.7943719,
            "lng": -83.5249328
          }
        },
        "location": {
          "lat": 40.8017214,
          "lng": -83.51048209999999
        },
        "location_type": "APPROXIMATE",
        "viewport": {
          "northeast": {
            "lat": 40.8110889,
            "lng": -83.5009749
          },
          "southwest": {
            "lat": 40.7943719,
            "lng": -83.5249328
          }
        }
      },
      "place_id": "ChIJ9XRCSRZKOYgRiwO_XDrqxzE",
      "types": [
        "locality",
        "political"
      ]
    },
    {
      "address_components": [
        {
          "long_name": "Jackson Township",
          "short_name": "Jackson Township",
          "types": [
            "administrative_area_level_3",
            "political"
          ]
        },
        {
          "long_name": "Hardin County",
          "short_name": "Hardin County",
          "types": [
            "administrative_area_level_2",
            "political"
          ]
        },
        {
          "long_name": "Ohio",
          "short_name": "OH",
          "types": [
            "administrative_area_level_1",
            "political"
          ]
        },
        {
          "long_name": "United States",
          "short_name": "US",
          "types": [
            "country",
            "political"
          ]
        }
      ],
      "formatted_address": "Jackson Township, OH, USA",
      "geometry": {
        "bounds": {
          "northeast": {
            "lat": 40.8188789,
            "lng": -83.496296
          },
          "southwest": {
            "lat": 40.730474,
            "lng": -83.576589
          }
        },
        "location": {
          "lat": 40.7572757,
          "lng": -83.528342
        },
        "location_type": "APPROXIMATE",
        "viewport": {
          "northeast": {
            "lat": 40.8188789,
            "lng": -83.496296
          },
          "southwest": {
            "lat": 40.730474,
            "lng": -83.576589
          }
        }
      },
      "place_id": "ChIJYUKi4og1OYgRD7YFIFt7n2Q",
      "types": [
        "administrative_area_level_3",
        "political"
      ]
    },
    {
      "address_components": [
        {
          "long_name": "45843",
          "short_name": "45843",
          "types": [
            "postal_code"
          ]
        },
        {
          "long_name": "Forest",
          "short_name": "Forest",
          "types": [
            "locality",
            "political"
          ]
        },
        {
          "long_name": "Ohio",
          "short_name": "OH",
          "types": [
            "administrative_area_level_1",
            "political"
          ]
        },
        {
          "long_name": "United States",
          "short_name": "US",
          "types": [
            "country",
            "political"
          ]
        }
      ],
      "formatted_address": "Forest, OH 45843, USA",
      "geometry": {
        "bounds": {
          "northeast": {
            "lat": 40.8624149,
            "lng": -83.3999809
          },
          "southwest": {
            "lat": 40.68363,
            "lng": -83.7663051
          }
        },
        "location": {
          "lat": 40.7976247,
          "lng": -83.528342
        },
        "location_type": "APPROXIMATE",
        "viewport": {
          "northeast": {
            "lat": 40.8624149,
            "lng": -83.3999809
          },
          "southwest": {
            "lat": 40.68363,
            "lng": -83.7663051
          }
        }
      },
      "place_id": "ChIJs1i_UVw1OYgRsylBmL8R0qw",
      "types": [
        "postal_code"
      ]
    },
    {
      "address_components": [
        {
          "long_name": "Hardin County",
          "short_name": "Hardin County",
          "types": [
            "administrative_area_level_2",
            "political"
          ]
        },
        {
          "long_name": "Ohio",
          "short_name": "OH",
          "types": [
            "administrative_area_level_1",
            "political"
          ]
        },
        {
          "long_name": "United States",
          "short_name": "US",
          "types": [
            "country",
            "political"
          ]
        }
      ],
      "formatted_address": "Hardin County, OH, USA",
      "geometry": {
        "bounds": {
          "northeast": {
            "lat": 40.819919,
            "lng": -83.415303
          },
          "southwest": {
            "lat": 40.504019,
            "lng": -83.8804079
          }
        },
        "location": {
          "lat": 40.704961,
          "lng": -83.67739279999999
        },
        "location_type": "APPROXIMATE",
        "viewport": {
          "northeast": {
            "lat": 40.819919,
            "lng": -83.415303
          },
          "southwest": {
            "lat": 40.504019,
            "lng": -83.8804079
          }
        }
      },
      "place_id": "ChIJR2bcShJJOYgRmHK1GN1OfB4",
      "types": [
        "administrative_area_level_2",
        "political"
      ]
    },
    {
      "address_components": [
        {
          "long_name": "Ohio",
          "short_name": "OH",
          "types": [
            "administrative_area_level_1",
            "political"
          ]
        },
        {
          "long_name": "United States",
          "short_name": "US",
          "types": [
            "country",
            "political"
          ]
        }
      ],
      "formatted_address": "Ohio, USA",
      "geometry": {
        "bounds": {
          "northeast": {
            "lat": 41.9773019,
            "lng": -80.5182
          },
          "southwest": {
            "lat": 38.4034229,
            "lng": -84.8203049
          }
        },
        "location": {
          "lat": 40.4172871,
          "lng": -82.90712300000001
        },
        "location_type": "APPROXIMATE",
        "viewport": {
          "northeast": {
            "lat": 41.9773019,
            "lng": -80.5182
          },
          "southwest": {
            "lat": 38.4034229,
            "lng": -84.8203049
          }
        }
      },
      "place_id": "ChIJwY5NtXrpNogRFtmfnDlkzeU",
      "types": [
        "administrative_area_level_1",
        "political"
      ]
    },
    {
      "address_components": [
        {
          "long_name": "United States",
          "short_name": "US",
          "types": [
            "country",
            "political"
          ]
        }
      ],
      "formatted_address": "United States",
      "geometry": {
        "bounds": {
          "northeast": {
            "lat": 71.3867745,
            "lng": -66.9502861
          },
          "southwest": {
            "lat": 18.9106768,
            "lng": 172.4458955
          }
        },
        "location": {
          "lat": 37.09024,
          "lng": -95.712891
        },
        "location_type": "APPROXIMATE",
        "viewport": {
          "northeast": {
            "lat": 49.38,
            "lng": -66.94
          },
          "southwest": {
            "lat": 25.82,
            "lng": -124.39
          }
        }
      },
      "place_id": "ChIJCzYy5IS16lQRQrfeQ5K5Oxw",
      "types": [
        "country",
        "political"
      ]
    }
  ],
  "status": "OK"
}
