{
  "results": [
    {
      "address_components": [
        {
          "long_name": "103",
          "short_name": "103",
          "types": [
            "street_number"
          ]
        },
        {
          "long_name": "West South Street",
          "short_name": "W South St",
          "types": [
            "route"
          ]
        },
        {
          "long_name": "Tipton",
          "short_name": "Tipton",
          "types": [
            "locality",
            "political"
          ]
        },
        {
          "long_name": "Jackson Township",
          "short_name": "Jackson Township",
          "types": [
            "administrative_area_level_3",
            "political"
          ]
        },
        {
          "long_name": "Hamilton County",
          "short_name": "Hamilton County",
          "types": [
            "administrative_area_level_2",
            "political"
          ]
        },
        {
          "long_name": "Indiana",
          "short_name": "IN",
          "types": [
            "administrative_area_level_1",
            "political"
          ]
        },
        {
          "long_name": "United States",
          "short_name": "US",
          "types": [
            "country",
            "political"
          ]
        },
        {
          "long_name": "46072",
          "short_name": "46072",
          "types": [
            "postal_code"
          ]
        }
      ],
      "formatted_address": "103 W South St, Tipton, IN 46072, USA",
      "geometry": {
        "location": {
          "lat": 40.174427,
          "lng": -86.021039
        },
        "location_type": "ROOFTOP",
        "viewport": {
          "northeast": {
            "lat": 40.1757759802915,
            "lng": -86.0196900197085
          },
          "southwest": {
            "lat": 40.1730780197085,
            "lng": -86.02238798029151
          }
        }
      },
      "place_id": "ChIJgSfaihm8FIgRP5lxa75yvR8",
      "types": [
        "street_address"
      ]
    },
    {
      "address_components": [
        {
          "long_name": "Arcadia",
          "short_name": "Arcadia",
          "types": [
            "locality",
            "political"
          ]
        },
        {
          "long_name": "Jackson Township",
          "short_name": "Jackson Township",
          "types": [
            "administrative_area_level_3",
            "political"
          ]
        },
        {
          "long_name": "Hamilton County",
          "short_name": "Hamilton County",
          "types": [
            "administrative_area_level_2",
            "political"
          ]
        },
        {
          "long_name": "Indiana",
          "short_name": "IN",
          "types": [
            "administrative_area_level_1",
            "political"
          ]
        },
        {
          "long_name": "United States",
          "short_name": "US",
          "types": [
            "country",
            "political"
          ]
        },
        {
          "long_name": "46030",
          "short_name": "46030",
          "types": [
            "postal_code"
          ]
        }
      ],
      "formatted_address": "Arcadia, IN 46030, USA",
      "geometry": {
        "bounds": {
          "northeast": {
            "lat": 40.179474,
            "lng": -86.01307299999999
          },
          "southwest": {
            "lat": 40.168636,
            "lng": -86.0327219
          }
        },
        "location": {
          "lat": 40.1758704,
          "lng": -86.0216521
        },
        "location_type": "APPROXIMATE",
        "viewport": {
          "northeast": {
            "lat": 40.179474,
            "lng": -86.01307299999999
          },
          "southwest": {
            "lat": 40.168636,
            "lng": -86.0327219
          }
        }
      },
      "place_id": "ChIJzVdeqRC8FIgRxyaRpJdGzbw",
      "types": [
        "locality",
        "political"
      ]
    },
    {
      "address_components": [
        {
          "long_name": "Jackson Township",
          "short_name": "Jackson Township",
          "types": [
            "administrative_area_level_3",
            "political"
          ]
        },
        {
          "long_name": "Hamilton County",
          "short_name": "Hamilton County",
          "types": [
            "administrative_area_level_2",
            "political"
          ]
        },
        {
          "long_name": "Indiana",
          "short_name": "IN",
          "types": [
            "administrative_area_level_1",
            "political"
          ]
        },
        {
          "long_name": "United States",
          "short_name": "US",
          "types": [
            "country",
            "political"
          ]
        }
      ],
      "formatted_address": "Jackson Township, IN, USA",
      "geometry": {
        "bounds": {
          "northeast": {
            "lat": 40.2181519,
            "lng": -85.99449609999999
          },
          "southwest": {
            "lat": 40.101267,
            "lng": -86.1282669
          }
        },
        "location": {
          "lat": 40.1402964,
          "lng": -86.0733498
        },
        "location_type": "APPROXIMATE",
        "viewport": {
          "northeast": {
            "lat": 40.2181519,
            "lng": -85.99449609999999
          },
          "southwest": {
            "lat": 40.101267,
            "lng": -86.1282669
          }
        }
      },
      "place_id": "ChIJiwqOZH27FIgRgHSvPfHZgnY",
      "types": [
        "administrative_area_level_3",
        "political"
      ]
    },
    {
      "address_components": [
        {
          "long_name": "46030",
          "short_name": "46030",
          "types": [
            "postal_code"
          ]
        },
        {
          "long_name": "Arcadia",
          "short_name": "Arcadia",
          "types": [
            "locality",
            "political"
          ]
        },
        {
          "long_name": "Indiana",
          "short_name": "IN",
          "types": [
            "administrative_area_level_1",
            "political"
          ]
        },
        {
          "long_name": "United States",
          "short_name": "US",
          "types": [
            "country",
            "political"
          ]
        }
      ],
      "formatted_address": "Arcadia, IN 46030, USA",
      "geometry": {
        "bounds": {
          "northeast": {
            "lat": 40.205644,
            "lng": -85.8627581
          },
          "southwest": {
            "lat": 40.1156289,
            "lng": -86.16947689999999
          }
        },
        "location": {
          "lat": 40.1692236,
          "lng": -86.0223611
        },
        "location_type": "APPROXIMATE",
        "viewport": {
          "northeast": {
            "lat": 40.205644,
            "lng": -85.8627581
          },
          "southwest": {
            "lat": 40.1156289,
            "lng": -86.16947689999999
          }
        }
      },
      "place_id": "ChIJZwpRxQK8FIgRW3-UEC-Tjfs",
      "types": [
        "postal_code"
      ]
    },
    {
      "address_components": [
        {
          "long_name": "Hamilton County",
          "short_name": "Hamilton County",
          "types": [
            "administrative_area_level_2",
            "political"
          ]
        },
        {
          "long_name": "Indiana",
          "short_name": "IN",
          "types": [
            "administrative_area_level_1",
            "political"
          ]
        },
        {
          "long_name": "United States",
          "short_name": "US",
          "types": [
            "country",
            "political"
          ]
        }
      ],
      "formatted_address": "Hamilton County, IN, USA",
      "geometry": {
        "bounds": {
          "northeast": {
            "lat": 40.2189368,
            "lng": -85.8618561
          },
          "southwest": {
            "lat": 39.926055,
            "lng": -86.2427429
          }
        },
        "location": {
          "lat": 40.0372797,
          "lng": -86.05296039999999
        },
        "location_type": "APPROXIMATE",
        "viewport": {
          "northeast": {
            "lat": 40.2189368,
            "lng": -85.8618561
          },
          "southwest": {
            "lat": 39.926055,
            "lng": -86.2427429
          }
        }
      },
      "place_id": "ChIJ8ylPYRTAFIgRel9tI4yNmro",
      "types": [
        "administrative_area_level_2",
        "political"
      ]
    },
    {
      "address_components": [
        {
          "long_name": "Indianapolis",
          "short_name": "Indianapolis",
          "types": [
            "political"
          ]
        },
        {
          "long_name": "Indiana",
          "short_name": "IN",
          "types": [
            "administrative_area_level_1",
            "political"
          ]
        },
        {
          "long_name": "United States",
          "short_name": "US",
          "types": [
            "country",
            "political"
          ]
        }
      ],
      "formatted_address": "Indianapolis, IN, USA",
      "geometry": {
        "bounds": {
          "northeast": {
            "lat": 40.218985,
            "lng": -85.5763581
          },
          "southwest": {
            "lat": 39.048355,
            "lng": -87.0149399
          }
        },
        "location": {
          "lat": 39.7616739,
          "lng": -86.41873079999999
        },
        "location_type": "APPROXIMATE",
        "viewport": {
          "northeast": {
            "lat": 40.218985,
            "lng": -85.5763581
          },
          "southwest": {
            "lat": 39.048355,
            "lng": -87.0149399
          }
        }
      },
      "place_id": "ChIJpwnS6GanbIgRYryPufOfANQ",
      "types": [
        "political"
      ]
    },
    {
      "address_components": [
        {
          "long_name": "Indiana",
          "short_name": "IN",
          "types": [
            "administrative_area_level_1",
            "political"
          ]
        },
        {
          "long_name": "United States",
          "short_name": "US",
          "types": [
            "country",
            "political"
          ]
        }
      ],
      "formatted_address": "Indiana, USA",
      "geometry": {
        "bounds": {
          "northeast": {
            "lat": 41.7606971,
            "lng": -84.784662
          },
          "southwest": {
            "lat": 37.7717419,
            "lng": -88.097892
          }
        },
        "location": {
          "lat": 40.2671941,
          "lng": -86.1349019
        },
        "location_type": "APPROXIMATE",
        "viewport": {
          "northeast": {
            "lat": 41.7606971,
            "lng": -84.784662
          },
          "southwest": {
            "lat": 37.7717419,
            "lng": -88.097892
          }
        }
      },
      "place_id": "ChIJHRv42bxQa4gRcuwyy84vEH4",
      "types": [
        "administrative_area_level_1",
        "political"
      ]
    },
    {
      "address_components": [
        {
          "long_name": "United States",
          "short_name": "US",
          "types": [
            "country",
            "political"
          ]
        }
      ],
      "formatted_address": "United States",
      "geometry": {
        "bounds": {
          "northeast": {
            "lat": 71.3867745,
            "lng": -66.9502861
          },
          "southwest": {
            "lat": 18.9106768,
            "lng": 172.4458955
          }
        },
        "location": {
          "lat": 37.09024,
          "lng": -95.712891
        },
        "location_type": "APPROXIMATE",
        "viewport": {
          "northeast": {
            "lat": 49.38,
            "lng": -66.94
          },
          "southwest": {
            "lat": 25.82,
            "lng": -124.39
          }
        }
      },
      "place_id": "ChIJCzYy5IS16lQRQrfeQ5K5Oxw",
      "types": [
        "country",
        "political"
      ]
    }
  ],
  "status": "OK"
}
