{
  "results": [
    {
      "address_components": [
        {
          "long_name": "Three Rivers Parkway",
          "short_name": "Three Rivers Pkwy",
          "types": [
            "route"
          ]
        },
        {
          "long_name": "Addyston",
          "short_name": "Addyston",
          "types": [
            "locality",
            "political"
          ]
        },
        {
          "long_name": "Miami Township",
          "short_name": "Miami Township",
          "types": [
            "administrative_area_level_3",
            "political"
          ]
        },
        {
          "long_name": "Hamilton County",
          "short_name": "Hamilton County",
          "types": [
            "administrative_area_level_2",
            "political"
          ]
        },
        {
          "long_name": "Ohio",
          "short_name": "OH",
          "types": [
            "administrative_area_level_1",
            "political"
          ]
        },
        {
          "long_name": "United States",
          "short_name": "US",
          "types": [
            "country",
            "political"
          ]
        },
        {
          "long_name": "45001",
          "short_name": "45001",
          "types": [
            "postal_code"
          ]
        }
      ],
      "formatted_address": "Three Rivers Pkwy, Addyston, OH 45001, USA",
      "geometry": {
        "bounds": {
          "northeast": {
            "lat": 39.1382016,
            "lng": -84.7100181
          },
          "southwest": {
            "lat": 39.1366329,
            "lng": -84.7136067
          }
        },
        "location": {
          "lat": 39.13757409999999,
          "lng": -84.711685
        },
        "location_type": "GEOMETRIC_CENTER",
        "viewport": {
          "northeast": {
            "lat": 39.13876623029149,
            "lng": -84.7100181
          },
          "southwest": {
            "lat": 39.1360682697085,
            "lng": -84.7136067
          }
        }
      },
      "place_id": "ChIJGYCM6j_MQYgRDvVFt24e3zw",
      "types": [
        "route"
      ]
    },
    {
      "address_components": [
        {
          "long_name": "Dining Ln & Main St",
          "short_name": "Dining Ln & Main St",
          "types": [
            "point_of_interest",
            "establishment"
          ]
        },
        {
          "long_name": "Addyston",
          "short_name": "Addyston",
          "types": [
            "locality",
            "political"
          ]
        },
        {
          "long_name": "Miami Township",
          "short_name": "Miami Township",
          "types": [
            "administrative_area_level_3",
            "political"
          ]
        },
        {
          "long_name": "Hamilton County",
          "short_name": "Hamilton County",
          "types": [
            "administrative_area_level_2",
            "political"
          ]
        },
        {
          "long_name": "Ohio",
          "short_name": "OH",
          "types": [
            "administrative_area_level_1",
            "political"
          ]
        },
        {
          "long_name": "United States",
          "short_name": "US",
          "types": [
            "country",
            "political"
          ]
        },
        {
          "long_name": "45233",
          "short_name": "45233",
          "types": [
            "postal_code"
          ]
        }
      ],
      "formatted_address": "Dining Ln & Main St, Addyston, OH 45233, USA",
      "geometry": {
        "location": {
          "lat": 39.137088,
          "lng": -84.70979
        },
        "location_type": "APPROXIMATE",
        "viewport": {
          "northeast": {
            "lat": 39.1384369802915,
            "lng": -84.70844101970849
          },
          "southwest": {
            "lat": 39.1357390197085,
            "lng": -84.7111389802915
          }
        }
      },
      "place_id": "ChIJzaanaRXMQYgR6bjKLirkVO8",
      "types": [
        "bus_station",
        "transit_station",
        "point_of_interest",
        "establishment"
      ]
    },
    {
      "address_components": [
        {
          "long_name": "Addyston",
          "short_name": "Addyston",
          "types": [
            "locality",
            "political"
          ]
        },
        {
          "long_name": "Miami Township",
          "short_name": "Miami Township",
          "types": [
            "administrative_area_level_3",
            "political"
          ]
        },
        {
          "long_name": "Hamilton County",
          "short_name": "Hamilton County",
          "types": [
            "administrative_area_level_2",
            "political"
          ]
        },
        {
          "long_name": "Ohio",
          "short_name": "OH",
          "types": [
            "administrative_area_level_1",
            "political"
          ]
        },
        {
          "long_name": "United States",
          "short_name": "US",
          "types": [
            "country",
            "political"
          ]
        }
      ],
      "formatted_address": "Addyston, OH, USA",
      "geometry": {
        "bounds": {
          "northeast": {
            "lat": 39.144858,
            "lng": -84.693145
          },
          "southwest": {
            "lat": 39.12445210000001,
            "lng": -84.726148
          }
        },
        "location": {
          "lat": 39.1367249,
          "lng": -84.709114
        },
        "location_type": "APPROXIMATE",
        "viewport": {
          "northeast": {
            "lat": 39.144858,
            "lng": -84.693145
          },
          "southwest": {
            "lat": 39.12445210000001,
            "lng": -84.726148
          }
        }
      },
      "place_id": "ChIJfc4vVhXMQYgR4gt2P0xwDNw",
      "types": [
        "locality",
        "political"
      ]
    },
    {
      "address_components": [
        {
          "long_name": "45001",
          "short_name": "45001",
          "types": [
            "postal_code"
          ]
        },
        {
          "long_name": "Addyston",
          "short_name": "Addyston",
          "types": [
            "locality",
            "political"
          ]
        },
        {
          "long_name": "Ohio",
          "short_name": "OH",
          "types": [
            "administrative_area_level_1",
            "political"
          ]
        },
        {
          "long_name": "United States",
          "short_name": "US",
          "types": [
            "country",
            "political"
          ]
        }
      ],
      "formatted_address": "Addyston, OH 45001, USA",
      "geometry": {
        "bounds": {
          "northeast": {
            "lat": 39.1445031,
            "lng": -84.7021828
          },
          "southwest": {
            "lat": 39.1303879,
            "lng": -84.72614899999999
          }
        },
        "location": {
          "lat": 39.1400554,
          "lng": -84.714576
        },
        "location_type": "APPROXIMATE",
        "viewport": {
          "northeast": {
            "lat": 39.1445031,
            "lng": -84.7021828
          },
          "southwest": {
            "lat": 39.1303879,
            "lng": -84.72614899999999
          }
        }
      },
      "place_id": "ChIJnSRe8RTMQYgRl5eXE3HJeCQ",
      "types": [
        "postal_code"
      ]
    },
    {
      "address_components": [
        {
          "long_name": "Miami Township",
          "short_name": "Miami Township",
          "types": [
            "administrative_area_level_3",
            "political"
          ]
        },
        {
          "long_name": "Hamilton County",
          "short_name": "Hamilton County",
          "types": [
            "administrative_area_level_2",
            "political"
          ]
        },
        {
          "long_name": "Ohio",
          "short_name": "OH",
          "types": [
            "administrative_area_level_1",
            "political"
          ]
        },
        {
          "long_name": "United States",
          "short_name": "US",
          "types": [
            "country",
            "political"
          ]
        }
      ],
      "formatted_address": "Miami Township, OH, USA",
      "geometry": {
        "bounds": {
          "northeast": {
            "lat": 39.211766,
            "lng": -84.6819478
          },
          "southwest": {
            "lat": 39.1054801,
            "lng": -84.8202038
          }
        },
        "location": {
          "lat": 39.1701822,
          "lng": -84.7211074
        },
        "location_type": "APPROXIMATE",
        "viewport": {
          "northeast": {
            "lat": 39.211766,
            "lng": -84.6819478
          },
          "southwest": {
            "lat": 39.1054801,
            "lng": -84.8202038
          }
        }
      },
      "place_id": "ChIJU3S7SqDNQYgRlz6mJxe1CsM",
      "types": [
        "administrative_area_level_3",
        "political"
      ]
    },
    {
      "address_components": [
        {
          "long_name": "Hamilton County",
          "short_name": "Hamilton County",
          "types": [
            "administrative_area_level_2",
            "political"
          ]
        },
        {
          "long_name": "Ohio",
          "short_name": "OH",
          "types": [
            "administrative_area_level_1",
            "political"
          ]
        },
        {
          "long_name": "United States",
          "short_name": "US",
          "types": [
            "country",
            "political"
          ]
        }
      ],
      "formatted_address": "Hamilton County, OH, USA",
      "geometry": {
        "bounds": {
          "northeast": {
            "lat": 39.312056,
            "lng": -84.25639090000001
          },
          "southwest": {
            "lat": 39.0216,
            "lng": -84.8203049
          }
        },
        "location": {
          "lat": 39.2355447,
          "lng": -84.56414699999999
        },
        "location_type": "APPROXIMATE",
        "viewport": {
          "northeast": {
            "lat": 39.312056,
            "lng": -84.25639090000001
          },
          "southwest": {
            "lat": 39.0216,
            "lng": -84.8203049
          }
        }
      },
      "place_id": "ChIJ1808oWhQQIgRMC9c5Ml8hMo",
      "types": [
        "administrative_area_level_2",
        "political"
      ]
    },
    {
      "address_components": [
        {
          "long_name": "Ohio",
          "short_name": "OH",
          "types": [
            "administrative_area_level_1",
            "political"
          ]
        },
        {
          "long_name": "United States",
          "short_name": "US",
          "types": [
            "country",
            "political"
          ]
        }
      ],
      "formatted_address": "Ohio, USA",
      "geometry": {
        "bounds": {
          "northeast": {
            "lat": 41.9773019,
            "lng": -80.5182
          },
          "southwest": {
            "lat": 38.4034229,
            "lng": -84.8203049
          }
        },
        "location": {
          "lat": 40.4172871,
          "lng": -82.90712300000001
        },
        "location_type": "APPROXIMATE",
        "viewport": {
          "northeast": {
            "lat": 41.9773019,
            "lng": -80.5182
          },
          "southwest": {
            "lat": 38.4034229,
            "lng": -84.8203049
          }
        }
      },
      "place_id": "ChIJwY5NtXrpNogRFtmfnDlkzeU",
      "types": [
        "administrative_area_level_1",
        "political"
      ]
    },
    {
      "address_components": [
        {
          "long_name": "United States",
          "short_name": "US",
          "types": [
            "country",
            "political"
          ]
        }
      ],
      "formatted_address": "United States",
      "geometry": {
        "bounds": {
          "northeast": {
            "lat": 71.3867745,
            "lng": -66.9502861
          },
          "southwest": {
            "lat": 18.9106768,
            "lng": 172.4458955
          }
        },
        "location": {
          "lat": 37.09024,
          "lng": -95.712891
        },
        "location_type": "APPROXIMATE",
        "viewport": {
          "northeast": {
            "lat": 49.38,
            "lng": -66.94
          },
          "southwest": {
            "lat": 25.82,
            "lng": -124.39
          }
        }
      },
      "place_id": "ChIJCzYy5IS16lQRQrfeQ5K5Oxw",
      "types": [
        "country",
        "political"
      ]
    }
  ],
  "status": "OK"
}
