{
  "results": [
    {
      "address_components": [
        {
          "long_name": "16480",
          "short_name": "16480",
          "types": [
            "street_number"
          ]
        },
        {
          "long_name": "Eden Bridge",
          "short_name": "Eden Bridge",
          "types": [
            "route"
          ]
        },
        {
          "long_name": "Belton",
          "short_name": "Belton",
          "types": [
            "locality",
            "political"
          ]
        },
        {
          "long_name": "Mount Pleasant Township",
          "short_name": "Mt Pleasant Township",
          "types": [
            "administrative_area_level_3",
            "political"
          ]
        },
        {
          "long_name": "Cass County",
          "short_name": "Cass County",
          "types": [
            "administrative_area_level_2",
            "political"
          ]
        },
        {
          "long_name": "Missouri",
          "short_name": "MO",
          "types": [
            "administrative_area_level_1",
            "political"
          ]
        },
        {
          "long_name": "United States",
          "short_name": "US",
          "types": [
            "country",
            "political"
          ]
        },
        {
          "long_name": "64012",
          "short_name": "64012",
          "types": [
            "postal_code"
          ]
        },
        {
          "long_name": "4186",
          "short_name": "4186",
          "types": [
            "postal_code_suffix"
          ]
        }
      ],
      "formatted_address": "16480 Eden Bridge, Belton, MO 64012, USA",
      "geometry": {
        "location": {
          "lat": 38.831235,
          "lng": -94.598075
        },
        "location_type": "ROOFTOP",
        "viewport": {
          "northeast": {
            "lat": 38.8325839802915,
            "lng": -94.59672601970848
          },
          "southwest": {
            "lat": 38.8298860197085,
            "lng": -94.59942398029149
          }
        }
      },
      "place_id": "ChIJL_19jnPDwIcRLQBUzvV886Y",
      "types": [
        "street_address"
      ]
    },
    {
      "address_components": [
        {
          "long_name": "Loch Lloyd",
          "short_name": "Loch Lloyd",
          "types": [
            "locality",
            "political"
          ]
        },
        {
          "long_name": "Mount Pleasant Township",
          "short_name": "Mt Pleasant Township",
          "types": [
            "administrative_area_level_3",
            "political"
          ]
        },
        {
          "long_name": "Cass County",
          "short_name": "Cass County",
          "types": [
            "administrative_area_level_2",
            "political"
          ]
        },
        {
          "long_name": "Missouri",
          "short_name": "MO",
          "types": [
            "administrative_area_level_1",
            "political"
          ]
        },
        {
          "long_name": "United States",
          "short_name": "US",
          "types": [
            "country",
            "political"
          ]
        }
      ],
      "formatted_address": "Loch Lloyd, MO, USA",
      "geometry": {
        "bounds": {
          "northeast": {
            "lat": 38.8472069,
            "lng": -94.584327
          },
          "southwest": {
            "lat": 38.816175,
            "lng": -94.60803299999999
          }
        },
        "location": {
          "lat": 38.8322747,
          "lng": -94.59598059999999
        },
        "location_type": "APPROXIMATE",
        "viewport": {
          "northeast": {
            "lat": 38.8472069,
            "lng": -94.584327
          },
          "southwest": {
            "lat": 38.816175,
            "lng": -94.60803299999999
          }
        }
      },
      "place_id": "ChIJoSKYrXPDwIcRMNipH1bsR8o",
      "types": [
        "locality",
        "political"
      ]
    },
    {
      "address_components": [
        {
          "long_name": "Mount Pleasant Township",
          "short_name": "Mt Pleasant Township",
          "types": [
            "administrative_area_level_3",
            "political"
          ]
        },
        {
          "long_name": "Cass County",
          "short_name": "Cass County",
          "types": [
            "administrative_area_level_2",
            "political"
          ]
        },
        {
          "long_name": "Missouri",
          "short_name": "MO",
          "types": [
            "administrative_area_level_1",
            "political"
          ]
        },
        {
          "long_name": "United States",
          "short_name": "US",
          "types": [
            "country",
            "political"
          ]
        }
      ],
      "formatted_address": "Mt Pleasant Township, MO, USA",
      "geometry": {
        "bounds": {
          "northeast": {
            "lat": 38.8472069,
            "lng": -94.510199
          },
          "southwest": {
            "lat": 38.754663,
            "lng": -94.6087069
          }
        },
        "location": {
          "lat": 38.7952436,
          "lng": -94.5418141
        },
        "location_type": "APPROXIMATE",
        "viewport": {
          "northeast": {
            "lat": 38.8472069,
            "lng": -94.510199
          },
          "southwest": {
            "lat": 38.754663,
            "lng": -94.6087069
          }
        }
      },
      "place_id": "ChIJRfvcZkzbwIcR9cA4uZYYmnc",
      "types": [
        "administrative_area_level_3",
        "political"
      ]
    },
    {
      "address_components": [
        {
          "long_name": "64012",
          "short_name": "64012",
          "types": [
            "postal_code"
          ]
        },
        {
          "long_name": "Belton",
          "short_name": "Belton",
          "types": [
            "locality",
            "political"
          ]
        },
        {
          "long_name": "Missouri",
          "short_name": "MO",
          "types": [
            "administrative_area_level_1",
            "political"
          ]
        },
        {
          "long_name": "United States",
          "short_name": "US",
          "types": [
            "country",
            "political"
          ]
        }
      ],
      "formatted_address": "Belton, MO 64012, USA",
      "geometry": {
        "bounds": {
          "northeast": {
            "lat": 38.8472069,
            "lng": -94.482472
          },
          "southwest": {
            "lat": 38.7227959,
            "lng": -94.609467
          }
        },
        "location": {
          "lat": 38.7952436,
          "lng": -94.5418141
        },
        "location_type": "APPROXIMATE",
        "viewport": {
          "northeast": {
            "lat": 38.8472069,
            "lng": -94.482472
          },
          "southwest": {
            "lat": 38.7227959,
            "lng": -94.609467
          }
        }
      },
      "place_id": "ChIJRYYgujDbwIcRpSxsfZbRBWo",
      "postcode_localities": [
        "Belton",
        "VLG LOCH LOYD"
      ],
      "types": [
        "postal_code"
      ]
    },
    {
      "address_components": [
        {
          "long_name": "Cass County",
          "short_name": "Cass County",
          "types": [
            "administrative_area_level_2",
            "political"
          ]
        },
        {
          "long_name": "Missouri",
          "short_name": "MO",
          "types": [
            "administrative_area_level_1",
            "political"
          ]
        },
        {
          "long_name": "United States",
          "short_name": "US",
          "types": [
            "country",
            "political"
          ]
        }
      ],
      "formatted_address": "Cass County, MO, USA",
      "geometry": {
        "bounds": {
          "northeast": {
            "lat": 38.8472069,
            "lng": -94.0643171
          },
          "southwest": {
            "lat": 38.445268,
            "lng": -94.61288189999999
          }
        },
        "location": {
          "lat": 38.6574448,
          "lng": -94.315422
        },
        "location_type": "APPROXIMATE",
        "viewport": {
          "northeast": {
            "lat": 38.8472069,
            "lng": -94.0643171
          },
          "southwest": {
            "lat": 38.445268,
            "lng": -94.61288189999999
          }
        }
      },
      "place_id": "ChIJ60VnSicnwYcRCxOFL2boo3I",
      "types": [
        "administrative_area_level_2",
        "political"
      ]
    },
    {
      "address_components": [
        {
          "long_name": "Kansas City",
          "short_name": "Kansas City",
          "types": [
            "political"
          ]
        },
        {
          "long_name": "United States",
          "short_name": "US",
          "types": [
            "country",
            "political"
          ]
        }
      ],
      "formatted_address": "Kansas City, USA",
      "geometry": {
        "bounds": {
          "northeast": {
            "lat": 39.788955,
            "lng": -93.477233
          },
          "southwest": {
            "lat": 38.026143,
            "lng": -95.5090159
          }
        },
        "location": {
          "lat": 39.0653602,
          "lng": -94.5624426
        },
        "location_type": "APPROXIMATE",
        "viewport": {
          "northeast": {
            "lat": 39.788955,
            "lng": -93.477233
          },
          "southwest": {
            "lat": 38.026143,
            "lng": -95.5090159
          }
        }
      },
      "place_id": "ChIJ5176R2TnwIcRX_TpnWkvgMk",
      "types": [
        "political"
      ]
    },
    {
      "address_components": [
        {
          "long_name": "Missouri",
          "short_name": "MO",
          "types": [
            "administrative_area_level_1",
            "political"
          ]
        },
        {
          "long_name": "United States",
          "short_name": "US",
          "types": [
            "country",
            "political"
          ]
        }
      ],
      "formatted_address": "Missouri, USA",
      "geometry": {
        "bounds": {
          "northeast": {
            "lat": 40.61364,
            "lng": -89.09949399999999
          },
          "southwest": {
            "lat": 35.9956829,
            "lng": -95.774704
          }
        },
        "location": {
          "lat": 37.9642529,
          "lng": -91.8318334
        },
        "location_type": "APPROXIMATE",
        "viewport": {
          "northeast": {
            "lat": 40.61364,
            "lng": -89.09949399999999
          },
          "southwest": {
            "lat": 35.9956829,
            "lng": -95.774704
          }
        }
      },
      "place_id": "ChIJfeMiSNXmwIcRcr1mBFnEW7U",
      "types": [
        "administrative_area_level_1",
        "political"
      ]
    },
    {
      "address_components": [
        {
          "long_name": "United States",
          "short_name": "US",
          "types": [
            "country",
            "political"
          ]
        }
      ],
      "formatted_address": "United States",
      "geometry": {
        "bounds": {
          "northeast": {
            "lat": 71.3867745,
            "lng": -66.9502861
          },
          "southwest": {
            "lat": 18.9106768,
            "lng": 172.4458955
          }
        },
        "location": {
          "lat": 37.09024,
          "lng": -95.712891
        },
        "location_type": "APPROXIMATE",
        "viewport": {
          "northeast": {
            "lat": 49.38,
            "lng": -66.94
          },
          "southwest": {
            "lat": 25.82,
            "lng": -124.39
          }
        }
      },
      "place_id": "ChIJCzYy5IS16lQRQrfeQ5K5Oxw",
      "types": [
        "country",
        "political"
      ]
    }
  ],
  "status": "OK"
}
