{
  "results": [
    {
      "address_components": [
        {
          "long_name": "Chick Johnston Street",
          "short_name": "Chick Johnston St",
          "types": [
            "route"
          ]
        },
        {
          "long_name": "Raymondville",
          "short_name": "Raymondville",
          "types": [
            "locality",
            "political"
          ]
        },
        {
          "long_name": "Jackson Township",
          "short_name": "Jackson Township",
          "types": [
            "administrative_area_level_3",
            "political"
          ]
        },
        {
          "long_name": "Texas County",
          "short_name": "Texas County",
          "types": [
            "administrative_area_level_2",
            "political"
          ]
        },
        {
          "long_name": "Missouri",
          "short_name": "MO",
          "types": [
            "administrative_area_level_1",
            "political"
          ]
        },
        {
          "long_name": "United States",
          "short_name": "US",
          "types": [
            "country",
            "political"
          ]
        },
        {
          "long_name": "65555",
          "short_name": "65555",
          "types": [
            "postal_code"
          ]
        }
      ],
      "formatted_address": "Chick Johnston St, Raymondville, MO 65555, USA",
      "geometry": {
        "bounds": {
          "northeast": {
            "lat": 37.3399659,
            "lng": -91.83640179999999
          },
          "southwest": {
            "lat": 37.3394015,
            "lng": -91.8364649
          }
        },
        "location": {
          "lat": 37.3396839,
          "lng": -91.8364299
        },
        "location_type": "GEOMETRIC_CENTER",
        "viewport": {
          "northeast": {
            "lat": 37.3410326802915,
            "lng": -91.8350843697085
          },
          "southwest": {
            "lat": 37.3383347197085,
            "lng": -91.8377823302915
          }
        }
      },
      "place_id": "ChIJObaIeZyA2ocRgRLa4UzFGi4",
      "types": [
        "route"
      ]
    },
    {
      "address_components": [
        {
          "long_name": "Raymondville",
          "short_name": "Raymondville",
          "types": [
            "locality",
            "political"
          ]
        },
        {
          "long_name": "Jackson Township",
          "short_name": "Jackson Township",
          "types": [
            "administrative_area_level_3",
            "political"
          ]
        },
        {
          "long_name": "Texas County",
          "short_name": "Texas County",
          "types": [
            "administrative_area_level_2",
            "political"
          ]
        },
        {
          "long_name": "Missouri",
          "short_name": "MO",
          "types": [
            "administrative_area_level_1",
            "political"
          ]
        },
        {
          "long_name": "United States",
          "short_name": "US",
          "types": [
            "country",
            "political"
          ]
        }
      ],
      "formatted_address": "Raymondville, MO, USA",
      "geometry": {
        "bounds": {
          "northeast": {
            "lat": 37.352874,
            "lng": -91.816543
          },
          "southwest": {
            "lat": 37.324126,
            "lng": -91.86003000000001
          }
        },
        "location": {
          "lat": 37.3397691,
          "lng": -91.83404019999999
        },
        "location_type": "APPROXIMATE",
        "viewport": {
          "northeast": {
            "lat": 37.352874,
            "lng": -91.816543
          },
          "southwest": {
            "lat": 37.324126,
            "lng": -91.86003000000001
          }
        }
      },
      "place_id": "ChIJw6FciSl82ocRlGMDFb5HY5o",
      "types": [
        "locality",
        "political"
      ]
    },
    {
      "address_components": [
        {
          "long_name": "65555",
          "short_name": "65555",
          "types": [
            "postal_code"
          ]
        },
        {
          "long_name": "Raymondville",
          "short_name": "Raymondville",
          "types": [
            "locality",
            "political"
          ]
        },
        {
          "long_name": "Missouri",
          "short_name": "MO",
          "types": [
            "administrative_area_level_1",
            "political"
          ]
        },
        {
          "long_name": "United States",
          "short_name": "US",
          "types": [
            "country",
            "political"
          ]
        }
      ],
      "formatted_address": "Raymondville, MO 65555, USA",
      "geometry": {
        "bounds": {
          "northeast": {
            "lat": 37.4276701,
            "lng": -91.6572219
          },
          "southwest": {
            "lat": 37.2791321,
            "lng": -91.8674929
          }
        },
        "location": {
          "lat": 37.3481152,
          "lng": -91.7733566
        },
        "location_type": "APPROXIMATE",
        "viewport": {
          "northeast": {
            "lat": 37.4276701,
            "lng": -91.6572219
          },
          "southwest": {
            "lat": 37.2791321,
            "lng": -91.8674929
          }
        }
      },
      "place_id": "ChIJoXpbH69-2ocRMCezZiTY0vU",
      "types": [
        "postal_code"
      ]
    },
    {
      "address_components": [
        {
          "long_name": "Jackson Township",
          "short_name": "Jackson Township",
          "types": [
            "administrative_area_level_3",
            "political"
          ]
        },
        {
          "long_name": "Texas County",
          "short_name": "Texas County",
          "types": [
            "administrative_area_level_2",
            "political"
          ]
        },
        {
          "long_name": "Missouri",
          "short_name": "MO",
          "types": [
            "administrative_area_level_1",
            "political"
          ]
        },
        {
          "long_name": "United States",
          "short_name": "US",
          "types": [
            "country",
            "political"
          ]
        }
      ],
      "formatted_address": "Jackson Township, MO, USA",
      "geometry": {
        "bounds": {
          "northeast": {
            "lat": 37.425295,
            "lng": -91.646626
          },
          "southwest": {
            "lat": 37.27894800000001,
            "lng": -91.8666279
          }
        },
        "location": {
          "lat": 37.3481152,
          "lng": -91.7733566
        },
        "location_type": "APPROXIMATE",
        "viewport": {
          "northeast": {
            "lat": 37.425295,
            "lng": -91.646626
          },
          "southwest": {
            "lat": 37.27894800000001,
            "lng": -91.8666279
          }
        }
      },
      "place_id": "ChIJPW8cELV-2ocR_lxbgxf1RNU",
      "types": [
        "administrative_area_level_3",
        "political"
      ]
    },
    {
      "address_components": [
        {
          "long_name": "Texas County",
          "short_name": "Texas County",
          "types": [
            "administrative_area_level_2",
            "political"
          ]
        },
        {
          "long_name": "Missouri",
          "short_name": "MO",
          "types": [
            "administrative_area_level_1",
            "political"
          ]
        },
        {
          "long_name": "United States",
          "short_name": "US",
          "types": [
            "country",
            "political"
          ]
        }
      ],
      "formatted_address": "Texas County, MO, USA",
      "geometry": {
        "bounds": {
          "northeast": {
            "lat": 37.605243,
            "lng": -91.646626
          },
          "southwest": {
            "lat": 37.0488,
            "lng": -92.25331
          }
        },
        "location": {
          "lat": 37.3673645,
          "lng": -91.9099238
        },
        "location_type": "APPROXIMATE",
        "viewport": {
          "northeast": {
            "lat": 37.605243,
            "lng": -91.646626
          },
          "southwest": {
            "lat": 37.0488,
            "lng": -92.25331
          }
        }
      },
      "place_id": "ChIJ63Wwi4N_2ocRwP0YRdnmVfc",
      "types": [
        "administrative_area_level_2",
        "political"
      ]
    },
    {
      "address_components": [
        {
          "long_name": "Missouri",
          "short_name": "MO",
          "types": [
            "administrative_area_level_1",
            "political"
          ]
        },
        {
          "long_name": "United States",
          "short_name": "US",
          "types": [
            "country",
            "political"
          ]
        }
      ],
      "formatted_address": "Missouri, USA",
      "geometry": {
        "bounds": {
          "northeast": {
            "lat": 40.61364,
            "lng": -89.09949399999999
          },
          "southwest": {
            "lat": 35.9956829,
            "lng": -95.774704
          }
        },
        "location": {
          "lat": 37.9642529,
          "lng": -91.8318334
        },
        "location_type": "APPROXIMATE",
        "viewport": {
          "northeast": {
            "lat": 40.61364,
            "lng": -89.09949399999999
          },
          "southwest": {
            "lat": 35.9956829,
            "lng": -95.774704
          }
        }
      },
      "place_id": "ChIJfeMiSNXmwIcRcr1mBFnEW7U",
      "types": [
        "administrative_area_level_1",
        "political"
      ]
    },
    {
      "address_components": [
        {
          "long_name": "United States",
          "short_name": "US",
          "types": [
            "country",
            "political"
          ]
        }
      ],
      "formatted_address": "United States",
      "geometry": {
        "bounds": {
          "northeast": {
            "lat": 71.3867745,
            "lng": -66.9502861
          },
          "southwest": {
            "lat": 18.9106768,
            "lng": 172.4458955
          }
        },
        "location": {
          "lat": 37.09024,
          "lng": -95.712891
        },
        "location_type": "APPROXIMATE",
        "viewport": {
          "northeast": {
            "lat": 49.38,
            "lng": -66.94
          },
          "southwest": {
            "lat": 25.82,
            "lng": -124.39
          }
        }
      },
      "place_id": "ChIJCzYy5IS16lQRQrfeQ5K5Oxw",
      "types": [
        "country",
        "political"
      ]
    }
  ],
  "status": "OK"
}
