{
  "results": [
    {
      "address_components": [
        {
          "long_name": "17000-17980",
          "short_name": "17000-17980",
          "types": [
            "street_number"
          ]
        },
        {
          "long_name": "7th Street",
          "short_name": "7th St",
          "types": [
            "route"
          ]
        },
        {
          "long_name": "Wellston",
          "short_name": "Wellston",
          "types": [
            "locality",
            "political"
          ]
        },
        {
          "long_name": "Norman Township",
          "short_name": "Norman Township",
          "types": [
            "administrative_area_level_3",
            "political"
          ]
        },
        {
          "long_name": "Manistee County",
          "short_name": "Manistee County",
          "types": [
            "administrative_area_level_2",
            "political"
          ]
        },
        {
          "long_name": "Michigan",
          "short_name": "MI",
          "types": [
            "administrative_area_level_1",
            "political"
          ]
        },
        {
          "long_name": "United States",
          "short_name": "US",
          "types": [
            "country",
            "political"
          ]
        },
        {
          "long_name": "49689",
          "short_name": "49689",
          "types": [
            "postal_code"
          ]
        },
        {
          "long_name": "5116",
          "short_name": "5116",
          "types": [
            "postal_code_suffix"
          ]
        }
      ],
      "formatted_address": "17000-17980 7th St, Wellston, MI 49689, USA",
      "geometry": {
        "bounds": {
          "northeast": {
            "lat": 44.2178314,
            "lng": -85.95944329999999
          },
          "southwest": {
            "lat": 44.2177689,
            "lng": -85.9621207
          }
        },
        "location": {
          "lat": 44.2178084,
          "lng": -85.96200189999999
        },
        "location_type": "RANGE_INTERPOLATED",
        "viewport": {
          "northeast": {
            "lat": 44.2191491302915,
            "lng": -85.9594330197085
          },
          "southwest": {
            "lat": 44.2164511697085,
            "lng": -85.9621309802915
          }
        }
      },
      "place_id": "EisxNzAwMC0xNzk4MCA3dGggU3QsIFdlbGxzdG9uLCBNSSA0OTY4OSwgVVNB",
      "types": [
        "street_address"
      ]
    },
    {
      "address_components": [
        {
          "long_name": "Wellston",
          "short_name": "Wellston",
          "types": [
            "locality",
            "political"
          ]
        },
        {
          "long_name": "Norman Township",
          "short_name": "Norman Township",
          "types": [
            "administrative_area_level_3",
            "political"
          ]
        },
        {
          "long_name": "Manistee County",
          "short_name": "Manistee County",
          "types": [
            "administrative_area_level_2",
            "political"
          ]
        },
        {
          "long_name": "Michigan",
          "short_name": "MI",
          "types": [
            "administrative_area_level_1",
            "political"
          ]
        },
        {
          "long_name": "United States",
          "short_name": "US",
          "types": [
            "country",
            "political"
          ]
        },
        {
          "long_name": "49689",
          "short_name": "49689",
          "types": [
            "postal_code"
          ]
        }
      ],
      "formatted_address": "Wellston, MI 49689, USA",
      "geometry": {
        "bounds": {
          "northeast": {
            "lat": 44.2260311,
            "lng": -85.95052000000001
          },
          "southwest": {
            "lat": 44.20960789999999,
            "lng": -85.971583
          }
        },
        "location": {
          "lat": 44.2177618,
          "lng": -85.9596699
        },
        "location_type": "APPROXIMATE",
        "viewport": {
          "northeast": {
            "lat": 44.2260311,
            "lng": -85.95052000000001
          },
          "southwest": {
            "lat": 44.20960789999999,
            "lng": -85.971583
          }
        }
      },
      "place_id": "ChIJgUZZM-OMHogRiKlTFmdvZtw",
      "types": [
        "locality",
        "political"
      ]
    },
    {
      "address_components": [
        {
          "long_name": "Norman Township",
          "short_name": "Norman Township",
          "types": [
            "administrative_area_level_3",
            "political"
          ]
        },
        {
          "long_name": "Manistee County",
          "short_name": "Manistee County",
          "types": [
            "administrative_area_level_2",
            "political"
          ]
        },
        {
          "long_name": "Michigan",
          "short_name": "MI",
          "types": [
            "administrative_area_level_1",
            "political"
          ]
        },
        {
          "long_name": "United States",
          "short_name": "US",
          "types": [
            "country",
            "political"
          ]
        }
      ],
      "formatted_address": "Norman Township, MI, USA",
      "geometry": {
        "bounds": {
          "northeast": {
            "lat": 44.2551099,
            "lng": -85.820904
          },
          "southwest": {
            "lat": 44.164187,
            "lng": -86.063318
          }
        },
        "location": {
          "lat": 44.2120341,
          "lng": -85.8895551
        },
        "location_type": "APPROXIMATE",
        "viewport": {
          "northeast": {
            "lat": 44.2551099,
            "lng": -85.820904
          },
          "southwest": {
            "lat": 44.164187,
            "lng": -86.063318
          }
        }
      },
      "place_id": "ChIJW644ptiMHogRguB57tJbQQU",
      "types": [
        "administrative_area_level_3",
        "political"
      ]
    },
    {
      "address_components": [
        {
          "long_name": "49689",
          "short_name": "49689",
          "types": [
            "postal_code"
          ]
        },
        {
          "long_name": "Wellston",
          "short_name": "Wellston",
          "types": [
            "locality",
            "political"
          ]
        },
        {
          "long_name": "Michigan",
          "short_name": "MI",
          "types": [
            "administrative_area_level_1",
            "political"
          ]
        },
        {
          "long_name": "United States",
          "short_name": "US",
          "types": [
            "country",
            "political"
          ]
        }
      ],
      "formatted_address": "Wellston, MI 49689, USA",
      "geometry": {
        "bounds": {
          "northeast": {
            "lat": 44.2670419,
            "lng": -85.7198439
          },
          "southwest": {
            "lat": 44.162653,
            "lng": -86.074544
          }
        },
        "location": {
          "lat": 44.2317005,
          "lng": -85.9100089
        },
        "location_type": "APPROXIMATE",
        "viewport": {
          "northeast": {
            "lat": 44.2670419,
            "lng": -85.7198439
          },
          "southwest": {
            "lat": 44.162653,
            "lng": -86.074544
          }
        }
      },
      "place_id": "ChIJeS-ONgPzHogRxggCm0rcblg",
      "types": [
        "postal_code"
      ]
    },
    {
      "address_components": [
        {
          "long_name": "Manistee County",
          "short_name": "Manistee County",
          "types": [
            "administrative_area_level_2",
            "political"
          ]
        },
        {
          "long_name": "Michigan",
          "short_name": "MI",
          "types": [
            "administrative_area_level_1",
            "political"
          ]
        },
        {
          "long_name": "United States",
          "short_name": "US",
          "types": [
            "country",
            "political"
          ]
        }
      ],
      "formatted_address": "Manistee County, MI, USA",
      "geometry": {
        "bounds": {
          "northeast": {
            "lat": 44.5183046,
            "lng": -85.81758289999999
          },
          "southwest": {
            "lat": 44.164187,
            "lng": -86.3886957
          }
        },
        "location": {
          "lat": 44.2444704,
          "lng": -86.32422249999999
        },
        "location_type": "APPROXIMATE",
        "viewport": {
          "northeast": {
            "lat": 44.5183046,
            "lng": -85.81758289999999
          },
          "southwest": {
            "lat": 44.164187,
            "lng": -86.3886957
          }
        }
      },
      "place_id": "ChIJRWp_YrpCHogRPxUSaocrMSM",
      "types": [
        "administrative_area_level_2",
        "political"
      ]
    },
    {
      "address_components": [
        {
          "long_name": "Michigan",
          "short_name": "MI",
          "types": [
            "administrative_area_level_1",
            "political"
          ]
        },
        {
          "long_name": "United States",
          "short_name": "US",
          "types": [
            "country",
            "political"
          ]
        }
      ],
      "formatted_address": "Michigan, USA",
      "geometry": {
        "bounds": {
          "northeast": {
            "lat": 48.1986461,
            "lng": -82.413474
          },
          "southwest": {
            "lat": 41.696118,
            "lng": -90.4181358
          }
        },
        "location": {
          "lat": 44.3148443,
          "lng": -85.60236429999999
        },
        "location_type": "APPROXIMATE",
        "viewport": {
          "northeast": {
            "lat": 48.198602,
            "lng": -82.413474
          },
          "southwest": {
            "lat": 41.696118,
            "lng": -90.4181358
          }
        }
      },
      "place_id": "ChIJEQTKxz2qTE0Rs8liellI3Zc",
      "types": [
        "administrative_area_level_1",
        "political"
      ]
    },
    {
      "address_components": [
        {
          "long_name": "United States",
          "short_name": "US",
          "types": [
            "country",
            "political"
          ]
        }
      ],
      "formatted_address": "United States",
      "geometry": {
        "bounds": {
          "northeast": {
            "lat": 71.3867745,
            "lng": -66.9502861
          },
          "southwest": {
            "lat": 18.9106768,
            "lng": 172.4458955
          }
        },
        "location": {
          "lat": 37.09024,
          "lng": -95.712891
        },
        "location_type": "APPROXIMATE",
        "viewport": {
          "northeast": {
            "lat": 49.38,
            "lng": -66.94
          },
          "southwest": {
            "lat": 25.82,
            "lng": -124.39
          }
        }
      },
      "place_id": "ChIJCzYy5IS16lQRQrfeQ5K5Oxw",
      "types": [
        "country",
        "political"
      ]
    }
  ],
  "status": "OK"
}
