{
  "results": [
    {
      "address_components": [
        {
          "long_name": "Mesabi Trail",
          "short_name": "Mesabi Trail",
          "types": [
            "route"
          ]
        },
        {
          "long_name": "Pengilly",
          "short_name": "Pengilly",
          "types": [
            "locality",
            "political"
          ]
        },
        {
          "long_name": "Greenway Township",
          "short_name": "Greenway Township",
          "types": [
            "administrative_area_level_3",
            "political"
          ]
        },
        {
          "long_name": "Itasca County",
          "short_name": "Itasca County",
          "types": [
            "administrative_area_level_2",
            "political"
          ]
        },
        {
          "long_name": "Minnesota",
          "short_name": "MN",
          "types": [
            "administrative_area_level_1",
            "political"
          ]
        },
        {
          "long_name": "United States",
          "short_name": "US",
          "types": [
            "country",
            "political"
          ]
        },
        {
          "long_name": "55775",
          "short_name": "55775",
          "types": [
            "postal_code"
          ]
        }
      ],
      "formatted_address": "Mesabi Trail, Pengilly, MN 55775, USA",
      "geometry": {
        "bounds": {
          "northeast": {
            "lat": 47.3274844,
            "lng": -93.28331639999999
          },
          "southwest": {
            "lat": 47.325743,
            "lng": -93.2959867
          }
        },
        "location": {
          "lat": 47.3270375,
          "lng": -93.2890607
        },
        "location_type": "GEOMETRIC_CENTER",
        "viewport": {
          "northeast": {
            "lat": 47.3279626802915,
            "lng": -93.28331639999999
          },
          "southwest": {
            "lat": 47.3252647197085,
            "lng": -93.2959867
          }
        }
      },
      "place_id": "ChIJg1TKOqZ-sFIRgNJZ2ml80eA",
      "types": [
        "route"
      ]
    },
    {
      "address_components": [
        {
          "long_name": "Marble",
          "short_name": "Marble",
          "types": [
            "locality",
            "political"
          ]
        },
        {
          "long_name": "Greenway Township",
          "short_name": "Greenway Township",
          "types": [
            "administrative_area_level_3",
            "political"
          ]
        },
        {
          "long_name": "Itasca County",
          "short_name": "Itasca County",
          "types": [
            "administrative_area_level_2",
            "political"
          ]
        },
        {
          "long_name": "Minnesota",
          "short_name": "MN",
          "types": [
            "administrative_area_level_1",
            "political"
          ]
        },
        {
          "long_name": "United States",
          "short_name": "US",
          "types": [
            "country",
            "political"
          ]
        }
      ],
      "formatted_address": "Marble, MN, USA",
      "geometry": {
        "bounds": {
          "northeast": {
            "lat": 47.3406169,
            "lng": -93.257729
          },
          "southwest": {
            "lat": 47.311623,
            "lng": -93.3198438
          }
        },
        "location": {
          "lat": 47.320509,
          "lng": -93.2987227
        },
        "location_type": "APPROXIMATE",
        "viewport": {
          "northeast": {
            "lat": 47.3406169,
            "lng": -93.257729
          },
          "southwest": {
            "lat": 47.311623,
            "lng": -93.3198438
          }
        }
      },
      "place_id": "ChIJEevnHqR-sFIRSNUg6QlDfWs",
      "types": [
        "locality",
        "political"
      ]
    },
    {
      "address_components": [
        {
          "long_name": "Greenway Township",
          "short_name": "Greenway Township",
          "types": [
            "administrative_area_level_3",
            "political"
          ]
        },
        {
          "long_name": "Itasca County",
          "short_name": "Itasca County",
          "types": [
            "administrative_area_level_2",
            "political"
          ]
        },
        {
          "long_name": "Minnesota",
          "short_name": "MN",
          "types": [
            "administrative_area_level_1",
            "political"
          ]
        },
        {
          "long_name": "United States",
          "short_name": "US",
          "types": [
            "country",
            "political"
          ]
        }
      ],
      "formatted_address": "Greenway Township, MN, USA",
      "geometry": {
        "bounds": {
          "northeast": {
            "lat": 47.371158,
            "lng": -93.1935139
          },
          "southwest": {
            "lat": 47.282117,
            "lng": -93.3202709
          }
        },
        "location": {
          "lat": 47.344054,
          "lng": -93.25816689999999
        },
        "location_type": "APPROXIMATE",
        "viewport": {
          "northeast": {
            "lat": 47.371158,
            "lng": -93.1935139
          },
          "southwest": {
            "lat": 47.282117,
            "lng": -93.3202709
          }
        }
      },
      "place_id": "ChIJKcl91l95sFIRJZpdPzvh2V8",
      "types": [
        "administrative_area_level_3",
        "political"
      ]
    },
    {
      "address_components": [
        {
          "long_name": "55775",
          "short_name": "55775",
          "types": [
            "postal_code"
          ]
        },
        {
          "long_name": "Pengilly",
          "short_name": "Pengilly",
          "types": [
            "locality",
            "political"
          ]
        },
        {
          "long_name": "Minnesota",
          "short_name": "MN",
          "types": [
            "administrative_area_level_1",
            "political"
          ]
        },
        {
          "long_name": "United States",
          "short_name": "US",
          "types": [
            "country",
            "political"
          ]
        }
      ],
      "formatted_address": "Pengilly, MN 55775, USA",
      "geometry": {
        "bounds": {
          "northeast": {
            "lat": 47.3580428,
            "lng": -93.0646989
          },
          "southwest": {
            "lat": 47.195587,
            "lng": -93.319823
          }
        },
        "location": {
          "lat": 47.2973816,
          "lng": -93.176692
        },
        "location_type": "APPROXIMATE",
        "viewport": {
          "northeast": {
            "lat": 47.3580428,
            "lng": -93.0646989
          },
          "southwest": {
            "lat": 47.195587,
            "lng": -93.319823
          }
        }
      },
      "place_id": "ChIJxS55fsBwsFIRA09VTEEEMQM",
      "types": [
        "postal_code"
      ]
    },
    {
      "address_components": [
        {
          "long_name": "Itasca County",
          "short_name": "Itasca County",
          "types": [
            "administrative_area_level_2",
            "political"
          ]
        },
        {
          "long_name": "Minnesota",
          "short_name": "MN",
          "types": [
            "administrative_area_level_1",
            "political"
          ]
        },
        {
          "long_name": "United States",
          "short_name": "US",
          "types": [
            "country",
            "political"
          ]
        }
      ],
      "formatted_address": "Itasca County, MN, USA",
      "geometry": {
        "bounds": {
          "northeast": {
            "lat": 47.8989501,
            "lng": -93.055798
          },
          "southwest": {
            "lat": 47.02519179999999,
            "lng": -94.41924589999999
          }
        },
        "location": {
          "lat": 47.5507924,
          "lng": -93.5683651
        },
        "location_type": "APPROXIMATE",
        "viewport": {
          "northeast": {
            "lat": 47.8989501,
            "lng": -93.055798
          },
          "southwest": {
            "lat": 47.02519179999999,
            "lng": -94.41924589999999
          }
        }
      },
      "place_id": "ChIJfQYRjml4ulIRU-9TvbZsloU",
      "types": [
        "administrative_area_level_2",
        "political"
      ]
    },
    {
      "address_components": [
        {
          "long_name": "Minnesota",
          "short_name": "MN",
          "types": [
            "administrative_area_level_1",
            "political"
          ]
        },
        {
          "long_name": "United States",
          "short_name": "US",
          "types": [
            "country",
            "political"
          ]
        }
      ],
      "formatted_address": "Minnesota, USA",
      "geometry": {
        "bounds": {
          "northeast": {
            "lat": 49.3828204,
            "lng": -89.49183339999999
          },
          "southwest": {
            "lat": 43.499361,
            "lng": -97.23919579999999
          }
        },
        "location": {
          "lat": 46.729553,
          "lng": -94.6858998
        },
        "location_type": "APPROXIMATE",
        "viewport": {
          "northeast": {
            "lat": 49.3826902,
            "lng": -89.49183339999999
          },
          "southwest": {
            "lat": 43.499361,
            "lng": -97.23919579999999
          }
        }
      },
      "place_id": "ChIJmwt4YJpbWE0RD6L-EJvJogI",
      "types": [
        "administrative_area_level_1",
        "political"
      ]
    },
    {
      "address_components": [
        {
          "long_name": "United States",
          "short_name": "US",
          "types": [
            "country",
            "political"
          ]
        }
      ],
      "formatted_address": "United States",
      "geometry": {
        "bounds": {
          "northeast": {
            "lat": 71.3867745,
            "lng": -66.9502861
          },
          "southwest": {
            "lat": 18.9106768,
            "lng": 172.4458955
          }
        },
        "location": {
          "lat": 37.09024,
          "lng": -95.712891
        },
        "location_type": "APPROXIMATE",
        "viewport": {
          "northeast": {
            "lat": 49.38,
            "lng": -66.94
          },
          "southwest": {
            "lat": 25.82,
            "lng": -124.39
          }
        }
      },
      "place_id": "ChIJCzYy5IS16lQRQrfeQ5K5Oxw",
      "types": [
        "country",
        "political"
      ]
    }
  ],
  "status": "OK"
}
