{
  "results": [
    {
      "address_components": [
        {
          "long_name": "3006-3026",
          "short_name": "3006-3026",
          "types": [
            "street_number"
          ]
        },
        {
          "long_name": "Missouri 158",
          "short_name": "MO-158",
          "types": [
            "route"
          ]
        },
        {
          "long_name": "Harviell",
          "short_name": "Harviell",
          "types": [
            "locality",
            "political"
          ]
        },
        {
          "long_name": "Beaver Dam Township",
          "short_name": "Beaver Dam Township",
          "types": [
            "administrative_area_level_3",
            "political"
          ]
        },
        {
          "long_name": "Butler County",
          "short_name": "Butler County",
          "types": [
            "administrative_area_level_2",
            "political"
          ]
        },
        {
          "long_name": "Missouri",
          "short_name": "MO",
          "types": [
            "administrative_area_level_1",
            "political"
          ]
        },
        {
          "long_name": "United States",
          "short_name": "US",
          "types": [
            "country",
            "political"
          ]
        },
        {
          "long_name": "63945",
          "short_name": "63945",
          "types": [
            "postal_code"
          ]
        }
      ],
      "formatted_address": "3006-3026 MO-158, Harviell, MO 63945, USA",
      "geometry": {
        "bounds": {
          "northeast": {
            "lat": 36.6636194,
            "lng": -90.474341
          },
          "southwest": {
            "lat": 36.6636139,
            "lng": -90.4747744
          }
        },
        "location": {
          "lat": 36.6636034,
          "lng": -90.474699
        },
        "location_type": "RANGE_INTERPOLATED",
        "viewport": {
          "northeast": {
            "lat": 36.6649656302915,
            "lng": -90.4732087197085
          },
          "southwest": {
            "lat": 36.66226766970851,
            "lng": -90.4759066802915
          }
        }
      },
      "place_id": "EikzMDA2LTMwMjYgTU8tMTU4LCBIYXJ2aWVsbCwgTU8gNjM5NDUsIFVTQQ",
      "types": [
        "street_address"
      ]
    },
    {
      "address_components": [
        {
          "long_name": "63945",
          "short_name": "63945",
          "types": [
            "postal_code"
          ]
        },
        {
          "long_name": "Harviell",
          "short_name": "Harviell",
          "types": [
            "locality",
            "political"
          ]
        },
        {
          "long_name": "Missouri",
          "short_name": "MO",
          "types": [
            "administrative_area_level_1",
            "political"
          ]
        },
        {
          "long_name": "United States",
          "short_name": "US",
          "types": [
            "country",
            "political"
          ]
        }
      ],
      "formatted_address": "Harviell, MO 63945, USA",
      "geometry": {
        "bounds": {
          "northeast": {
            "lat": 36.695399,
            "lng": -90.46569679999999
          },
          "southwest": {
            "lat": 36.548418,
            "lng": -90.671909
          }
        },
        "location": {
          "lat": 36.6295662,
          "lng": -90.5825359
        },
        "location_type": "APPROXIMATE",
        "viewport": {
          "northeast": {
            "lat": 36.695399,
            "lng": -90.46569679999999
          },
          "southwest": {
            "lat": 36.548418,
            "lng": -90.671909
          }
        }
      },
      "place_id": "ChIJnRFYtWCr14cR1Z70fV6a4kI",
      "types": [
        "postal_code"
      ]
    },
    {
      "address_components": [
        {
          "long_name": "Beaver Dam Township",
          "short_name": "Beaver Dam Township",
          "types": [
            "administrative_area_level_3",
            "political"
          ]
        },
        {
          "long_name": "Butler County",
          "short_name": "Butler County",
          "types": [
            "administrative_area_level_2",
            "political"
          ]
        },
        {
          "long_name": "Missouri",
          "short_name": "MO",
          "types": [
            "administrative_area_level_1",
            "political"
          ]
        },
        {
          "long_name": "United States",
          "short_name": "US",
          "types": [
            "country",
            "political"
          ]
        }
      ],
      "formatted_address": "Beaver Dam Township, MO, USA",
      "geometry": {
        "bounds": {
          "northeast": {
            "lat": 36.7678189,
            "lng": -90.464997
          },
          "southwest": {
            "lat": 36.634448,
            "lng": -90.6283868
          }
        },
        "location": {
          "lat": 36.7160474,
          "lng": -90.5446912
        },
        "location_type": "APPROXIMATE",
        "viewport": {
          "northeast": {
            "lat": 36.7678189,
            "lng": -90.464997
          },
          "southwest": {
            "lat": 36.634448,
            "lng": -90.6283868
          }
        }
      },
      "place_id": "ChIJu4VIg9-r14cRipd-mqHui9c",
      "types": [
        "administrative_area_level_3",
        "political"
      ]
    },
    {
      "address_components": [
        {
          "long_name": "Poplar Bluff",
          "short_name": "Poplar Bluff",
          "types": [
            "political"
          ]
        },
        {
          "long_name": "United States",
          "short_name": "US",
          "types": [
            "country",
            "political"
          ]
        }
      ],
      "formatted_address": "Poplar Bluff, USA",
      "geometry": {
        "bounds": {
          "northeast": {
            "lat": 36.927123,
            "lng": -90.134298
          },
          "southwest": {
            "lat": 36.4977709,
            "lng": -90.6797289
          }
        },
        "location": {
          "lat": 36.6951341,
          "lng": -90.37483540000001
        },
        "location_type": "APPROXIMATE",
        "viewport": {
          "northeast": {
            "lat": 36.927123,
            "lng": -90.134298
          },
          "southwest": {
            "lat": 36.4977709,
            "lng": -90.6797289
          }
        }
      },
      "place_id": "ChIJn5jUNXOx14cRtoytsytRvow",
      "types": [
        "political"
      ]
    },
    {
      "address_components": [
        {
          "long_name": "Butler County",
          "short_name": "Butler County",
          "types": [
            "administrative_area_level_2",
            "political"
          ]
        },
        {
          "long_name": "Missouri",
          "short_name": "MO",
          "types": [
            "administrative_area_level_1",
            "political"
          ]
        },
        {
          "long_name": "United States",
          "short_name": "US",
          "types": [
            "country",
            "political"
          ]
        }
      ],
      "formatted_address": "Butler County, MO, USA",
      "geometry": {
        "bounds": {
          "northeast": {
            "lat": 36.927138,
            "lng": -90.134327
          },
          "southwest": {
            "lat": 36.49779789999999,
            "lng": -90.6797289
          }
        },
        "location": {
          "lat": 36.6951341,
          "lng": -90.37483540000001
        },
        "location_type": "APPROXIMATE",
        "viewport": {
          "northeast": {
            "lat": 36.927138,
            "lng": -90.134327
          },
          "southwest": {
            "lat": 36.49779789999999,
            "lng": -90.6797289
          }
        }
      },
      "place_id": "ChIJ4XD797nJ14cR_BBKTxFdXI0",
      "types": [
        "administrative_area_level_2",
        "political"
      ]
    },
    {
      "address_components": [
        {
          "long_name": "Missouri",
          "short_name": "MO",
          "types": [
            "administrative_area_level_1",
            "political"
          ]
        },
        {
          "long_name": "United States",
          "short_name": "US",
          "types": [
            "country",
            "political"
          ]
        }
      ],
      "formatted_address": "Missouri, USA",
      "geometry": {
        "bounds": {
          "northeast": {
            "lat": 40.61364,
            "lng": -89.09949399999999
          },
          "southwest": {
            "lat": 35.9956829,
            "lng": -95.774704
          }
        },
        "location": {
          "lat": 37.9642529,
          "lng": -91.8318334
        },
        "location_type": "APPROXIMATE",
        "viewport": {
          "northeast": {
            "lat": 40.61364,
            "lng": -89.09949399999999
          },
          "southwest": {
            "lat": 35.9956829,
            "lng": -95.774704
          }
        }
      },
      "place_id": "ChIJfeMiSNXmwIcRcr1mBFnEW7U",
      "types": [
        "administrative_area_level_1",
        "political"
      ]
    },
    {
      "address_components": [
        {
          "long_name": "United States",
          "short_name": "US",
          "types": [
            "country",
            "political"
          ]
        }
      ],
      "formatted_address": "United States",
      "geometry": {
        "bounds": {
          "northeast": {
            "lat": 71.3867745,
            "lng": -66.9502861
          },
          "southwest": {
            "lat": 18.9106768,
            "lng": 172.4458955
          }
        },
        "location": {
          "lat": 37.09024,
          "lng": -95.712891
        },
        "location_type": "APPROXIMATE",
        "viewport": {
          "northeast": {
            "lat": 49.38,
            "lng": -66.94
          },
          "southwest": {
            "lat": 25.82,
            "lng": -124.39
          }
        }
      },
      "place_id": "ChIJCzYy5IS16lQRQrfeQ5K5Oxw",
      "types": [
        "country",
        "political"
      ]
    }
  ],
  "status": "OK"
}
