{
  "results": [
    {
      "address_components": [
        {
          "long_name": "20",
          "short_name": "20",
          "types": [
            "street_number"
          ]
        },
        {
          "long_name": "Stone Street",
          "short_name": "Stone St",
          "types": [
            "route"
          ]
        },
        {
          "long_name": "Carthage",
          "short_name": "Carthage",
          "types": [
            "locality",
            "political"
          ]
        },
        {
          "long_name": "Champion",
          "short_name": "Champion",
          "types": [
            "administrative_area_level_3",
            "political"
          ]
        },
        {
          "long_name": "Jefferson County",
          "short_name": "Jefferson County",
          "types": [
            "administrative_area_level_2",
            "political"
          ]
        },
        {
          "long_name": "New York",
          "short_name": "NY",
          "types": [
            "administrative_area_level_1",
            "political"
          ]
        },
        {
          "long_name": "United States",
          "short_name": "US",
          "types": [
            "country",
            "political"
          ]
        },
        {
          "long_name": "13619",
          "short_name": "13619",
          "types": [
            "postal_code"
          ]
        },
        {
          "long_name": "1330",
          "short_name": "1330",
          "types": [
            "postal_code_suffix"
          ]
        }
      ],
      "formatted_address": "20 Stone St, Carthage, NY 13619, USA",
      "geometry": {
        "location": {
          "lat": 43.9731189,
          "lng": -75.62200899999999
        },
        "location_type": "ROOFTOP",
        "viewport": {
          "northeast": {
            "lat": 43.97446788029149,
            "lng": -75.6206600197085
          },
          "southwest": {
            "lat": 43.97176991970849,
            "lng": -75.6233579802915
          }
        }
      },
      "place_id": "ChIJv7RGan-G2IkRBoykbuPHNYU",
      "types": [
        "street_address"
      ]
    },
    {
      "address_components": [
        {
          "long_name": "West Carthage",
          "short_name": "West Carthage",
          "types": [
            "locality",
            "political"
          ]
        },
        {
          "long_name": "Champion",
          "short_name": "Champion",
          "types": [
            "administrative_area_level_3",
            "political"
          ]
        },
        {
          "long_name": "Jefferson County",
          "short_name": "Jefferson County",
          "types": [
            "administrative_area_level_2",
            "political"
          ]
        },
        {
          "long_name": "New York",
          "short_name": "NY",
          "types": [
            "administrative_area_level_1",
            "political"
          ]
        },
        {
          "long_name": "United States",
          "short_name": "US",
          "types": [
            "country",
            "political"
          ]
        },
        {
          "long_name": "13619",
          "short_name": "13619",
          "types": [
            "postal_code"
          ]
        }
      ],
      "formatted_address": "West Carthage, NY 13619, USA",
      "geometry": {
        "bounds": {
          "northeast": {
            "lat": 43.9859259,
            "lng": -75.6036699
          },
          "southwest": {
            "lat": 43.9609499,
            "lng": -75.63489799999999
          }
        },
        "location": {
          "lat": 43.9742346,
          "lng": -75.6151927
        },
        "location_type": "APPROXIMATE",
        "viewport": {
          "northeast": {
            "lat": 43.9859259,
            "lng": -75.6036699
          },
          "southwest": {
            "lat": 43.9609499,
            "lng": -75.63489799999999
          }
        }
      },
      "place_id": "ChIJ-yPLGH6G2IkR_Au1aaodDkI",
      "types": [
        "locality",
        "political"
      ]
    },
    {
      "address_components": [
        {
          "long_name": "Champion",
          "short_name": "Champion",
          "types": [
            "administrative_area_level_3",
            "political"
          ]
        },
        {
          "long_name": "Jefferson County",
          "short_name": "Jefferson County",
          "types": [
            "administrative_area_level_2",
            "political"
          ]
        },
        {
          "long_name": "New York",
          "short_name": "NY",
          "types": [
            "administrative_area_level_1",
            "political"
          ]
        },
        {
          "long_name": "United States",
          "short_name": "US",
          "types": [
            "country",
            "political"
          ]
        }
      ],
      "formatted_address": "Champion, NY, USA",
      "geometry": {
        "bounds": {
          "northeast": {
            "lat": 44.055565,
            "lng": -75.6036699
          },
          "southwest": {
            "lat": 43.87878500000001,
            "lng": -75.7581569
          }
        },
        "location": {
          "lat": 43.9666096,
          "lng": -75.6906241
        },
        "location_type": "APPROXIMATE",
        "viewport": {
          "northeast": {
            "lat": 44.055565,
            "lng": -75.6036699
          },
          "southwest": {
            "lat": 43.87878500000001,
            "lng": -75.7581569
          }
        }
      },
      "place_id": "ChIJB8N3T7iH2IkRaBMgqVixDuM",
      "types": [
        "administrative_area_level_3",
        "political"
      ]
    },
    {
      "address_components": [
        {
          "long_name": "13619",
          "short_name": "13619",
          "types": [
            "postal_code"
          ]
        },
        {
          "long_name": "Carthage",
          "short_name": "Carthage",
          "types": [
            "locality",
            "political"
          ]
        },
        {
          "long_name": "New York",
          "short_name": "NY",
          "types": [
            "administrative_area_level_1",
            "political"
          ]
        },
        {
          "long_name": "United States",
          "short_name": "US",
          "types": [
            "country",
            "political"
          ]
        }
      ],
      "formatted_address": "Carthage, NY 13619, USA",
      "geometry": {
        "bounds": {
          "northeast": {
            "lat": 44.0946968,
            "lng": -75.4324359
          },
          "southwest": {
            "lat": 43.8830648,
            "lng": -75.75772289999999
          }
        },
        "location": {
          "lat": 43.98233,
          "lng": -75.667356
        },
        "location_type": "APPROXIMATE",
        "viewport": {
          "northeast": {
            "lat": 44.0946968,
            "lng": -75.4324359
          },
          "southwest": {
            "lat": 43.8830648,
            "lng": -75.75772289999999
          }
        }
      },
      "place_id": "ChIJ62Z4LDSE2IkRO3a4DNFX0Wk",
      "types": [
        "postal_code"
      ]
    },
    {
      "address_components": [
        {
          "long_name": "Jefferson County",
          "short_name": "Jefferson County",
          "types": [
            "administrative_area_level_2",
            "political"
          ]
        },
        {
          "long_name": "New York",
          "short_name": "NY",
          "types": [
            "administrative_area_level_1",
            "political"
          ]
        },
        {
          "long_name": "United States",
          "short_name": "US",
          "types": [
            "country",
            "political"
          ]
        }
      ],
      "formatted_address": "Jefferson County, NY, USA",
      "geometry": {
        "bounds": {
          "northeast": {
            "lat": 44.3982676,
            "lng": -75.446124
          },
          "southwest": {
            "lat": 43.66814300000001,
            "lng": -76.4456606
          }
        },
        "location": {
          "lat": 44.0607421,
          "lng": -75.9927652
        },
        "location_type": "APPROXIMATE",
        "viewport": {
          "northeast": {
            "lat": 44.3982676,
            "lng": -75.446124
          },
          "southwest": {
            "lat": 43.66814300000001,
            "lng": -76.4456606
          }
        }
      },
      "place_id": "ChIJ6drLKQJz2IkRaphq7_3_fTY",
      "types": [
        "administrative_area_level_2",
        "political"
      ]
    },
    {
      "address_components": [
        {
          "long_name": "New York",
          "short_name": "NY",
          "types": [
            "administrative_area_level_1",
            "political"
          ]
        },
        {
          "long_name": "United States",
          "short_name": "US",
          "types": [
            "country",
            "political"
          ]
        }
      ],
      "formatted_address": "New York, USA",
      "geometry": {
        "bounds": {
          "northeast": {
            "lat": 45.015865,
            "lng": -71.85620639999999
          },
          "southwest": {
            "lat": 40.496091,
            "lng": -79.76214379999999
          }
        },
        "location": {
          "lat": 43.2994285,
          "lng": -74.21793260000001
        },
        "location_type": "APPROXIMATE",
        "viewport": {
          "northeast": {
            "lat": 45.015859,
            "lng": -71.85620639999999
          },
          "southwest": {
            "lat": 40.496091,
            "lng": -79.76214379999999
          }
        }
      },
      "place_id": "ChIJqaUj8fBLzEwRZ5UY3sHGz90",
      "types": [
        "administrative_area_level_1",
        "political"
      ]
    },
    {
      "address_components": [
        {
          "long_name": "United States",
          "short_name": "US",
          "types": [
            "country",
            "political"
          ]
        }
      ],
      "formatted_address": "United States",
      "geometry": {
        "bounds": {
          "northeast": {
            "lat": 71.3867745,
            "lng": -66.9502861
          },
          "southwest": {
            "lat": 18.9106768,
            "lng": 172.4458955
          }
        },
        "location": {
          "lat": 37.09024,
          "lng": -95.712891
        },
        "location_type": "APPROXIMATE",
        "viewport": {
          "northeast": {
            "lat": 49.38,
            "lng": -66.94
          },
          "southwest": {
            "lat": 25.82,
            "lng": -124.39
          }
        }
      },
      "place_id": "ChIJCzYy5IS16lQRQrfeQ5K5Oxw",
      "types": [
        "country",
        "political"
      ]
    }
  ],
  "status": "OK"
}
