{
  "results": [
    {
      "address_components": [
        {
          "long_name": "2208",
          "short_name": "2208",
          "types": [
            "street_number"
          ]
        },
        {
          "long_name": "East Burt Road",
          "short_name": "E Burt Rd",
          "types": [
            "route"
          ]
        },
        {
          "long_name": "Burt",
          "short_name": "Burt",
          "types": [
            "locality",
            "political"
          ]
        },
        {
          "long_name": "Taymouth Township",
          "short_name": "Taymouth Township",
          "types": [
            "administrative_area_level_3",
            "political"
          ]
        },
        {
          "long_name": "Saginaw County",
          "short_name": "Saginaw County",
          "types": [
            "administrative_area_level_2",
            "political"
          ]
        },
        {
          "long_name": "Michigan",
          "short_name": "MI",
          "types": [
            "administrative_area_level_1",
            "political"
          ]
        },
        {
          "long_name": "United States",
          "short_name": "US",
          "types": [
            "country",
            "political"
          ]
        },
        {
          "long_name": "48417",
          "short_name": "48417",
          "types": [
            "postal_code"
          ]
        },
        {
          "long_name": "9456",
          "short_name": "9456",
          "types": [
            "postal_code_suffix"
          ]
        }
      ],
      "formatted_address": "2208 E Burt Rd, Burt, MI 48417, USA",
      "geometry": {
        "location": {
          "lat": 43.233917,
          "lng": -83.91023799999999
        },
        "location_type": "ROOFTOP",
        "viewport": {
          "northeast": {
            "lat": 43.2352659802915,
            "lng": -83.9088890197085
          },
          "southwest": {
            "lat": 43.2325680197085,
            "lng": -83.9115869802915
          }
        }
      },
      "place_id": "ChIJfeL1N22WI4gRgI-VKoNXLvg",
      "types": [
        "street_address"
      ]
    },
    {
      "address_components": [
        {
          "long_name": "Burt",
          "short_name": "Burt",
          "types": [
            "locality",
            "political"
          ]
        },
        {
          "long_name": "Taymouth Township",
          "short_name": "Taymouth Township",
          "types": [
            "administrative_area_level_3",
            "political"
          ]
        },
        {
          "long_name": "Saginaw County",
          "short_name": "Saginaw County",
          "types": [
            "administrative_area_level_2",
            "political"
          ]
        },
        {
          "long_name": "Michigan",
          "short_name": "MI",
          "types": [
            "administrative_area_level_1",
            "political"
          ]
        },
        {
          "long_name": "United States",
          "short_name": "US",
          "types": [
            "country",
            "political"
          ]
        }
      ],
      "formatted_address": "Burt, MI, USA",
      "geometry": {
        "bounds": {
          "northeast": {
            "lat": 43.250735,
            "lng": -83.874134
          },
          "southwest": {
            "lat": 43.2203769,
            "lng": -83.932476
          }
        },
        "location": {
          "lat": 43.2366929,
          "lng": -83.906357
        },
        "location_type": "APPROXIMATE",
        "viewport": {
          "northeast": {
            "lat": 43.250735,
            "lng": -83.874134
          },
          "southwest": {
            "lat": 43.2203769,
            "lng": -83.932476
          }
        }
      },
      "place_id": "ChIJU-sBMHKWI4gRRxjg5qkYr40",
      "types": [
        "locality",
        "political"
      ]
    },
    {
      "address_components": [
        {
          "long_name": "48417",
          "short_name": "48417",
          "types": [
            "postal_code"
          ]
        },
        {
          "long_name": "Burt",
          "short_name": "Burt",
          "types": [
            "locality",
            "political"
          ]
        },
        {
          "long_name": "Michigan",
          "short_name": "MI",
          "types": [
            "administrative_area_level_1",
            "political"
          ]
        },
        {
          "long_name": "United States",
          "short_name": "US",
          "types": [
            "country",
            "political"
          ]
        }
      ],
      "formatted_address": "Burt, MI 48417, USA",
      "geometry": {
        "bounds": {
          "northeast": {
            "lat": 43.308865,
            "lng": -83.86712299999999
          },
          "southwest": {
            "lat": 43.220377,
            "lng": -84.001322
          }
        },
        "location": {
          "lat": 43.2561786,
          "lng": -83.94266979999999
        },
        "location_type": "APPROXIMATE",
        "viewport": {
          "northeast": {
            "lat": 43.308865,
            "lng": -83.86712299999999
          },
          "southwest": {
            "lat": 43.220377,
            "lng": -84.001322
          }
        }
      },
      "place_id": "ChIJkUqeFRy-I4gRxiqfoxE-N9o",
      "types": [
        "postal_code"
      ]
    },
    {
      "address_components": [
        {
          "long_name": "Taymouth Township",
          "short_name": "Taymouth Township",
          "types": [
            "administrative_area_level_3",
            "political"
          ]
        },
        {
          "long_name": "Saginaw County",
          "short_name": "Saginaw County",
          "types": [
            "administrative_area_level_2",
            "political"
          ]
        },
        {
          "long_name": "Michigan",
          "short_name": "MI",
          "types": [
            "administrative_area_level_1",
            "political"
          ]
        },
        {
          "long_name": "United States",
          "short_name": "US",
          "types": [
            "country",
            "political"
          ]
        }
      ],
      "formatted_address": "Taymouth Township, MI, USA",
      "geometry": {
        "bounds": {
          "northeast": {
            "lat": 43.30789,
            "lng": -83.814494
          },
          "southwest": {
            "lat": 43.2203769,
            "lng": -83.933224
          }
        },
        "location": {
          "lat": 43.26186269999999,
          "lng": -83.8685072
        },
        "location_type": "APPROXIMATE",
        "viewport": {
          "northeast": {
            "lat": 43.30789,
            "lng": -83.814494
          },
          "southwest": {
            "lat": 43.2203769,
            "lng": -83.933224
          }
        }
      },
      "place_id": "ChIJVagqkl-UI4gR1DNprk_2x2o",
      "types": [
        "administrative_area_level_3",
        "political"
      ]
    },
    {
      "address_components": [
        {
          "long_name": "Saginaw County",
          "short_name": "Saginaw County",
          "types": [
            "administrative_area_level_2",
            "political"
          ]
        },
        {
          "long_name": "Michigan",
          "short_name": "MI",
          "types": [
            "administrative_area_level_1",
            "political"
          ]
        },
        {
          "long_name": "United States",
          "short_name": "US",
          "types": [
            "country",
            "political"
          ]
        }
      ],
      "formatted_address": "Saginaw County, MI, USA",
      "geometry": {
        "bounds": {
          "northeast": {
            "lat": 43.5688989,
            "lng": -83.6952051
          },
          "southwest": {
            "lat": 43.128452,
            "lng": -84.3699769
          }
        },
        "location": {
          "lat": 43.4044253,
          "lng": -84.01674229999999
        },
        "location_type": "APPROXIMATE",
        "viewport": {
          "northeast": {
            "lat": 43.5688989,
            "lng": -83.6952051
          },
          "southwest": {
            "lat": 43.128452,
            "lng": -84.3699769
          }
        }
      },
      "place_id": "ChIJzakSEePAI4gRERAGr9F7HeA",
      "types": [
        "administrative_area_level_2",
        "political"
      ]
    },
    {
      "address_components": [
        {
          "long_name": "Michigan",
          "short_name": "MI",
          "types": [
            "administrative_area_level_1",
            "political"
          ]
        },
        {
          "long_name": "United States",
          "short_name": "US",
          "types": [
            "country",
            "political"
          ]
        }
      ],
      "formatted_address": "Michigan, USA",
      "geometry": {
        "bounds": {
          "northeast": {
            "lat": 48.1986461,
            "lng": -82.413474
          },
          "southwest": {
            "lat": 41.696118,
            "lng": -90.4181358
          }
        },
        "location": {
          "lat": 44.3148443,
          "lng": -85.60236429999999
        },
        "location_type": "APPROXIMATE",
        "viewport": {
          "northeast": {
            "lat": 48.198602,
            "lng": -82.413474
          },
          "southwest": {
            "lat": 41.696118,
            "lng": -90.4181358
          }
        }
      },
      "place_id": "ChIJEQTKxz2qTE0Rs8liellI3Zc",
      "types": [
        "administrative_area_level_1",
        "political"
      ]
    },
    {
      "address_components": [
        {
          "long_name": "United States",
          "short_name": "US",
          "types": [
            "country",
            "political"
          ]
        }
      ],
      "formatted_address": "United States",
      "geometry": {
        "bounds": {
          "northeast": {
            "lat": 71.3867745,
            "lng": -66.9502861
          },
          "southwest": {
            "lat": 18.9106768,
            "lng": 172.4458955
          }
        },
        "location": {
          "lat": 37.09024,
          "lng": -95.712891
        },
        "location_type": "APPROXIMATE",
        "viewport": {
          "northeast": {
            "lat": 49.38,
            "lng": -66.94
          },
          "southwest": {
            "lat": 25.82,
            "lng": -124.39
          }
        }
      },
      "place_id": "ChIJCzYy5IS16lQRQrfeQ5K5Oxw",
      "types": [
        "country",
        "political"
      ]
    }
  ],
  "status": "OK"
}
