{
  "results": [
    {
      "address_components": [
        {
          "long_name": "500-598",
          "short_name": "500-598",
          "types": [
            "street_number"
          ]
        },
        {
          "long_name": "Medina Avenue",
          "short_name": "Medina Ave",
          "types": [
            "route"
          ]
        },
        {
          "long_name": "Bertrand",
          "short_name": "Bertrand",
          "types": [
            "locality",
            "political"
          ]
        },
        {
          "long_name": "Garfield",
          "short_name": "Garfield",
          "types": [
            "administrative_area_level_3",
            "political"
          ]
        },
        {
          "long_name": "Phelps County",
          "short_name": "Phelps County",
          "types": [
            "administrative_area_level_2",
            "political"
          ]
        },
        {
          "long_name": "Nebraska",
          "short_name": "NE",
          "types": [
            "administrative_area_level_1",
            "political"
          ]
        },
        {
          "long_name": "United States",
          "short_name": "US",
          "types": [
            "country",
            "political"
          ]
        },
        {
          "long_name": "68927",
          "short_name": "68927",
          "types": [
            "postal_code"
          ]
        },
        {
          "long_name": "3819",
          "short_name": "3819",
          "types": [
            "postal_code_suffix"
          ]
        }
      ],
      "formatted_address": "500-598 Medina Ave, Bertrand, NE 68927, USA",
      "geometry": {
        "bounds": {
          "northeast": {
            "lat": 40.526604,
            "lng": -99.6324899
          },
          "southwest": {
            "lat": 40.52562289999999,
            "lng": -99.6325409
          }
        },
        "location": {
          "lat": 40.5263021,
          "lng": -99.6324868
        },
        "location_type": "RANGE_INTERPOLATED",
        "viewport": {
          "northeast": {
            "lat": 40.5274624302915,
            "lng": -99.63116641970849
          },
          "southwest": {
            "lat": 40.5247644697085,
            "lng": -99.6338643802915
          }
        }
      },
      "place_id": "Eis1MDAtNTk4IE1lZGluYSBBdmUsIEJlcnRyYW5kLCBORSA2ODkyNywgVVNB",
      "types": [
        "street_address"
      ]
    },
    {
      "address_components": [
        {
          "long_name": "Bertrand",
          "short_name": "Bertrand",
          "types": [
            "locality",
            "political"
          ]
        },
        {
          "long_name": "Phelps County",
          "short_name": "Phelps County",
          "types": [
            "administrative_area_level_2",
            "political"
          ]
        },
        {
          "long_name": "Nebraska",
          "short_name": "NE",
          "types": [
            "administrative_area_level_1",
            "political"
          ]
        },
        {
          "long_name": "United States",
          "short_name": "US",
          "types": [
            "country",
            "political"
          ]
        },
        {
          "long_name": "68927",
          "short_name": "68927",
          "types": [
            "postal_code"
          ]
        }
      ],
      "formatted_address": "Bertrand, NE 68927, USA",
      "geometry": {
        "bounds": {
          "northeast": {
            "lat": 40.532446,
            "lng": -99.6249698
          },
          "southwest": {
            "lat": 40.5196308,
            "lng": -99.6420629
          }
        },
        "location": {
          "lat": 40.5257363,
          "lng": -99.63387069999999
        },
        "location_type": "APPROXIMATE",
        "viewport": {
          "northeast": {
            "lat": 40.532446,
            "lng": -99.6249698
          },
          "southwest": {
            "lat": 40.5196308,
            "lng": -99.6420629
          }
        }
      },
      "place_id": "ChIJofa1Un3rnocRatNNywynG88",
      "types": [
        "locality",
        "political"
      ]
    },
    {
      "address_components": [
        {
          "long_name": "Garfield",
          "short_name": "Garfield",
          "types": [
            "administrative_area_level_3",
            "political"
          ]
        },
        {
          "long_name": "Phelps County",
          "short_name": "Phelps County",
          "types": [
            "administrative_area_level_2",
            "political"
          ]
        },
        {
          "long_name": "Nebraska",
          "short_name": "NE",
          "types": [
            "administrative_area_level_1",
            "political"
          ]
        },
        {
          "long_name": "United States",
          "short_name": "US",
          "types": [
            "country",
            "political"
          ]
        }
      ],
      "formatted_address": "Garfield, NE, USA",
      "geometry": {
        "bounds": {
          "northeast": {
            "lat": 40.6122419,
            "lng": -99.530433
          },
          "southwest": {
            "lat": 40.5245538,
            "lng": -99.643782
          }
        },
        "location": {
          "lat": 40.5819625,
          "lng": -99.5673479
        },
        "location_type": "APPROXIMATE",
        "viewport": {
          "northeast": {
            "lat": 40.6122419,
            "lng": -99.530433
          },
          "southwest": {
            "lat": 40.5245538,
            "lng": -99.643782
          }
        }
      },
      "place_id": "ChIJBWUcWiiVnocRXdExHVpD2Dg",
      "types": [
        "administrative_area_level_3",
        "political"
      ]
    },
    {
      "address_components": [
        {
          "long_name": "68927",
          "short_name": "68927",
          "types": [
            "postal_code"
          ]
        },
        {
          "long_name": "Bertrand",
          "short_name": "Bertrand",
          "types": [
            "locality",
            "political"
          ]
        },
        {
          "long_name": "Nebraska",
          "short_name": "NE",
          "types": [
            "administrative_area_level_1",
            "political"
          ]
        },
        {
          "long_name": "United States",
          "short_name": "US",
          "types": [
            "country",
            "political"
          ]
        }
      ],
      "formatted_address": "Bertrand, NE 68927, USA",
      "geometry": {
        "bounds": {
          "northeast": {
            "lat": 40.703959,
            "lng": -99.5112159
          },
          "southwest": {
            "lat": 40.3511199,
            "lng": -99.773867
          }
        },
        "location": {
          "lat": 40.6002477,
          "lng": -99.58960429999999
        },
        "location_type": "APPROXIMATE",
        "viewport": {
          "northeast": {
            "lat": 40.703959,
            "lng": -99.5112159
          },
          "southwest": {
            "lat": 40.3511199,
            "lng": -99.773867
          }
        }
      },
      "place_id": "ChIJj21jdAvrnocRgwoI9kigP4k",
      "types": [
        "postal_code"
      ]
    },
    {
      "address_components": [
        {
          "long_name": "Phelps County",
          "short_name": "Phelps County",
          "types": [
            "administrative_area_level_2",
            "political"
          ]
        },
        {
          "long_name": "Nebraska",
          "short_name": "NE",
          "types": [
            "administrative_area_level_1",
            "political"
          ]
        },
        {
          "long_name": "United States",
          "short_name": "US",
          "types": [
            "country",
            "political"
          ]
        }
      ],
      "formatted_address": "Phelps County, NE, USA",
      "geometry": {
        "bounds": {
          "northeast": {
            "lat": 40.686105,
            "lng": -99.17922689999999
          },
          "southwest": {
            "lat": 40.350535,
            "lng": -99.64441579999999
          }
        },
        "location": {
          "lat": 40.4903536,
          "lng": -99.456155
        },
        "location_type": "APPROXIMATE",
        "viewport": {
          "northeast": {
            "lat": 40.686105,
            "lng": -99.17922689999999
          },
          "southwest": {
            "lat": 40.350535,
            "lng": -99.64441579999999
          }
        }
      },
      "place_id": "ChIJTRldU5vDnocRAHJzDF5TG8k",
      "types": [
        "administrative_area_level_2",
        "political"
      ]
    },
    {
      "address_components": [
        {
          "long_name": "Nebraska",
          "short_name": "NE",
          "types": [
            "administrative_area_level_1",
            "political"
          ]
        },
        {
          "long_name": "United States",
          "short_name": "US",
          "types": [
            "country",
            "political"
          ]
        }
      ],
      "formatted_address": "Nebraska, USA",
      "geometry": {
        "bounds": {
          "northeast": {
            "lat": 43.00170689999999,
            "lng": -95.30829000000001
          },
          "southwest": {
            "lat": 39.999932,
            "lng": -104.053514
          }
        },
        "location": {
          "lat": 41.4925374,
          "lng": -99.9018131
        },
        "location_type": "APPROXIMATE",
        "viewport": {
          "northeast": {
            "lat": 43.00170689999999,
            "lng": -95.30829000000001
          },
          "southwest": {
            "lat": 39.999932,
            "lng": -104.053514
          }
        }
      },
      "place_id": "ChIJ7fwMtciNk4cRxArzDwyQJ6E",
      "types": [
        "administrative_area_level_1",
        "political"
      ]
    },
    {
      "address_components": [
        {
          "long_name": "United States",
          "short_name": "US",
          "types": [
            "country",
            "political"
          ]
        }
      ],
      "formatted_address": "United States",
      "geometry": {
        "bounds": {
          "northeast": {
            "lat": 71.3867745,
            "lng": -66.9502861
          },
          "southwest": {
            "lat": 18.9106768,
            "lng": 172.4458955
          }
        },
        "location": {
          "lat": 37.09024,
          "lng": -95.712891
        },
        "location_type": "APPROXIMATE",
        "viewport": {
          "northeast": {
            "lat": 49.38,
            "lng": -66.94
          },
          "southwest": {
            "lat": 25.82,
            "lng": -124.39
          }
        }
      },
      "place_id": "ChIJCzYy5IS16lQRQrfeQ5K5Oxw",
      "types": [
        "country",
        "political"
      ]
    }
  ],
  "status": "OK"
}
