{
  "results": [
    {
      "address_components": [
        {
          "long_name": "29-33",
          "short_name": "29-33",
          "types": [
            "street_number"
          ]
        },
        {
          "long_name": "Temple Street",
          "short_name": "Temple St",
          "types": [
            "route"
          ]
        },
        {
          "long_name": "Fredonia",
          "short_name": "Fredonia",
          "types": [
            "locality",
            "political"
          ]
        },
        {
          "long_name": "Pomfret",
          "short_name": "Pomfret",
          "types": [
            "administrative_area_level_3",
            "political"
          ]
        },
        {
          "long_name": "Chautauqua County",
          "short_name": "Chautauqua County",
          "types": [
            "administrative_area_level_2",
            "political"
          ]
        },
        {
          "long_name": "New York",
          "short_name": "NY",
          "types": [
            "administrative_area_level_1",
            "political"
          ]
        },
        {
          "long_name": "United States",
          "short_name": "US",
          "types": [
            "country",
            "political"
          ]
        },
        {
          "long_name": "14063",
          "short_name": "14063",
          "types": [
            "postal_code"
          ]
        },
        {
          "long_name": "1703",
          "short_name": "1703",
          "types": [
            "postal_code_suffix"
          ]
        }
      ],
      "formatted_address": "29-33 Temple St, Fredonia, NY 14063, USA",
      "geometry": {
        "location": {
          "lat": 42.441343,
          "lng": -79.332723
        },
        "location_type": "ROOFTOP",
        "viewport": {
          "northeast": {
            "lat": 42.4426919802915,
            "lng": -79.3313740197085
          },
          "southwest": {
            "lat": 42.4399940197085,
            "lng": -79.33407198029151
          }
        }
      },
      "place_id": "ChIJ0W8Kq4HL0okRuS7F9fUnxuc",
      "types": [
        "street_address"
      ]
    },
    {
      "address_components": [
        {
          "long_name": "Fredonia",
          "short_name": "Fredonia",
          "types": [
            "locality",
            "political"
          ]
        },
        {
          "long_name": "Pomfret",
          "short_name": "Pomfret",
          "types": [
            "administrative_area_level_3",
            "political"
          ]
        },
        {
          "long_name": "Chautauqua County",
          "short_name": "Chautauqua County",
          "types": [
            "administrative_area_level_2",
            "political"
          ]
        },
        {
          "long_name": "New York",
          "short_name": "NY",
          "types": [
            "administrative_area_level_1",
            "political"
          ]
        },
        {
          "long_name": "United States",
          "short_name": "US",
          "types": [
            "country",
            "political"
          ]
        }
      ],
      "formatted_address": "Fredonia, NY, USA",
      "geometry": {
        "bounds": {
          "northeast": {
            "lat": 42.457303,
            "lng": -79.30790379999999
          },
          "southwest": {
            "lat": 42.4239919,
            "lng": -79.35526589999999
          }
        },
        "location": {
          "lat": 42.4400576,
          "lng": -79.3317105
        },
        "location_type": "APPROXIMATE",
        "viewport": {
          "northeast": {
            "lat": 42.457303,
            "lng": -79.30790379999999
          },
          "southwest": {
            "lat": 42.4239919,
            "lng": -79.35526589999999
          }
        }
      },
      "place_id": "ChIJMRhhFoHL0okRVpFQD7iuH_M",
      "types": [
        "locality",
        "political"
      ]
    },
    {
      "address_components": [
        {
          "long_name": "Pomfret",
          "short_name": "Pomfret",
          "types": [
            "administrative_area_level_3",
            "political"
          ]
        },
        {
          "long_name": "Chautauqua County",
          "short_name": "Chautauqua County",
          "types": [
            "administrative_area_level_2",
            "political"
          ]
        },
        {
          "long_name": "New York",
          "short_name": "NY",
          "types": [
            "administrative_area_level_1",
            "political"
          ]
        },
        {
          "long_name": "United States",
          "short_name": "US",
          "types": [
            "country",
            "political"
          ]
        }
      ],
      "formatted_address": "Pomfret, NY, USA",
      "geometry": {
        "bounds": {
          "northeast": {
            "lat": 42.457325,
            "lng": -79.29471699999999
          },
          "southwest": {
            "lat": 42.3481759,
            "lng": -79.4116981
          }
        },
        "location": {
          "lat": 42.387934,
          "lng": -79.3578201
        },
        "location_type": "APPROXIMATE",
        "viewport": {
          "northeast": {
            "lat": 42.457325,
            "lng": -79.29471699999999
          },
          "southwest": {
            "lat": 42.3481759,
            "lng": -79.4116981
          }
        }
      },
      "place_id": "ChIJv9MSKdnK0okRNkMkgRza3KA",
      "types": [
        "administrative_area_level_3",
        "political"
      ]
    },
    {
      "address_components": [
        {
          "long_name": "14063",
          "short_name": "14063",
          "types": [
            "postal_code"
          ]
        },
        {
          "long_name": "Fredonia",
          "short_name": "Fredonia",
          "types": [
            "locality",
            "political"
          ]
        },
        {
          "long_name": "Chautauqua County",
          "short_name": "Chautauqua County",
          "types": [
            "administrative_area_level_2",
            "political"
          ]
        },
        {
          "long_name": "New York",
          "short_name": "NY",
          "types": [
            "administrative_area_level_1",
            "political"
          ]
        },
        {
          "long_name": "United States",
          "short_name": "US",
          "types": [
            "country",
            "political"
          ]
        }
      ],
      "formatted_address": "Fredonia, NY 14063, USA",
      "geometry": {
        "bounds": {
          "northeast": {
            "lat": 42.4651489,
            "lng": -79.20664889999999
          },
          "southwest": {
            "lat": 42.35665410000001,
            "lng": -79.4424008
          }
        },
        "location": {
          "lat": 42.4226079,
          "lng": -79.3127543
        },
        "location_type": "APPROXIMATE",
        "viewport": {
          "northeast": {
            "lat": 42.4651489,
            "lng": -79.20664889999999
          },
          "southwest": {
            "lat": 42.35665410000001,
            "lng": -79.4424008
          }
        }
      },
      "place_id": "ChIJV2H72a_L0okRRwxY5YvODSY",
      "types": [
        "postal_code"
      ]
    },
    {
      "address_components": [
        {
          "long_name": "Chautauqua County",
          "short_name": "Chautauqua County",
          "types": [
            "administrative_area_level_2",
            "political"
          ]
        },
        {
          "long_name": "New York",
          "short_name": "NY",
          "types": [
            "administrative_area_level_1",
            "political"
          ]
        },
        {
          "long_name": "United States",
          "short_name": "US",
          "types": [
            "country",
            "political"
          ]
        }
      ],
      "formatted_address": "Chautauqua County, NY, USA",
      "geometry": {
        "bounds": {
          "northeast": {
            "lat": 42.570267,
            "lng": -79.059209
          },
          "southwest": {
            "lat": 41.99825500000001,
            "lng": -79.76214379999999
          }
        },
        "location": {
          "lat": 42.2312829,
          "lng": -79.560344
        },
        "location_type": "APPROXIMATE",
        "viewport": {
          "northeast": {
            "lat": 42.570267,
            "lng": -79.059209
          },
          "southwest": {
            "lat": 41.99825500000001,
            "lng": -79.76214379999999
          }
        }
      },
      "place_id": "ChIJR4rNe8e10okRD5lYqn0jEmY",
      "types": [
        "administrative_area_level_2",
        "political"
      ]
    },
    {
      "address_components": [
        {
          "long_name": "New York",
          "short_name": "NY",
          "types": [
            "administrative_area_level_1",
            "political"
          ]
        },
        {
          "long_name": "United States",
          "short_name": "US",
          "types": [
            "country",
            "political"
          ]
        }
      ],
      "formatted_address": "New York, USA",
      "geometry": {
        "bounds": {
          "northeast": {
            "lat": 45.015865,
            "lng": -71.85620639999999
          },
          "southwest": {
            "lat": 40.496091,
            "lng": -79.76214379999999
          }
        },
        "location": {
          "lat": 43.2994285,
          "lng": -74.21793260000001
        },
        "location_type": "APPROXIMATE",
        "viewport": {
          "northeast": {
            "lat": 45.015859,
            "lng": -71.85620639999999
          },
          "southwest": {
            "lat": 40.496091,
            "lng": -79.76214379999999
          }
        }
      },
      "place_id": "ChIJqaUj8fBLzEwRZ5UY3sHGz90",
      "types": [
        "administrative_area_level_1",
        "political"
      ]
    },
    {
      "address_components": [
        {
          "long_name": "United States",
          "short_name": "US",
          "types": [
            "country",
            "political"
          ]
        }
      ],
      "formatted_address": "United States",
      "geometry": {
        "bounds": {
          "northeast": {
            "lat": 71.3867745,
            "lng": -66.9502861
          },
          "southwest": {
            "lat": 18.9106768,
            "lng": 172.4458955
          }
        },
        "location": {
          "lat": 37.09024,
          "lng": -95.712891
        },
        "location_type": "APPROXIMATE",
        "viewport": {
          "northeast": {
            "lat": 49.38,
            "lng": -66.94
          },
          "southwest": {
            "lat": 25.82,
            "lng": -124.39
          }
        }
      },
      "place_id": "ChIJCzYy5IS16lQRQrfeQ5K5Oxw",
      "types": [
        "country",
        "political"
      ]
    }
  ],
  "status": "OK"
}
