{
  "results": [
    {
      "address_components": [
        {
          "long_name": "North 4th Street",
          "short_name": "N 4th St",
          "types": [
            "route"
          ]
        },
        {
          "long_name": "Arbyrd",
          "short_name": "Arbyrd",
          "types": [
            "locality",
            "political"
          ]
        },
        {
          "long_name": "Salem Township",
          "short_name": "Salem Township",
          "types": [
            "administrative_area_level_3",
            "political"
          ]
        },
        {
          "long_name": "Dunklin County",
          "short_name": "Dunklin County",
          "types": [
            "administrative_area_level_2",
            "political"
          ]
        },
        {
          "long_name": "Missouri",
          "short_name": "MO",
          "types": [
            "administrative_area_level_1",
            "political"
          ]
        },
        {
          "long_name": "United States",
          "short_name": "US",
          "types": [
            "country",
            "political"
          ]
        },
        {
          "long_name": "63821",
          "short_name": "63821",
          "types": [
            "postal_code"
          ]
        }
      ],
      "formatted_address": "N 4th St, Arbyrd, MO 63821, USA",
      "geometry": {
        "bounds": {
          "northeast": {
            "lat": 36.05316,
            "lng": -90.2394654
          },
          "southwest": {
            "lat": 36.0530525,
            "lng": -90.2406862
          }
        },
        "location": {
          "lat": 36.0531063,
          "lng": -90.2400758
        },
        "location_type": "GEOMETRIC_CENTER",
        "viewport": {
          "northeast": {
            "lat": 36.0544552302915,
            "lng": -90.23872681970849
          },
          "southwest": {
            "lat": 36.0517572697085,
            "lng": -90.2414247802915
          }
        }
      },
      "place_id": "ChIJs8wOGskN1ocRm9a9fjhnh80",
      "types": [
        "route"
      ]
    },
    {
      "address_components": [
        {
          "long_name": "Arbyrd",
          "short_name": "Arbyrd",
          "types": [
            "locality",
            "political"
          ]
        },
        {
          "long_name": "Salem Township",
          "short_name": "Salem Township",
          "types": [
            "administrative_area_level_3",
            "political"
          ]
        },
        {
          "long_name": "Dunklin County",
          "short_name": "Dunklin County",
          "types": [
            "administrative_area_level_2",
            "political"
          ]
        },
        {
          "long_name": "Missouri",
          "short_name": "MO",
          "types": [
            "administrative_area_level_1",
            "political"
          ]
        },
        {
          "long_name": "United States",
          "short_name": "US",
          "types": [
            "country",
            "political"
          ]
        },
        {
          "long_name": "63821",
          "short_name": "63821",
          "types": [
            "postal_code"
          ]
        }
      ],
      "formatted_address": "Arbyrd, MO 63821, USA",
      "geometry": {
        "bounds": {
          "northeast": {
            "lat": 36.0610269,
            "lng": -90.2309439
          },
          "southwest": {
            "lat": 36.043168,
            "lng": -90.2505989
          }
        },
        "location": {
          "lat": 36.0509021,
          "lng": -90.2387092
        },
        "location_type": "APPROXIMATE",
        "viewport": {
          "northeast": {
            "lat": 36.0610269,
            "lng": -90.2309439
          },
          "southwest": {
            "lat": 36.043168,
            "lng": -90.2505989
          }
        }
      },
      "place_id": "ChIJT7t1FMkN1ocRwKr__N5_Dpk",
      "types": [
        "locality",
        "political"
      ]
    },
    {
      "address_components": [
        {
          "long_name": "63821",
          "short_name": "63821",
          "types": [
            "postal_code"
          ]
        },
        {
          "long_name": "Arbyrd",
          "short_name": "Arbyrd",
          "types": [
            "locality",
            "political"
          ]
        },
        {
          "long_name": "Missouri",
          "short_name": "MO",
          "types": [
            "administrative_area_level_1",
            "political"
          ]
        },
        {
          "long_name": "United States",
          "short_name": "US",
          "types": [
            "country",
            "political"
          ]
        }
      ],
      "formatted_address": "Arbyrd, MO 63821, USA",
      "geometry": {
        "bounds": {
          "northeast": {
            "lat": 36.12814890000001,
            "lng": -90.1590519
          },
          "southwest": {
            "lat": 35.996385,
            "lng": -90.3020969
          }
        },
        "location": {
          "lat": 36.0238405,
          "lng": -90.2432307
        },
        "location_type": "APPROXIMATE",
        "viewport": {
          "northeast": {
            "lat": 36.12814890000001,
            "lng": -90.1590519
          },
          "southwest": {
            "lat": 35.996385,
            "lng": -90.3020969
          }
        }
      },
      "place_id": "ChIJySKajSsM1ocRz3SvJSaYSUg",
      "types": [
        "postal_code"
      ]
    },
    {
      "address_components": [
        {
          "long_name": "Salem Township",
          "short_name": "Salem Township",
          "types": [
            "administrative_area_level_3",
            "political"
          ]
        },
        {
          "long_name": "Dunklin County",
          "short_name": "Dunklin County",
          "types": [
            "administrative_area_level_2",
            "political"
          ]
        },
        {
          "long_name": "Missouri",
          "short_name": "MO",
          "types": [
            "administrative_area_level_1",
            "political"
          ]
        },
        {
          "long_name": "United States",
          "short_name": "US",
          "types": [
            "country",
            "political"
          ]
        }
      ],
      "formatted_address": "Salem Township, MO, USA",
      "geometry": {
        "bounds": {
          "northeast": {
            "lat": 36.200076,
            "lng": -90.105102
          },
          "southwest": {
            "lat": 35.996772,
            "lng": -90.248734
          }
        },
        "location": {
          "lat": 36.1109042,
          "lng": -90.20571079999999
        },
        "location_type": "APPROXIMATE",
        "viewport": {
          "northeast": {
            "lat": 36.200076,
            "lng": -90.105102
          },
          "southwest": {
            "lat": 35.996772,
            "lng": -90.248734
          }
        }
      },
      "place_id": "ChIJc33Siy8Q1ocRtvb6aJsbg54",
      "types": [
        "administrative_area_level_3",
        "political"
      ]
    },
    {
      "address_components": [
        {
          "long_name": "Kennett",
          "short_name": "Kennett",
          "types": [
            "political"
          ]
        },
        {
          "long_name": "United States",
          "short_name": "US",
          "types": [
            "country",
            "political"
          ]
        }
      ],
      "formatted_address": "Kennett, USA",
      "geometry": {
        "bounds": {
          "northeast": {
            "lat": 36.6308199,
            "lng": -89.95366399999999
          },
          "southwest": {
            "lat": 35.9956829,
            "lng": -90.37789
          }
        },
        "location": {
          "lat": 36.2196795,
          "lng": -90.0373201
        },
        "location_type": "APPROXIMATE",
        "viewport": {
          "northeast": {
            "lat": 36.6308199,
            "lng": -89.95366399999999
          },
          "southwest": {
            "lat": 35.9956829,
            "lng": -90.37789
          }
        }
      },
      "place_id": "ChIJmUQVBw0i1ocRFm3fnpaIsdA",
      "types": [
        "political"
      ]
    },
    {
      "address_components": [
        {
          "long_name": "Dunklin County",
          "short_name": "Dunklin County",
          "types": [
            "administrative_area_level_2",
            "political"
          ]
        },
        {
          "long_name": "Missouri",
          "short_name": "MO",
          "types": [
            "administrative_area_level_1",
            "political"
          ]
        },
        {
          "long_name": "United States",
          "short_name": "US",
          "types": [
            "country",
            "political"
          ]
        }
      ],
      "formatted_address": "Dunklin County, MO, USA",
      "geometry": {
        "bounds": {
          "northeast": {
            "lat": 36.631212,
            "lng": -89.953627
          },
          "southwest": {
            "lat": 35.9956829,
            "lng": -90.37789
          }
        },
        "location": {
          "lat": 36.2364268,
          "lng": -90.055447
        },
        "location_type": "APPROXIMATE",
        "viewport": {
          "northeast": {
            "lat": 36.631212,
            "lng": -89.953627
          },
          "southwest": {
            "lat": 35.9956829,
            "lng": -90.37789
          }
        }
      },
      "place_id": "ChIJPYAw5iUk1ocR3rwrJ4xNBrE",
      "types": [
        "administrative_area_level_2",
        "political"
      ]
    },
    {
      "address_components": [
        {
          "long_name": "Missouri",
          "short_name": "MO",
          "types": [
            "administrative_area_level_1",
            "political"
          ]
        },
        {
          "long_name": "United States",
          "short_name": "US",
          "types": [
            "country",
            "political"
          ]
        }
      ],
      "formatted_address": "Missouri, USA",
      "geometry": {
        "bounds": {
          "northeast": {
            "lat": 40.61364,
            "lng": -89.09949399999999
          },
          "southwest": {
            "lat": 35.9956829,
            "lng": -95.774704
          }
        },
        "location": {
          "lat": 37.9642529,
          "lng": -91.8318334
        },
        "location_type": "APPROXIMATE",
        "viewport": {
          "northeast": {
            "lat": 40.61364,
            "lng": -89.09949399999999
          },
          "southwest": {
            "lat": 35.9956829,
            "lng": -95.774704
          }
        }
      },
      "place_id": "ChIJfeMiSNXmwIcRcr1mBFnEW7U",
      "types": [
        "administrative_area_level_1",
        "political"
      ]
    },
    {
      "address_components": [
        {
          "long_name": "United States",
          "short_name": "US",
          "types": [
            "country",
            "political"
          ]
        }
      ],
      "formatted_address": "United States",
      "geometry": {
        "bounds": {
          "northeast": {
            "lat": 71.3867745,
            "lng": -66.9502861
          },
          "southwest": {
            "lat": 18.9106768,
            "lng": 172.4458955
          }
        },
        "location": {
          "lat": 37.09024,
          "lng": -95.712891
        },
        "location_type": "APPROXIMATE",
        "viewport": {
          "northeast": {
            "lat": 49.38,
            "lng": -66.94
          },
          "southwest": {
            "lat": 25.82,
            "lng": -124.39
          }
        }
      },
      "place_id": "ChIJCzYy5IS16lQRQrfeQ5K5Oxw",
      "types": [
        "country",
        "political"
      ]
    }
  ],
  "status": "OK"
}
