{
  "results": [
    {
      "address_components": [
        {
          "long_name": "Main Street",
          "short_name": "Main St",
          "types": [
            "route"
          ]
        },
        {
          "long_name": "Ness City",
          "short_name": "Ness City",
          "types": [
            "locality",
            "political"
          ]
        },
        {
          "long_name": "Center",
          "short_name": "Center",
          "types": [
            "administrative_area_level_3",
            "political"
          ]
        },
        {
          "long_name": "Ness County",
          "short_name": "Ness County",
          "types": [
            "administrative_area_level_2",
            "political"
          ]
        },
        {
          "long_name": "Kansas",
          "short_name": "KS",
          "types": [
            "administrative_area_level_1",
            "political"
          ]
        },
        {
          "long_name": "United States",
          "short_name": "US",
          "types": [
            "country",
            "political"
          ]
        },
        {
          "long_name": "67560",
          "short_name": "67560",
          "types": [
            "postal_code"
          ]
        }
      ],
      "formatted_address": "Main St, Ness City, KS 67560, USA",
      "geometry": {
        "bounds": {
          "northeast": {
            "lat": 38.4539264,
            "lng": -99.9050508
          },
          "southwest": {
            "lat": 38.4539209,
            "lng": -99.90572279999999
          }
        },
        "location": {
          "lat": 38.4539237,
          "lng": -99.9053868
        },
        "location_type": "GEOMETRIC_CENTER",
        "viewport": {
          "northeast": {
            "lat": 38.4552726302915,
            "lng": -99.90403781970849
          },
          "southwest": {
            "lat": 38.4525746697085,
            "lng": -99.90673578029151
          }
        }
      },
      "place_id": "ChIJo8HBxJzYoIcRGSUhkKqCzS8",
      "types": [
        "route"
      ]
    },
    {
      "address_components": [
        {
          "long_name": "Ness City",
          "short_name": "Ness City",
          "types": [
            "locality",
            "political"
          ]
        },
        {
          "long_name": "Center",
          "short_name": "Center",
          "types": [
            "administrative_area_level_3",
            "political"
          ]
        },
        {
          "long_name": "Ness County",
          "short_name": "Ness County",
          "types": [
            "administrative_area_level_2",
            "political"
          ]
        },
        {
          "long_name": "Kansas",
          "short_name": "KS",
          "types": [
            "administrative_area_level_1",
            "political"
          ]
        },
        {
          "long_name": "United States",
          "short_name": "US",
          "types": [
            "country",
            "political"
          ]
        },
        {
          "long_name": "67560",
          "short_name": "67560",
          "types": [
            "postal_code"
          ]
        }
      ],
      "formatted_address": "Ness City, KS 67560, USA",
      "geometry": {
        "bounds": {
          "northeast": {
            "lat": 38.464981,
            "lng": -99.8926259
          },
          "southwest": {
            "lat": 38.441914,
            "lng": -99.9222439
          }
        },
        "location": {
          "lat": 38.4527935,
          "lng": -99.9065136
        },
        "location_type": "APPROXIMATE",
        "viewport": {
          "northeast": {
            "lat": 38.464981,
            "lng": -99.8926259
          },
          "southwest": {
            "lat": 38.441914,
            "lng": -99.9222439
          }
        }
      },
      "place_id": "ChIJ1S7NqoTYoIcRni489FpOVoA",
      "types": [
        "locality",
        "political"
      ]
    },
    {
      "address_components": [
        {
          "long_name": "Center",
          "short_name": "Center",
          "types": [
            "administrative_area_level_3",
            "political"
          ]
        },
        {
          "long_name": "Ness County",
          "short_name": "Ness County",
          "types": [
            "administrative_area_level_2",
            "political"
          ]
        },
        {
          "long_name": "Kansas",
          "short_name": "KS",
          "types": [
            "administrative_area_level_1",
            "political"
          ]
        },
        {
          "long_name": "United States",
          "short_name": "US",
          "types": [
            "country",
            "political"
          ]
        }
      ],
      "formatted_address": "Center, KS, USA",
      "geometry": {
        "bounds": {
          "northeast": {
            "lat": 38.552513,
            "lng": -99.8069939
          },
          "southwest": {
            "lat": 38.4360939,
            "lng": -99.9181901
          }
        },
        "location": {
          "lat": 38.5073058,
          "lng": -99.87947439999999
        },
        "location_type": "APPROXIMATE",
        "viewport": {
          "northeast": {
            "lat": 38.552513,
            "lng": -99.8069939
          },
          "southwest": {
            "lat": 38.4360939,
            "lng": -99.9181901
          }
        }
      },
      "place_id": "ChIJkwYQfdkgoYcRcPBD_KrhpbU",
      "types": [
        "administrative_area_level_3",
        "political"
      ]
    },
    {
      "address_components": [
        {
          "long_name": "67560",
          "short_name": "67560",
          "types": [
            "postal_code"
          ]
        },
        {
          "long_name": "Ness City",
          "short_name": "Ness City",
          "types": [
            "locality",
            "political"
          ]
        },
        {
          "long_name": "Kansas",
          "short_name": "KS",
          "types": [
            "administrative_area_level_1",
            "political"
          ]
        },
        {
          "long_name": "United States",
          "short_name": "US",
          "types": [
            "country",
            "political"
          ]
        }
      ],
      "formatted_address": "Ness City, KS 67560, USA",
      "geometry": {
        "bounds": {
          "northeast": {
            "lat": 38.624027,
            "lng": -99.7133631
          },
          "southwest": {
            "lat": 38.24716,
            "lng": -100.189166
          }
        },
        "location": {
          "lat": 38.3557294,
          "lng": -99.9465077
        },
        "location_type": "APPROXIMATE",
        "viewport": {
          "northeast": {
            "lat": 38.624027,
            "lng": -99.7133631
          },
          "southwest": {
            "lat": 38.24716,
            "lng": -100.189166
          }
        }
      },
      "place_id": "ChIJuxgiEzDYoIcR9pgG_apvgww",
      "types": [
        "postal_code"
      ]
    },
    {
      "address_components": [
        {
          "long_name": "Ness County",
          "short_name": "Ness County",
          "types": [
            "administrative_area_level_2",
            "political"
          ]
        },
        {
          "long_name": "Kansas",
          "short_name": "KS",
          "types": [
            "administrative_area_level_1",
            "political"
          ]
        },
        {
          "long_name": "United States",
          "short_name": "US",
          "types": [
            "country",
            "political"
          ]
        }
      ],
      "formatted_address": "Ness County, KS, USA",
      "geometry": {
        "bounds": {
          "northeast": {
            "lat": 38.69818,
            "lng": -99.5842069
          },
          "southwest": {
            "lat": 38.26145500000001,
            "lng": -100.248657
          }
        },
        "location": {
          "lat": 38.4769509,
          "lng": -99.99122539999999
        },
        "location_type": "APPROXIMATE",
        "viewport": {
          "northeast": {
            "lat": 38.69818,
            "lng": -99.5842069
          },
          "southwest": {
            "lat": 38.26145500000001,
            "lng": -100.248657
          }
        }
      },
      "place_id": "ChIJT1jAxjreoIcRtIGDPtF_yys",
      "types": [
        "administrative_area_level_2",
        "political"
      ]
    },
    {
      "address_components": [
        {
          "long_name": "Kansas",
          "short_name": "KS",
          "types": [
            "administrative_area_level_1",
            "political"
          ]
        },
        {
          "long_name": "United States",
          "short_name": "US",
          "types": [
            "country",
            "political"
          ]
        }
      ],
      "formatted_address": "Kansas, USA",
      "geometry": {
        "bounds": {
          "northeast": {
            "lat": 40.0045419,
            "lng": -94.588387
          },
          "southwest": {
            "lat": 36.9930159,
            "lng": -102.0517688
          }
        },
        "location": {
          "lat": 39.011902,
          "lng": -98.4842465
        },
        "location_type": "APPROXIMATE",
        "viewport": {
          "northeast": {
            "lat": 40.0045419,
            "lng": -94.588387
          },
          "southwest": {
            "lat": 36.9930159,
            "lng": -102.0517688
          }
        }
      },
      "place_id": "ChIJawF8cXEXo4cRXwk-S6m0wmg",
      "types": [
        "administrative_area_level_1",
        "political"
      ]
    },
    {
      "address_components": [
        {
          "long_name": "United States",
          "short_name": "US",
          "types": [
            "country",
            "political"
          ]
        }
      ],
      "formatted_address": "United States",
      "geometry": {
        "bounds": {
          "northeast": {
            "lat": 71.3867745,
            "lng": -66.9502861
          },
          "southwest": {
            "lat": 18.9106768,
            "lng": 172.4458955
          }
        },
        "location": {
          "lat": 37.09024,
          "lng": -95.712891
        },
        "location_type": "APPROXIMATE",
        "viewport": {
          "northeast": {
            "lat": 49.38,
            "lng": -66.94
          },
          "southwest": {
            "lat": 25.82,
            "lng": -124.39
          }
        }
      },
      "place_id": "ChIJCzYy5IS16lQRQrfeQ5K5Oxw",
      "types": [
        "country",
        "political"
      ]
    }
  ],
  "status": "OK"
}
