{
  "results": [
    {
      "address_components": [
        {
          "long_name": "200-298",
          "short_name": "200-298",
          "types": [
            "street_number"
          ]
        },
        {
          "long_name": "North Main Street",
          "short_name": "OH-726",
          "types": [
            "route"
          ]
        },
        {
          "long_name": "Eldorado",
          "short_name": "Eldorado",
          "types": [
            "locality",
            "political"
          ]
        },
        {
          "long_name": "Monroe Township",
          "short_name": "Monroe Township",
          "types": [
            "administrative_area_level_3",
            "political"
          ]
        },
        {
          "long_name": "Preble County",
          "short_name": "Preble County",
          "types": [
            "administrative_area_level_2",
            "political"
          ]
        },
        {
          "long_name": "Ohio",
          "short_name": "OH",
          "types": [
            "administrative_area_level_1",
            "political"
          ]
        },
        {
          "long_name": "United States",
          "short_name": "US",
          "types": [
            "country",
            "political"
          ]
        },
        {
          "long_name": "45321",
          "short_name": "45321",
          "types": [
            "postal_code"
          ]
        },
        {
          "long_name": "5046",
          "short_name": "5046",
          "types": [
            "postal_code_suffix"
          ]
        }
      ],
      "formatted_address": "200-298 N Main St, Eldorado, OH 45321, USA",
      "geometry": {
        "bounds": {
          "northeast": {
            "lat": 39.9044804,
            "lng": -84.6755201
          },
          "southwest": {
            "lat": 39.9033039,
            "lng": -84.6756599
          }
        },
        "location": {
          "lat": 39.9042697,
          "lng": -84.6755263
        },
        "location_type": "RANGE_INTERPOLATED",
        "viewport": {
          "northeast": {
            "lat": 39.90524113029149,
            "lng": -84.6742410197085
          },
          "southwest": {
            "lat": 39.9025431697085,
            "lng": -84.67693898029151
          }
        }
      },
      "place_id": "EioyMDAtMjk4IE4gTWFpbiBTdCwgRWxkb3JhZG8sIE9IIDQ1MzIxLCBVU0E",
      "types": [
        "street_address"
      ]
    },
    {
      "address_components": [
        {
          "long_name": "Eldorado",
          "short_name": "Eldorado",
          "types": [
            "locality",
            "political"
          ]
        },
        {
          "long_name": "Monroe Township",
          "short_name": "Monroe Township",
          "types": [
            "administrative_area_level_3",
            "political"
          ]
        },
        {
          "long_name": "Preble County",
          "short_name": "Preble County",
          "types": [
            "administrative_area_level_2",
            "political"
          ]
        },
        {
          "long_name": "Ohio",
          "short_name": "OH",
          "types": [
            "administrative_area_level_1",
            "political"
          ]
        },
        {
          "long_name": "United States",
          "short_name": "US",
          "types": [
            "country",
            "political"
          ]
        }
      ],
      "formatted_address": "Eldorado, OH, USA",
      "geometry": {
        "bounds": {
          "northeast": {
            "lat": 39.9092969,
            "lng": -84.670318
          },
          "southwest": {
            "lat": 39.8984681,
            "lng": -84.680274
          }
        },
        "location": {
          "lat": 39.9019943,
          "lng": -84.6749557
        },
        "location_type": "APPROXIMATE",
        "viewport": {
          "northeast": {
            "lat": 39.9092969,
            "lng": -84.670318
          },
          "southwest": {
            "lat": 39.8984681,
            "lng": -84.680274
          }
        }
      },
      "place_id": "ChIJ5csZlDP0P4gRYrHi0pbYhPg",
      "types": [
        "locality",
        "political"
      ]
    },
    {
      "address_components": [
        {
          "long_name": "45321",
          "short_name": "45321",
          "types": [
            "postal_code"
          ]
        },
        {
          "long_name": "Eldorado",
          "short_name": "Eldorado",
          "types": [
            "locality",
            "political"
          ]
        },
        {
          "long_name": "Preble County",
          "short_name": "Preble County",
          "types": [
            "administrative_area_level_2",
            "political"
          ]
        },
        {
          "long_name": "Ohio",
          "short_name": "OH",
          "types": [
            "administrative_area_level_1",
            "political"
          ]
        },
        {
          "long_name": "United States",
          "short_name": "US",
          "types": [
            "country",
            "political"
          ]
        }
      ],
      "formatted_address": "Eldorado, OH 45321, USA",
      "geometry": {
        "bounds": {
          "northeast": {
            "lat": 39.916688,
            "lng": -84.6516111
          },
          "southwest": {
            "lat": 39.8282728,
            "lng": -84.7048029
          }
        },
        "location": {
          "lat": 39.8697287,
          "lng": -84.6792931
        },
        "location_type": "APPROXIMATE",
        "viewport": {
          "northeast": {
            "lat": 39.916688,
            "lng": -84.6516111
          },
          "southwest": {
            "lat": 39.8282728,
            "lng": -84.7048029
          }
        }
      },
      "place_id": "ChIJL1yJUun1P4gRNrXIt5tTaWA",
      "types": [
        "postal_code"
      ]
    },
    {
      "address_components": [
        {
          "long_name": "Monroe Township",
          "short_name": "Monroe Township",
          "types": [
            "administrative_area_level_3",
            "political"
          ]
        },
        {
          "long_name": "Preble County",
          "short_name": "Preble County",
          "types": [
            "administrative_area_level_2",
            "political"
          ]
        },
        {
          "long_name": "Ohio",
          "short_name": "OH",
          "types": [
            "administrative_area_level_1",
            "political"
          ]
        },
        {
          "long_name": "United States",
          "short_name": "US",
          "types": [
            "country",
            "political"
          ]
        }
      ],
      "formatted_address": "Monroe Township, OH, USA",
      "geometry": {
        "bounds": {
          "northeast": {
            "lat": 39.9168359,
            "lng": -84.595069
          },
          "southwest": {
            "lat": 39.8282728,
            "lng": -84.7048109
          }
        },
        "location": {
          "lat": 39.87950499999999,
          "lng": -84.6688348
        },
        "location_type": "APPROXIMATE",
        "viewport": {
          "northeast": {
            "lat": 39.9168359,
            "lng": -84.595069
          },
          "southwest": {
            "lat": 39.8282728,
            "lng": -84.7048109
          }
        }
      },
      "place_id": "ChIJrR8zz531P4gRUlTrT-VEyh4",
      "types": [
        "administrative_area_level_3",
        "political"
      ]
    },
    {
      "address_components": [
        {
          "long_name": "Preble County",
          "short_name": "Preble County",
          "types": [
            "administrative_area_level_2",
            "political"
          ]
        },
        {
          "long_name": "Ohio",
          "short_name": "OH",
          "types": [
            "administrative_area_level_1",
            "political"
          ]
        },
        {
          "long_name": "United States",
          "short_name": "US",
          "types": [
            "country",
            "political"
          ]
        }
      ],
      "formatted_address": "Preble County, OH, USA",
      "geometry": {
        "bounds": {
          "northeast": {
            "lat": 39.9184908,
            "lng": -84.478797
          },
          "southwest": {
            "lat": 39.5665999,
            "lng": -84.815164
          }
        },
        "location": {
          "lat": 39.7778251,
          "lng": -84.68974949999999
        },
        "location_type": "APPROXIMATE",
        "viewport": {
          "northeast": {
            "lat": 39.9184908,
            "lng": -84.478797
          },
          "southwest": {
            "lat": 39.5665999,
            "lng": -84.815164
          }
        }
      },
      "place_id": "ChIJkxURoYyJP4gRVeQzzS6OIlQ",
      "types": [
        "administrative_area_level_2",
        "political"
      ]
    },
    {
      "address_components": [
        {
          "long_name": "Dayton",
          "short_name": "Dayton",
          "types": [
            "political"
          ]
        },
        {
          "long_name": "United States",
          "short_name": "US",
          "types": [
            "country",
            "political"
          ]
        }
      ],
      "formatted_address": "Dayton, USA",
      "geometry": {
        "bounds": {
          "northeast": {
            "lat": 40.20008199999999,
            "lng": -83.64661
          },
          "southwest": {
            "lat": 39.5502529,
            "lng": -84.815156
          }
        },
        "location": {
          "lat": 39.7620028,
          "lng": -84.3542049
        },
        "location_type": "APPROXIMATE",
        "viewport": {
          "northeast": {
            "lat": 40.20008199999999,
            "lng": -83.64661
          },
          "southwest": {
            "lat": 39.5502529,
            "lng": -84.815156
          }
        }
      },
      "place_id": "ChIJHUhBS3iAQIgRfuAqWL17twA",
      "types": [
        "political"
      ]
    },
    {
      "address_components": [
        {
          "long_name": "Ohio",
          "short_name": "OH",
          "types": [
            "administrative_area_level_1",
            "political"
          ]
        },
        {
          "long_name": "United States",
          "short_name": "US",
          "types": [
            "country",
            "political"
          ]
        }
      ],
      "formatted_address": "Ohio, USA",
      "geometry": {
        "bounds": {
          "northeast": {
            "lat": 41.9773019,
            "lng": -80.5182
          },
          "southwest": {
            "lat": 38.4034229,
            "lng": -84.8203049
          }
        },
        "location": {
          "lat": 40.4172871,
          "lng": -82.90712300000001
        },
        "location_type": "APPROXIMATE",
        "viewport": {
          "northeast": {
            "lat": 41.9773019,
            "lng": -80.5182
          },
          "southwest": {
            "lat": 38.4034229,
            "lng": -84.8203049
          }
        }
      },
      "place_id": "ChIJwY5NtXrpNogRFtmfnDlkzeU",
      "types": [
        "administrative_area_level_1",
        "political"
      ]
    },
    {
      "address_components": [
        {
          "long_name": "United States",
          "short_name": "US",
          "types": [
            "country",
            "political"
          ]
        }
      ],
      "formatted_address": "United States",
      "geometry": {
        "bounds": {
          "northeast": {
            "lat": 71.3867745,
            "lng": -66.9502861
          },
          "southwest": {
            "lat": 18.9106768,
            "lng": 172.4458955
          }
        },
        "location": {
          "lat": 37.09024,
          "lng": -95.712891
        },
        "location_type": "APPROXIMATE",
        "viewport": {
          "northeast": {
            "lat": 49.38,
            "lng": -66.94
          },
          "southwest": {
            "lat": 25.82,
            "lng": -124.39
          }
        }
      },
      "place_id": "ChIJCzYy5IS16lQRQrfeQ5K5Oxw",
      "types": [
        "country",
        "political"
      ]
    }
  ],
  "status": "OK"
}
