{
  "results": [
    {
      "address_components": [
        {
          "long_name": "101-199",
          "short_name": "101-199",
          "types": [
            "street_number"
          ]
        },
        {
          "long_name": "West 1st Street",
          "short_name": "State Hwy K",
          "types": [
            "route"
          ]
        },
        {
          "long_name": "Bragg City",
          "short_name": "Bragg City",
          "types": [
            "locality",
            "political"
          ]
        },
        {
          "long_name": "Pascola Township",
          "short_name": "Pascola Township",
          "types": [
            "administrative_area_level_3",
            "political"
          ]
        },
        {
          "long_name": "Pemiscot County",
          "short_name": "Pemiscot County",
          "types": [
            "administrative_area_level_2",
            "political"
          ]
        },
        {
          "long_name": "Missouri",
          "short_name": "MO",
          "types": [
            "administrative_area_level_1",
            "political"
          ]
        },
        {
          "long_name": "United States",
          "short_name": "US",
          "types": [
            "country",
            "political"
          ]
        },
        {
          "long_name": "63827",
          "short_name": "63827",
          "types": [
            "postal_code"
          ]
        }
      ],
      "formatted_address": "101-199 W 1st St, Bragg City, MO 63827, USA",
      "geometry": {
        "bounds": {
          "northeast": {
            "lat": 36.2681676,
            "lng": -89.91102479999999
          },
          "southwest": {
            "lat": 36.2681623,
            "lng": -89.9122666
          }
        },
        "location": {
          "lat": 36.2681483,
          "lng": -89.9113019
        },
        "location_type": "RANGE_INTERPOLATED",
        "viewport": {
          "northeast": {
            "lat": 36.2695139302915,
            "lng": -89.91029671970848
          },
          "southwest": {
            "lat": 36.2668159697085,
            "lng": -89.9129946802915
          }
        }
      },
      "place_id": "EisxMDEtMTk5IFcgMXN0IFN0LCBCcmFnZyBDaXR5LCBNTyA2MzgyNywgVVNB",
      "types": [
        "street_address"
      ]
    },
    {
      "address_components": [
        {
          "long_name": "Bragg City",
          "short_name": "Bragg City",
          "types": [
            "locality",
            "political"
          ]
        },
        {
          "long_name": "Pascola Township",
          "short_name": "Pascola Township",
          "types": [
            "administrative_area_level_3",
            "political"
          ]
        },
        {
          "long_name": "Pemiscot County",
          "short_name": "Pemiscot County",
          "types": [
            "administrative_area_level_2",
            "political"
          ]
        },
        {
          "long_name": "Missouri",
          "short_name": "MO",
          "types": [
            "administrative_area_level_1",
            "political"
          ]
        },
        {
          "long_name": "United States",
          "short_name": "US",
          "types": [
            "country",
            "political"
          ]
        },
        {
          "long_name": "63827",
          "short_name": "63827",
          "types": [
            "postal_code"
          ]
        }
      ],
      "formatted_address": "Bragg City, MO 63827, USA",
      "geometry": {
        "bounds": {
          "northeast": {
            "lat": 36.2714739,
            "lng": -89.90320700000001
          },
          "southwest": {
            "lat": 36.262715,
            "lng": -89.91596
          }
        },
        "location": {
          "lat": 36.2681213,
          "lng": -89.9109223
        },
        "location_type": "APPROXIMATE",
        "viewport": {
          "northeast": {
            "lat": 36.2714739,
            "lng": -89.90320700000001
          },
          "southwest": {
            "lat": 36.262715,
            "lng": -89.91596
          }
        }
      },
      "place_id": "ChIJH8MtE6GYeIgRHgQ8gyEmKaw",
      "types": [
        "locality",
        "political"
      ]
    },
    {
      "address_components": [
        {
          "long_name": "Pascola Township",
          "short_name": "Pascola Township",
          "types": [
            "administrative_area_level_3",
            "political"
          ]
        },
        {
          "long_name": "Pemiscot County",
          "short_name": "Pemiscot County",
          "types": [
            "administrative_area_level_2",
            "political"
          ]
        },
        {
          "long_name": "Missouri",
          "short_name": "MO",
          "types": [
            "administrative_area_level_1",
            "political"
          ]
        },
        {
          "long_name": "United States",
          "short_name": "US",
          "types": [
            "country",
            "political"
          ]
        }
      ],
      "formatted_address": "Pascola Township, MO, USA",
      "geometry": {
        "bounds": {
          "northeast": {
            "lat": 36.323105,
            "lng": -89.790364
          },
          "southwest": {
            "lat": 36.233395,
            "lng": -89.961698
          }
        },
        "location": {
          "lat": 36.2847039,
          "lng": -89.8692203
        },
        "location_type": "APPROXIMATE",
        "viewport": {
          "northeast": {
            "lat": 36.323105,
            "lng": -89.790364
          },
          "southwest": {
            "lat": 36.233395,
            "lng": -89.961698
          }
        }
      },
      "place_id": "ChIJ3asF9GOYeIgRsM9-jUkt130",
      "types": [
        "administrative_area_level_3",
        "political"
      ]
    },
    {
      "address_components": [
        {
          "long_name": "63827",
          "short_name": "63827",
          "types": [
            "postal_code"
          ]
        },
        {
          "long_name": "Bragg City",
          "short_name": "Bragg City",
          "types": [
            "locality",
            "political"
          ]
        },
        {
          "long_name": "Missouri",
          "short_name": "MO",
          "types": [
            "administrative_area_level_1",
            "political"
          ]
        },
        {
          "long_name": "United States",
          "short_name": "US",
          "types": [
            "country",
            "political"
          ]
        }
      ],
      "formatted_address": "Bragg City, MO 63827, USA",
      "geometry": {
        "bounds": {
          "northeast": {
            "lat": 36.386624,
            "lng": -89.808424
          },
          "southwest": {
            "lat": 36.1600479,
            "lng": -89.980288
          }
        },
        "location": {
          "lat": 36.2847039,
          "lng": -89.8692203
        },
        "location_type": "APPROXIMATE",
        "viewport": {
          "northeast": {
            "lat": 36.386624,
            "lng": -89.808424
          },
          "southwest": {
            "lat": 36.1600479,
            "lng": -89.980288
          }
        }
      },
      "place_id": "ChIJM7jlhEaYeIgRGRdow50ps9I",
      "types": [
        "postal_code"
      ]
    },
    {
      "address_components": [
        {
          "long_name": "Pemiscot County",
          "short_name": "Pemiscot County",
          "types": [
            "administrative_area_level_2",
            "political"
          ]
        },
        {
          "long_name": "Missouri",
          "short_name": "MO",
          "types": [
            "administrative_area_level_1",
            "political"
          ]
        },
        {
          "long_name": "United States",
          "short_name": "US",
          "types": [
            "country",
            "political"
          ]
        }
      ],
      "formatted_address": "Pemiscot County, MO, USA",
      "geometry": {
        "bounds": {
          "northeast": {
            "lat": 36.4276591,
            "lng": -89.5345069
          },
          "southwest": {
            "lat": 35.999131,
            "lng": -89.961698
          }
        },
        "location": {
          "lat": 36.2195399,
          "lng": -89.81303559999999
        },
        "location_type": "APPROXIMATE",
        "viewport": {
          "northeast": {
            "lat": 36.4276591,
            "lng": -89.5345069
          },
          "southwest": {
            "lat": 35.999131,
            "lng": -89.961698
          }
        }
      },
      "place_id": "ChIJsTiJHm2VeIgRvL22cyrUaBw",
      "types": [
        "administrative_area_level_2",
        "political"
      ]
    },
    {
      "address_components": [
        {
          "long_name": "Missouri",
          "short_name": "MO",
          "types": [
            "administrative_area_level_1",
            "political"
          ]
        },
        {
          "long_name": "United States",
          "short_name": "US",
          "types": [
            "country",
            "political"
          ]
        }
      ],
      "formatted_address": "Missouri, USA",
      "geometry": {
        "bounds": {
          "northeast": {
            "lat": 40.61364,
            "lng": -89.09949399999999
          },
          "southwest": {
            "lat": 35.9956829,
            "lng": -95.774704
          }
        },
        "location": {
          "lat": 37.9642529,
          "lng": -91.8318334
        },
        "location_type": "APPROXIMATE",
        "viewport": {
          "northeast": {
            "lat": 40.61364,
            "lng": -89.09949399999999
          },
          "southwest": {
            "lat": 35.9956829,
            "lng": -95.774704
          }
        }
      },
      "place_id": "ChIJfeMiSNXmwIcRcr1mBFnEW7U",
      "types": [
        "administrative_area_level_1",
        "political"
      ]
    },
    {
      "address_components": [
        {
          "long_name": "United States",
          "short_name": "US",
          "types": [
            "country",
            "political"
          ]
        }
      ],
      "formatted_address": "United States",
      "geometry": {
        "bounds": {
          "northeast": {
            "lat": 71.3867745,
            "lng": -66.9502861
          },
          "southwest": {
            "lat": 18.9106768,
            "lng": 172.4458955
          }
        },
        "location": {
          "lat": 37.09024,
          "lng": -95.712891
        },
        "location_type": "APPROXIMATE",
        "viewport": {
          "northeast": {
            "lat": 49.38,
            "lng": -66.94
          },
          "southwest": {
            "lat": 25.82,
            "lng": -124.39
          }
        }
      },
      "place_id": "ChIJCzYy5IS16lQRQrfeQ5K5Oxw",
      "types": [
        "country",
        "political"
      ]
    }
  ],
  "status": "OK"
}
