{
  "results": [
    {
      "address_components": [
        {
          "long_name": "3055-3099",
          "short_name": "3055-3099",
          "types": [
            "street_number"
          ]
        },
        {
          "long_name": "Whitman Road",
          "short_name": "Whitman Rd",
          "types": [
            "route"
          ]
        },
        {
          "long_name": "Cedar",
          "short_name": "Cedar",
          "types": [
            "locality",
            "political"
          ]
        },
        {
          "long_name": "Solon Township",
          "short_name": "Solon Township",
          "types": [
            "administrative_area_level_3",
            "political"
          ]
        },
        {
          "long_name": "Leelanau County",
          "short_name": "Leelanau County",
          "types": [
            "administrative_area_level_2",
            "political"
          ]
        },
        {
          "long_name": "Michigan",
          "short_name": "MI",
          "types": [
            "administrative_area_level_1",
            "political"
          ]
        },
        {
          "long_name": "United States",
          "short_name": "US",
          "types": [
            "country",
            "political"
          ]
        },
        {
          "long_name": "49621",
          "short_name": "49621",
          "types": [
            "postal_code"
          ]
        }
      ],
      "formatted_address": "3055-3099 Whitman Rd, Cedar, MI 49621, USA",
      "geometry": {
        "bounds": {
          "northeast": {
            "lat": 44.8466309,
            "lng": -85.793889
          },
          "southwest": {
            "lat": 44.84662609999999,
            "lng": -85.794524
          }
        },
        "location": {
          "lat": 44.84664069999999,
          "lng": -85.7940584
        },
        "location_type": "RANGE_INTERPOLATED",
        "viewport": {
          "northeast": {
            "lat": 44.8479774802915,
            "lng": -85.79285751970848
          },
          "southwest": {
            "lat": 44.8452795197085,
            "lng": -85.7955554802915
          }
        }
      },
      "place_id": "EiozMDU1LTMwOTkgV2hpdG1hbiBSZCwgQ2VkYXIsIE1JIDQ5NjIxLCBVU0E",
      "types": [
        "street_address"
      ]
    },
    {
      "address_components": [
        {
          "long_name": "Cedar",
          "short_name": "Cedar",
          "types": [
            "locality",
            "political"
          ]
        },
        {
          "long_name": "Solon Township",
          "short_name": "Solon Township",
          "types": [
            "administrative_area_level_3",
            "political"
          ]
        },
        {
          "long_name": "Leelanau County",
          "short_name": "Leelanau County",
          "types": [
            "administrative_area_level_2",
            "political"
          ]
        },
        {
          "long_name": "Michigan",
          "short_name": "MI",
          "types": [
            "administrative_area_level_1",
            "political"
          ]
        },
        {
          "long_name": "United States",
          "short_name": "US",
          "types": [
            "country",
            "political"
          ]
        },
        {
          "long_name": "49621",
          "short_name": "49621",
          "types": [
            "postal_code"
          ]
        }
      ],
      "formatted_address": "Cedar, MI 49621, USA",
      "geometry": {
        "bounds": {
          "northeast": {
            "lat": 44.851156,
            "lng": -85.78903290000001
          },
          "southwest": {
            "lat": 44.843584,
            "lng": -85.798327
          }
        },
        "location": {
          "lat": 44.847264,
          "lng": -85.7946704
        },
        "location_type": "APPROXIMATE",
        "viewport": {
          "northeast": {
            "lat": 44.851156,
            "lng": -85.78903290000001
          },
          "southwest": {
            "lat": 44.843584,
            "lng": -85.798327
          }
        }
      },
      "place_id": "ChIJQY-wl9glHogRBKaUiV6ehFY",
      "types": [
        "locality",
        "political"
      ]
    },
    {
      "address_components": [
        {
          "long_name": "Solon Township",
          "short_name": "Solon Township",
          "types": [
            "administrative_area_level_3",
            "political"
          ]
        },
        {
          "long_name": "Leelanau County",
          "short_name": "Leelanau County",
          "types": [
            "administrative_area_level_2",
            "political"
          ]
        },
        {
          "long_name": "Michigan",
          "short_name": "MI",
          "types": [
            "administrative_area_level_1",
            "political"
          ]
        },
        {
          "long_name": "United States",
          "short_name": "US",
          "types": [
            "country",
            "political"
          ]
        }
      ],
      "formatted_address": "Solon Township, MI, USA",
      "geometry": {
        "bounds": {
          "northeast": {
            "lat": 44.8629641,
            "lng": -85.714395
          },
          "southwest": {
            "lat": 44.774431,
            "lng": -85.81511979999999
          }
        },
        "location": {
          "lat": 44.8166677,
          "lng": -85.7677021
        },
        "location_type": "APPROXIMATE",
        "viewport": {
          "northeast": {
            "lat": 44.8629641,
            "lng": -85.714395
          },
          "southwest": {
            "lat": 44.774431,
            "lng": -85.81511979999999
          }
        }
      },
      "place_id": "ChIJjbcGMn0vHogR1fRNh6APXd0",
      "types": [
        "administrative_area_level_3",
        "political"
      ]
    },
    {
      "address_components": [
        {
          "long_name": "49621",
          "short_name": "49621",
          "types": [
            "postal_code"
          ]
        },
        {
          "long_name": "Cedar",
          "short_name": "Cedar",
          "types": [
            "locality",
            "political"
          ]
        },
        {
          "long_name": "Leelanau County",
          "short_name": "Leelanau County",
          "types": [
            "administrative_area_level_2",
            "political"
          ]
        },
        {
          "long_name": "Michigan",
          "short_name": "MI",
          "types": [
            "administrative_area_level_1",
            "political"
          ]
        },
        {
          "long_name": "United States",
          "short_name": "US",
          "types": [
            "country",
            "political"
          ]
        }
      ],
      "formatted_address": "Cedar, MI 49621, USA",
      "geometry": {
        "bounds": {
          "northeast": {
            "lat": 44.957018,
            "lng": -85.6512949
          },
          "southwest": {
            "lat": 44.7746659,
            "lng": -85.87411589999999
          }
        },
        "location": {
          "lat": 44.8665034,
          "lng": -85.78716630000001
        },
        "location_type": "APPROXIMATE",
        "viewport": {
          "northeast": {
            "lat": 44.957018,
            "lng": -85.6512949
          },
          "southwest": {
            "lat": 44.7746659,
            "lng": -85.87411589999999
          }
        }
      },
      "place_id": "ChIJl67fGhomHogRHUKma0ERlB0",
      "types": [
        "postal_code"
      ]
    },
    {
      "address_components": [
        {
          "long_name": "Traverse City",
          "short_name": "Traverse City",
          "types": [
            "political"
          ]
        },
        {
          "long_name": "Michigan",
          "short_name": "MI",
          "types": [
            "administrative_area_level_1",
            "political"
          ]
        },
        {
          "long_name": "United States",
          "short_name": "US",
          "types": [
            "country",
            "political"
          ]
        }
      ],
      "formatted_address": "Traverse City, MI, USA",
      "geometry": {
        "bounds": {
          "northeast": {
            "lat": 45.210742,
            "lng": -84.84691889999999
          },
          "southwest": {
            "lat": 44.51027999999999,
            "lng": -86.25902900000001
          }
        },
        "location": {
          "lat": 44.6813986,
          "lng": -85.35496499999999
        },
        "location_type": "APPROXIMATE",
        "viewport": {
          "northeast": {
            "lat": 45.210742,
            "lng": -84.84691889999999
          },
          "southwest": {
            "lat": 44.51027999999999,
            "lng": -86.25902900000001
          }
        }
      },
      "place_id": "ChIJLZYtjU3MH4gRLksbSG2hTE0",
      "types": [
        "political"
      ]
    },
    {
      "address_components": [
        {
          "long_name": "Leelanau County",
          "short_name": "Leelanau County",
          "types": [
            "administrative_area_level_2",
            "political"
          ]
        },
        {
          "long_name": "Michigan",
          "short_name": "MI",
          "types": [
            "administrative_area_level_1",
            "political"
          ]
        },
        {
          "long_name": "United States",
          "short_name": "US",
          "types": [
            "country",
            "political"
          ]
        }
      ],
      "formatted_address": "Leelanau County, MI, USA",
      "geometry": {
        "bounds": {
          "northeast": {
            "lat": 45.4914035,
            "lng": -85.52698769999999
          },
          "southwest": {
            "lat": 44.774431,
            "lng": -86.15609180000001
          }
        },
        "location": {
          "lat": 45.0821226,
          "lng": -86.07336339999999
        },
        "location_type": "APPROXIMATE",
        "viewport": {
          "northeast": {
            "lat": 45.2111992,
            "lng": -85.52698769999999
          },
          "southwest": {
            "lat": 44.774431,
            "lng": -86.15609180000001
          }
        }
      },
      "place_id": "ChIJwQVFc8IyS00R-SPbq47jjxY",
      "types": [
        "administrative_area_level_2",
        "political"
      ]
    },
    {
      "address_components": [
        {
          "long_name": "Michigan",
          "short_name": "MI",
          "types": [
            "administrative_area_level_1",
            "political"
          ]
        },
        {
          "long_name": "United States",
          "short_name": "US",
          "types": [
            "country",
            "political"
          ]
        }
      ],
      "formatted_address": "Michigan, USA",
      "geometry": {
        "bounds": {
          "northeast": {
            "lat": 48.1986461,
            "lng": -82.413474
          },
          "southwest": {
            "lat": 41.696118,
            "lng": -90.4181358
          }
        },
        "location": {
          "lat": 44.3148443,
          "lng": -85.60236429999999
        },
        "location_type": "APPROXIMATE",
        "viewport": {
          "northeast": {
            "lat": 48.198602,
            "lng": -82.413474
          },
          "southwest": {
            "lat": 41.696118,
            "lng": -90.4181358
          }
        }
      },
      "place_id": "ChIJEQTKxz2qTE0Rs8liellI3Zc",
      "types": [
        "administrative_area_level_1",
        "political"
      ]
    },
    {
      "address_components": [
        {
          "long_name": "United States",
          "short_name": "US",
          "types": [
            "country",
            "political"
          ]
        }
      ],
      "formatted_address": "United States",
      "geometry": {
        "bounds": {
          "northeast": {
            "lat": 71.3867745,
            "lng": -66.9502861
          },
          "southwest": {
            "lat": 18.9106768,
            "lng": 172.4458955
          }
        },
        "location": {
          "lat": 37.09024,
          "lng": -95.712891
        },
        "location_type": "APPROXIMATE",
        "viewport": {
          "northeast": {
            "lat": 49.38,
            "lng": -66.94
          },
          "southwest": {
            "lat": 25.82,
            "lng": -124.39
          }
        }
      },
      "place_id": "ChIJCzYy5IS16lQRQrfeQ5K5Oxw",
      "types": [
        "country",
        "political"
      ]
    }
  ],
  "status": "OK"
}
