{
  "results": [
    {
      "address_components": [
        {
          "long_name": "309",
          "short_name": "309",
          "types": [
            "street_number"
          ]
        },
        {
          "long_name": "West Pickrell Road",
          "short_name": "W Pickrell Rd",
          "types": [
            "route"
          ]
        },
        {
          "long_name": "Pickrell",
          "short_name": "Pickrell",
          "types": [
            "locality",
            "political"
          ]
        },
        {
          "long_name": "Holt",
          "short_name": "Holt",
          "types": [
            "administrative_area_level_3",
            "political"
          ]
        },
        {
          "long_name": "Gage County",
          "short_name": "Gage County",
          "types": [
            "administrative_area_level_2",
            "political"
          ]
        },
        {
          "long_name": "Nebraska",
          "short_name": "NE",
          "types": [
            "administrative_area_level_1",
            "political"
          ]
        },
        {
          "long_name": "United States",
          "short_name": "US",
          "types": [
            "country",
            "political"
          ]
        },
        {
          "long_name": "68422",
          "short_name": "68422",
          "types": [
            "postal_code"
          ]
        }
      ],
      "formatted_address": "309 W Pickrell Rd, Pickrell, NE 68422, USA",
      "geometry": {
        "location": {
          "lat": 40.3782869,
          "lng": -96.7292693
        },
        "location_type": "ROOFTOP",
        "viewport": {
          "northeast": {
            "lat": 40.3796358802915,
            "lng": -96.7279203197085
          },
          "southwest": {
            "lat": 40.3769379197085,
            "lng": -96.73061828029151
          }
        }
      },
      "place_id": "ChIJD9DOX5VglocRXG1IbGuc1DY",
      "types": [
        "street_address"
      ]
    },
    {
      "address_components": [
        {
          "long_name": "Pickrell",
          "short_name": "Pickrell",
          "types": [
            "locality",
            "political"
          ]
        },
        {
          "long_name": "Holt",
          "short_name": "Holt",
          "types": [
            "administrative_area_level_3",
            "political"
          ]
        },
        {
          "long_name": "Gage County",
          "short_name": "Gage County",
          "types": [
            "administrative_area_level_2",
            "political"
          ]
        },
        {
          "long_name": "Nebraska",
          "short_name": "NE",
          "types": [
            "administrative_area_level_1",
            "political"
          ]
        },
        {
          "long_name": "United States",
          "short_name": "US",
          "types": [
            "country",
            "political"
          ]
        },
        {
          "long_name": "68422",
          "short_name": "68422",
          "types": [
            "postal_code"
          ]
        }
      ],
      "formatted_address": "Pickrell, NE 68422, USA",
      "geometry": {
        "bounds": {
          "northeast": {
            "lat": 40.38180510000001,
            "lng": -96.7257141
          },
          "southwest": {
            "lat": 40.375495,
            "lng": -96.7327899
          }
        },
        "location": {
          "lat": 40.3786119,
          "lng": -96.7286354
        },
        "location_type": "APPROXIMATE",
        "viewport": {
          "northeast": {
            "lat": 40.38180510000001,
            "lng": -96.7257141
          },
          "southwest": {
            "lat": 40.375495,
            "lng": -96.7327899
          }
        }
      },
      "place_id": "ChIJ97plYJVglocREfjAvhaIDB4",
      "types": [
        "locality",
        "political"
      ]
    },
    {
      "address_components": [
        {
          "long_name": "Holt",
          "short_name": "Holt",
          "types": [
            "administrative_area_level_3",
            "political"
          ]
        },
        {
          "long_name": "Gage County",
          "short_name": "Gage County",
          "types": [
            "administrative_area_level_2",
            "political"
          ]
        },
        {
          "long_name": "Nebraska",
          "short_name": "NE",
          "types": [
            "administrative_area_level_1",
            "political"
          ]
        },
        {
          "long_name": "United States",
          "short_name": "US",
          "types": [
            "country",
            "political"
          ]
        }
      ],
      "formatted_address": "Holt, NE, USA",
      "geometry": {
        "bounds": {
          "northeast": {
            "lat": 40.436506,
            "lng": -96.68545979999999
          },
          "southwest": {
            "lat": 40.3493799,
            "lng": -96.7995979
          }
        },
        "location": {
          "lat": 40.3782301,
          "lng": -96.7279918
        },
        "location_type": "APPROXIMATE",
        "viewport": {
          "northeast": {
            "lat": 40.436506,
            "lng": -96.68545979999999
          },
          "southwest": {
            "lat": 40.3493799,
            "lng": -96.7995979
          }
        }
      },
      "place_id": "ChIJN8grmYZglocR6qWxd55FgPo",
      "types": [
        "administrative_area_level_3",
        "political"
      ]
    },
    {
      "address_components": [
        {
          "long_name": "68422",
          "short_name": "68422",
          "types": [
            "postal_code"
          ]
        },
        {
          "long_name": "Pickrell",
          "short_name": "Pickrell",
          "types": [
            "locality",
            "political"
          ]
        },
        {
          "long_name": "Gage County",
          "short_name": "Gage County",
          "types": [
            "administrative_area_level_2",
            "political"
          ]
        },
        {
          "long_name": "Nebraska",
          "short_name": "NE",
          "types": [
            "administrative_area_level_1",
            "political"
          ]
        },
        {
          "long_name": "United States",
          "short_name": "US",
          "types": [
            "country",
            "political"
          ]
        }
      ],
      "formatted_address": "Pickrell, NE 68422, USA",
      "geometry": {
        "bounds": {
          "northeast": {
            "lat": 40.4435298,
            "lng": -96.5580899
          },
          "southwest": {
            "lat": 40.3203929,
            "lng": -96.81850589999999
          }
        },
        "location": {
          "lat": 40.3902467,
          "lng": -96.6958939
        },
        "location_type": "APPROXIMATE",
        "viewport": {
          "northeast": {
            "lat": 40.4435298,
            "lng": -96.5580899
          },
          "southwest": {
            "lat": 40.3203929,
            "lng": -96.81850589999999
          }
        }
      },
      "place_id": "ChIJYURUXSJglocRmT6BRjcVE0Q",
      "types": [
        "postal_code"
      ]
    },
    {
      "address_components": [
        {
          "long_name": "Gage County",
          "short_name": "Gage County",
          "types": [
            "administrative_area_level_2",
            "political"
          ]
        },
        {
          "long_name": "Nebraska",
          "short_name": "NE",
          "types": [
            "administrative_area_level_1",
            "political"
          ]
        },
        {
          "long_name": "United States",
          "short_name": "US",
          "types": [
            "country",
            "political"
          ]
        }
      ],
      "formatted_address": "Gage County, NE, USA",
      "geometry": {
        "bounds": {
          "northeast": {
            "lat": 40.5238279,
            "lng": -96.4632681
          },
          "southwest": {
            "lat": 40.000841,
            "lng": -96.91694799999999
          }
        },
        "location": {
          "lat": 40.1989041,
          "lng": -96.663812
        },
        "location_type": "APPROXIMATE",
        "viewport": {
          "northeast": {
            "lat": 40.5238279,
            "lng": -96.4632681
          },
          "southwest": {
            "lat": 40.000841,
            "lng": -96.91694799999999
          }
        }
      },
      "place_id": "ChIJTY5Y3B1klocRN8Vm--9EoCg",
      "types": [
        "administrative_area_level_2",
        "political"
      ]
    },
    {
      "address_components": [
        {
          "long_name": "Beatrice",
          "short_name": "Beatrice",
          "types": [
            "political"
          ]
        },
        {
          "long_name": "United States",
          "short_name": "US",
          "types": [
            "country",
            "political"
          ]
        }
      ],
      "formatted_address": "Beatrice, USA",
      "geometry": {
        "bounds": {
          "northeast": {
            "lat": 40.52368209999999,
            "lng": -96.463263
          },
          "southwest": {
            "lat": 40.000851,
            "lng": -96.91668899999999
          }
        },
        "location": {
          "lat": 40.1989041,
          "lng": -96.663812
        },
        "location_type": "APPROXIMATE",
        "viewport": {
          "northeast": {
            "lat": 40.52368209999999,
            "lng": -96.463263
          },
          "southwest": {
            "lat": 40.000851,
            "lng": -96.91668899999999
          }
        }
      },
      "place_id": "ChIJU9G2Z5RolocRHirJQxTJGOI",
      "types": [
        "political"
      ]
    },
    {
      "address_components": [
        {
          "long_name": "Nebraska",
          "short_name": "NE",
          "types": [
            "administrative_area_level_1",
            "political"
          ]
        },
        {
          "long_name": "United States",
          "short_name": "US",
          "types": [
            "country",
            "political"
          ]
        }
      ],
      "formatted_address": "Nebraska, USA",
      "geometry": {
        "bounds": {
          "northeast": {
            "lat": 43.00170689999999,
            "lng": -95.30829000000001
          },
          "southwest": {
            "lat": 39.999932,
            "lng": -104.053514
          }
        },
        "location": {
          "lat": 41.4925374,
          "lng": -99.9018131
        },
        "location_type": "APPROXIMATE",
        "viewport": {
          "northeast": {
            "lat": 43.00170689999999,
            "lng": -95.30829000000001
          },
          "southwest": {
            "lat": 39.999932,
            "lng": -104.053514
          }
        }
      },
      "place_id": "ChIJ7fwMtciNk4cRxArzDwyQJ6E",
      "types": [
        "administrative_area_level_1",
        "political"
      ]
    },
    {
      "address_components": [
        {
          "long_name": "United States",
          "short_name": "US",
          "types": [
            "country",
            "political"
          ]
        }
      ],
      "formatted_address": "United States",
      "geometry": {
        "bounds": {
          "northeast": {
            "lat": 71.3867745,
            "lng": -66.9502861
          },
          "southwest": {
            "lat": 18.9106768,
            "lng": 172.4458955
          }
        },
        "location": {
          "lat": 37.09024,
          "lng": -95.712891
        },
        "location_type": "APPROXIMATE",
        "viewport": {
          "northeast": {
            "lat": 49.38,
            "lng": -66.94
          },
          "southwest": {
            "lat": 25.82,
            "lng": -124.39
          }
        }
      },
      "place_id": "ChIJCzYy5IS16lQRQrfeQ5K5Oxw",
      "types": [
        "country",
        "political"
      ]
    }
  ],
  "status": "OK"
}
