{
  "results": [
    {
      "address_components": [
        {
          "long_name": "3424",
          "short_name": "3424",
          "types": [
            "street_number"
          ]
        },
        {
          "long_name": "Great Neck Road",
          "short_name": "Great Neck Rd",
          "types": [
            "route"
          ]
        },
        {
          "long_name": "Amityville",
          "short_name": "Amityville",
          "types": [
            "locality",
            "political"
          ]
        },
        {
          "long_name": "Babylon",
          "short_name": "Babylon",
          "types": [
            "administrative_area_level_3",
            "political"
          ]
        },
        {
          "long_name": "Suffolk County",
          "short_name": "Suffolk County",
          "types": [
            "administrative_area_level_2",
            "political"
          ]
        },
        {
          "long_name": "New York",
          "short_name": "NY",
          "types": [
            "administrative_area_level_1",
            "political"
          ]
        },
        {
          "long_name": "United States",
          "short_name": "US",
          "types": [
            "country",
            "political"
          ]
        },
        {
          "long_name": "11701",
          "short_name": "11701",
          "types": [
            "postal_code"
          ]
        },
        {
          "long_name": "1906",
          "short_name": "1906",
          "types": [
            "postal_code_suffix"
          ]
        }
      ],
      "formatted_address": "3424 Great Neck Rd, Amityville, NY 11701, USA",
      "geometry": {
        "location": {
          "lat": 40.700543,
          "lng": -73.411933
        },
        "location_type": "ROOFTOP",
        "viewport": {
          "northeast": {
            "lat": 40.7018919802915,
            "lng": -73.41058401970851
          },
          "southwest": {
            "lat": 40.6991940197085,
            "lng": -73.41328198029152
          }
        }
      },
      "place_id": "ChIJ6d7YJtrU6YkRQpSuI26Iozo",
      "types": [
        "street_address"
      ]
    },
    {
      "address_components": [
        {
          "long_name": "North Amityville",
          "short_name": "North Amityville",
          "types": [
            "locality",
            "political"
          ]
        },
        {
          "long_name": "Babylon",
          "short_name": "Babylon",
          "types": [
            "administrative_area_level_3",
            "political"
          ]
        },
        {
          "long_name": "Suffolk County",
          "short_name": "Suffolk County",
          "types": [
            "administrative_area_level_2",
            "political"
          ]
        },
        {
          "long_name": "New York",
          "short_name": "NY",
          "types": [
            "administrative_area_level_1",
            "political"
          ]
        },
        {
          "long_name": "United States",
          "short_name": "US",
          "types": [
            "country",
            "political"
          ]
        }
      ],
      "formatted_address": "North Amityville, NY, USA",
      "geometry": {
        "bounds": {
          "northeast": {
            "lat": 40.7181407,
            "lng": -73.3945512
          },
          "southwest": {
            "lat": 40.6872919,
            "lng": -73.4311582
          }
        },
        "location": {
          "lat": 40.6988709,
          "lng": -73.4098154
        },
        "location_type": "APPROXIMATE",
        "viewport": {
          "northeast": {
            "lat": 40.7181407,
            "lng": -73.3945512
          },
          "southwest": {
            "lat": 40.6872919,
            "lng": -73.4311582
          }
        }
      },
      "place_id": "ChIJ92Q6t8jU6YkR4QVK9G0yD0w",
      "types": [
        "locality",
        "political"
      ]
    },
    {
      "address_components": [
        {
          "long_name": "11701",
          "short_name": "11701",
          "types": [
            "postal_code"
          ]
        },
        {
          "long_name": "Amityville",
          "short_name": "Amityville",
          "types": [
            "locality",
            "political"
          ]
        },
        {
          "long_name": "New York",
          "short_name": "NY",
          "types": [
            "administrative_area_level_1",
            "political"
          ]
        },
        {
          "long_name": "United States",
          "short_name": "US",
          "types": [
            "country",
            "political"
          ]
        }
      ],
      "formatted_address": "Amityville, NY 11701, USA",
      "geometry": {
        "bounds": {
          "northeast": {
            "lat": 40.71791289999999,
            "lng": -73.3916591
          },
          "southwest": {
            "lat": 40.6516001,
            "lng": -73.4298989
          }
        },
        "location": {
          "lat": 40.66761049999999,
          "lng": -73.4121277
        },
        "location_type": "APPROXIMATE",
        "viewport": {
          "northeast": {
            "lat": 40.71791289999999,
            "lng": -73.3916591
          },
          "southwest": {
            "lat": 40.6516001,
            "lng": -73.4298989
          }
        }
      },
      "place_id": "ChIJWeGOYuTU6YkRS6yl9OYjcEM",
      "types": [
        "postal_code"
      ]
    },
    {
      "address_components": [
        {
          "long_name": "Babylon",
          "short_name": "Babylon",
          "types": [
            "administrative_area_level_3",
            "political"
          ]
        },
        {
          "long_name": "Suffolk County",
          "short_name": "Suffolk County",
          "types": [
            "administrative_area_level_2",
            "political"
          ]
        },
        {
          "long_name": "New York",
          "short_name": "NY",
          "types": [
            "administrative_area_level_1",
            "political"
          ]
        },
        {
          "long_name": "United States",
          "short_name": "US",
          "types": [
            "country",
            "political"
          ]
        }
      ],
      "formatted_address": "Babylon, NY, USA",
      "geometry": {
        "bounds": {
          "northeast": {
            "lat": 40.7842969,
            "lng": -73.2635619
          },
          "southwest": {
            "lat": 40.6094168,
            "lng": -73.4384999
          }
        },
        "location": {
          "lat": 40.6432284,
          "lng": -73.3472901
        },
        "location_type": "APPROXIMATE",
        "viewport": {
          "northeast": {
            "lat": 40.7842969,
            "lng": -73.2635619
          },
          "southwest": {
            "lat": 40.6094168,
            "lng": -73.4384999
          }
        }
      },
      "place_id": "ChIJ_V4T6KnT6YkR7p8spOZchh0",
      "types": [
        "administrative_area_level_3",
        "political"
      ]
    },
    {
      "address_components": [
        {
          "long_name": "Suffolk County",
          "short_name": "Suffolk County",
          "types": [
            "administrative_area_level_2",
            "political"
          ]
        },
        {
          "long_name": "New York",
          "short_name": "NY",
          "types": [
            "administrative_area_level_1",
            "political"
          ]
        },
        {
          "long_name": "United States",
          "short_name": "US",
          "types": [
            "country",
            "political"
          ]
        }
      ],
      "formatted_address": "Suffolk County, NY, USA",
      "geometry": {
        "bounds": {
          "northeast": {
            "lat": 41.2923797,
            "lng": -71.8562082
          },
          "southwest": {
            "lat": 40.6094203,
            "lng": -73.497125
          }
        },
        "location": {
          "lat": 40.9848784,
          "lng": -72.61511689999999
        },
        "location_type": "APPROXIMATE",
        "viewport": {
          "northeast": {
            "lat": 41.2923194,
            "lng": -71.8562082
          },
          "southwest": {
            "lat": 40.6094203,
            "lng": -73.497125
          }
        }
      },
      "place_id": "ChIJ1_mbyICu4IkRU18dDUkMxJU",
      "types": [
        "administrative_area_level_2",
        "political"
      ]
    },
    {
      "address_components": [
        {
          "long_name": "New York",
          "short_name": "NY",
          "types": [
            "administrative_area_level_1",
            "political"
          ]
        },
        {
          "long_name": "United States",
          "short_name": "US",
          "types": [
            "country",
            "political"
          ]
        }
      ],
      "formatted_address": "New York, USA",
      "geometry": {
        "bounds": {
          "northeast": {
            "lat": 45.015865,
            "lng": -71.85620639999999
          },
          "southwest": {
            "lat": 40.496091,
            "lng": -79.76214379999999
          }
        },
        "location": {
          "lat": 43.2994285,
          "lng": -74.21793260000001
        },
        "location_type": "APPROXIMATE",
        "viewport": {
          "northeast": {
            "lat": 45.015859,
            "lng": -71.85620639999999
          },
          "southwest": {
            "lat": 40.496091,
            "lng": -79.76214379999999
          }
        }
      },
      "place_id": "ChIJqaUj8fBLzEwRZ5UY3sHGz90",
      "types": [
        "administrative_area_level_1",
        "political"
      ]
    },
    {
      "address_components": [
        {
          "long_name": "United States",
          "short_name": "US",
          "types": [
            "country",
            "political"
          ]
        }
      ],
      "formatted_address": "United States",
      "geometry": {
        "bounds": {
          "northeast": {
            "lat": 71.3867745,
            "lng": -66.9502861
          },
          "southwest": {
            "lat": 18.9106768,
            "lng": 172.4458955
          }
        },
        "location": {
          "lat": 37.09024,
          "lng": -95.712891
        },
        "location_type": "APPROXIMATE",
        "viewport": {
          "northeast": {
            "lat": 49.38,
            "lng": -66.94
          },
          "southwest": {
            "lat": 25.82,
            "lng": -124.39
          }
        }
      },
      "place_id": "ChIJCzYy5IS16lQRQrfeQ5K5Oxw",
      "types": [
        "country",
        "political"
      ]
    }
  ],
  "status": "OK"
}
