{
  "results": [
    {
      "address_components": [
        {
          "long_name": "12829",
          "short_name": "12829",
          "types": [
            "street_number"
          ]
        },
        {
          "long_name": "Indiana 56",
          "short_name": "IN-56",
          "types": [
            "route"
          ]
        },
        {
          "long_name": "Vevay",
          "short_name": "Vevay",
          "types": [
            "locality",
            "political"
          ]
        },
        {
          "long_name": "Cotton Township",
          "short_name": "Cotton Township",
          "types": [
            "administrative_area_level_3",
            "political"
          ]
        },
        {
          "long_name": "Switzerland County",
          "short_name": "Switzerland County",
          "types": [
            "administrative_area_level_2",
            "political"
          ]
        },
        {
          "long_name": "Indiana",
          "short_name": "IN",
          "types": [
            "administrative_area_level_1",
            "political"
          ]
        },
        {
          "long_name": "United States",
          "short_name": "US",
          "types": [
            "country",
            "political"
          ]
        },
        {
          "long_name": "47043",
          "short_name": "47043",
          "types": [
            "postal_code"
          ]
        },
        {
          "long_name": "2755",
          "short_name": "2755",
          "types": [
            "postal_code_suffix"
          ]
        }
      ],
      "formatted_address": "12829 IN-56, Vevay, IN 47043, USA",
      "geometry": {
        "location": {
          "lat": 38.870052,
          "lng": -84.98861
        },
        "location_type": "ROOFTOP",
        "viewport": {
          "northeast": {
            "lat": 38.8714009802915,
            "lng": -84.98726101970848
          },
          "southwest": {
            "lat": 38.86870301970851,
            "lng": -84.9899589802915
          }
        }
      },
      "place_id": "ChIJSf8YYi8LaogRL5qUM9qS_QI",
      "types": [
        "street_address"
      ]
    },
    {
      "address_components": [
        {
          "long_name": "East Enterprise",
          "short_name": "East Enterprise",
          "types": [
            "locality",
            "political"
          ]
        },
        {
          "long_name": "Cotton Township",
          "short_name": "Cotton Township",
          "types": [
            "administrative_area_level_3",
            "political"
          ]
        },
        {
          "long_name": "Switzerland County",
          "short_name": "Switzerland County",
          "types": [
            "administrative_area_level_2",
            "political"
          ]
        },
        {
          "long_name": "Indiana",
          "short_name": "IN",
          "types": [
            "administrative_area_level_1",
            "political"
          ]
        },
        {
          "long_name": "United States",
          "short_name": "US",
          "types": [
            "country",
            "political"
          ]
        }
      ],
      "formatted_address": "East Enterprise, IN, USA",
      "geometry": {
        "bounds": {
          "northeast": {
            "lat": 38.87749489999999,
            "lng": -84.980267
          },
          "southwest": {
            "lat": 38.865351,
            "lng": -84.99709
          }
        },
        "location": {
          "lat": 38.8727772,
          "lng": -84.98806789999999
        },
        "location_type": "APPROXIMATE",
        "viewport": {
          "northeast": {
            "lat": 38.87749489999999,
            "lng": -84.980267
          },
          "southwest": {
            "lat": 38.865351,
            "lng": -84.99709
          }
        }
      },
      "place_id": "ChIJL2nxOcwKaogR9U-23w8IViY",
      "types": [
        "locality",
        "political"
      ]
    },
    {
      "address_components": [
        {
          "long_name": "Cotton Township",
          "short_name": "Cotton Township",
          "types": [
            "administrative_area_level_3",
            "political"
          ]
        },
        {
          "long_name": "Switzerland County",
          "short_name": "Switzerland County",
          "types": [
            "administrative_area_level_2",
            "political"
          ]
        },
        {
          "long_name": "Indiana",
          "short_name": "IN",
          "types": [
            "administrative_area_level_1",
            "political"
          ]
        },
        {
          "long_name": "United States",
          "short_name": "US",
          "types": [
            "country",
            "political"
          ]
        }
      ],
      "formatted_address": "Cotton Township, IN, USA",
      "geometry": {
        "bounds": {
          "northeast": {
            "lat": 38.903011,
            "lng": -84.931107
          },
          "southwest": {
            "lat": 38.8435488,
            "lng": -85.100072
          }
        },
        "location": {
          "lat": 38.8710199,
          "lng": -85.01295089999999
        },
        "location_type": "APPROXIMATE",
        "viewport": {
          "northeast": {
            "lat": 38.903011,
            "lng": -84.931107
          },
          "southwest": {
            "lat": 38.8435488,
            "lng": -85.100072
          }
        }
      },
      "place_id": "ChIJwR39_1ALaogRrbNEb07deXM",
      "types": [
        "administrative_area_level_3",
        "political"
      ]
    },
    {
      "address_components": [
        {
          "long_name": "47043",
          "short_name": "47043",
          "types": [
            "postal_code"
          ]
        },
        {
          "long_name": "Vevay",
          "short_name": "Vevay",
          "types": [
            "locality",
            "political"
          ]
        },
        {
          "long_name": "Indiana",
          "short_name": "IN",
          "types": [
            "administrative_area_level_1",
            "political"
          ]
        },
        {
          "long_name": "United States",
          "short_name": "US",
          "types": [
            "country",
            "political"
          ]
        }
      ],
      "formatted_address": "Vevay, IN 47043, USA",
      "geometry": {
        "bounds": {
          "northeast": {
            "lat": 38.928937,
            "lng": -84.91617
          },
          "southwest": {
            "lat": 38.6875468,
            "lng": -85.2462829
          }
        },
        "location": {
          "lat": 38.781935,
          "lng": -85.1271907
        },
        "location_type": "APPROXIMATE",
        "viewport": {
          "northeast": {
            "lat": 38.928937,
            "lng": -84.91617
          },
          "southwest": {
            "lat": 38.6875468,
            "lng": -85.2462829
          }
        }
      },
      "place_id": "ChIJ6RLIReANaogR49GsFLcZeHc",
      "types": [
        "postal_code"
      ]
    },
    {
      "address_components": [
        {
          "long_name": "Switzerland County",
          "short_name": "Switzerland County",
          "types": [
            "administrative_area_level_2",
            "political"
          ]
        },
        {
          "long_name": "Indiana",
          "short_name": "IN",
          "types": [
            "administrative_area_level_1",
            "political"
          ]
        },
        {
          "long_name": "United States",
          "short_name": "US",
          "types": [
            "country",
            "political"
          ]
        }
      ],
      "formatted_address": "Switzerland County, IN, USA",
      "geometry": {
        "bounds": {
          "northeast": {
            "lat": 38.929578,
            "lng": -84.784662
          },
          "southwest": {
            "lat": 38.687479,
            "lng": -85.2036059
          }
        },
        "location": {
          "lat": 38.8419394,
          "lng": -85.0649071
        },
        "location_type": "APPROXIMATE",
        "viewport": {
          "northeast": {
            "lat": 38.929578,
            "lng": -84.784662
          },
          "southwest": {
            "lat": 38.687479,
            "lng": -85.2036059
          }
        }
      },
      "place_id": "ChIJIQwQJo0LaogR9qLaVhVAGNw",
      "types": [
        "administrative_area_level_2",
        "political"
      ]
    },
    {
      "address_components": [
        {
          "long_name": "Indiana",
          "short_name": "IN",
          "types": [
            "administrative_area_level_1",
            "political"
          ]
        },
        {
          "long_name": "United States",
          "short_name": "US",
          "types": [
            "country",
            "political"
          ]
        }
      ],
      "formatted_address": "Indiana, USA",
      "geometry": {
        "bounds": {
          "northeast": {
            "lat": 41.7606971,
            "lng": -84.784662
          },
          "southwest": {
            "lat": 37.7717419,
            "lng": -88.097892
          }
        },
        "location": {
          "lat": 40.2671941,
          "lng": -86.1349019
        },
        "location_type": "APPROXIMATE",
        "viewport": {
          "northeast": {
            "lat": 41.7606971,
            "lng": -84.784662
          },
          "southwest": {
            "lat": 37.7717419,
            "lng": -88.097892
          }
        }
      },
      "place_id": "ChIJHRv42bxQa4gRcuwyy84vEH4",
      "types": [
        "administrative_area_level_1",
        "political"
      ]
    },
    {
      "address_components": [
        {
          "long_name": "United States",
          "short_name": "US",
          "types": [
            "country",
            "political"
          ]
        }
      ],
      "formatted_address": "United States",
      "geometry": {
        "bounds": {
          "northeast": {
            "lat": 71.3867745,
            "lng": -66.9502861
          },
          "southwest": {
            "lat": 18.9106768,
            "lng": 172.4458955
          }
        },
        "location": {
          "lat": 37.09024,
          "lng": -95.712891
        },
        "location_type": "APPROXIMATE",
        "viewport": {
          "northeast": {
            "lat": 49.38,
            "lng": -66.94
          },
          "southwest": {
            "lat": 25.82,
            "lng": -124.39
          }
        }
      },
      "place_id": "ChIJCzYy5IS16lQRQrfeQ5K5Oxw",
      "types": [
        "country",
        "political"
      ]
    }
  ],
  "status": "OK"
}
