{
  "results": [
    {
      "address_components": [
        {
          "long_name": "500-508",
          "short_name": "500-508",
          "types": [
            "street_number"
          ]
        },
        {
          "long_name": "Broadway Street",
          "short_name": "Broadway St",
          "types": [
            "route"
          ]
        },
        {
          "long_name": "East Lynne",
          "short_name": "East Lynne",
          "types": [
            "locality",
            "political"
          ]
        },
        {
          "long_name": "Camp Branch Township",
          "short_name": "Camp Branch Township",
          "types": [
            "administrative_area_level_3",
            "political"
          ]
        },
        {
          "long_name": "Cass County",
          "short_name": "Cass County",
          "types": [
            "administrative_area_level_2",
            "political"
          ]
        },
        {
          "long_name": "Missouri",
          "short_name": "MO",
          "types": [
            "administrative_area_level_1",
            "political"
          ]
        },
        {
          "long_name": "United States",
          "short_name": "US",
          "types": [
            "country",
            "political"
          ]
        },
        {
          "long_name": "64743",
          "short_name": "64743",
          "types": [
            "postal_code"
          ]
        }
      ],
      "formatted_address": "500-508 Broadway St, East Lynne, MO 64743, USA",
      "geometry": {
        "bounds": {
          "northeast": {
            "lat": 38.6685139,
            "lng": -94.2301962
          },
          "southwest": {
            "lat": 38.6684963,
            "lng": -94.23111
          }
        },
        "location": {
          "lat": 38.6684911,
          "lng": -94.23068909999999
        },
        "location_type": "RANGE_INTERPOLATED",
        "viewport": {
          "northeast": {
            "lat": 38.6698540802915,
            "lng": -94.2293041197085
          },
          "southwest": {
            "lat": 38.6671561197085,
            "lng": -94.23200208029151
          }
        }
      },
      "place_id": "Ei41MDAtNTA4IEJyb2Fkd2F5IFN0LCBFYXN0IEx5bm5lLCBNTyA2NDc0MywgVVNB",
      "types": [
        "street_address"
      ]
    },
    {
      "address_components": [
        {
          "long_name": "East Lynne",
          "short_name": "East Lynne",
          "types": [
            "locality",
            "political"
          ]
        },
        {
          "long_name": "Camp Branch Township",
          "short_name": "Camp Branch Township",
          "types": [
            "administrative_area_level_3",
            "political"
          ]
        },
        {
          "long_name": "Cass County",
          "short_name": "Cass County",
          "types": [
            "administrative_area_level_2",
            "political"
          ]
        },
        {
          "long_name": "Missouri",
          "short_name": "MO",
          "types": [
            "administrative_area_level_1",
            "political"
          ]
        },
        {
          "long_name": "United States",
          "short_name": "US",
          "types": [
            "country",
            "political"
          ]
        }
      ],
      "formatted_address": "East Lynne, MO, USA",
      "geometry": {
        "bounds": {
          "northeast": {
            "lat": 38.67179489999999,
            "lng": -94.221797
          },
          "southwest": {
            "lat": 38.66377,
            "lng": -94.240932
          }
        },
        "location": {
          "lat": 38.6683448,
          "lng": -94.2293897
        },
        "location_type": "APPROXIMATE",
        "viewport": {
          "northeast": {
            "lat": 38.67179489999999,
            "lng": -94.221797
          },
          "southwest": {
            "lat": 38.66377,
            "lng": -94.240932
          }
        }
      },
      "place_id": "ChIJU6-TYPwxwYcR0w5nd6y0yxY",
      "types": [
        "locality",
        "political"
      ]
    },
    {
      "address_components": [
        {
          "long_name": "64743",
          "short_name": "64743",
          "types": [
            "postal_code"
          ]
        },
        {
          "long_name": "East Lynne",
          "short_name": "East Lynne",
          "types": [
            "locality",
            "political"
          ]
        },
        {
          "long_name": "Camp Branch Township",
          "short_name": "Camp Branch Township",
          "types": [
            "administrative_area_level_3",
            "political"
          ]
        },
        {
          "long_name": "Cass County",
          "short_name": "Cass County",
          "types": [
            "administrative_area_level_2",
            "political"
          ]
        },
        {
          "long_name": "Missouri",
          "short_name": "MO",
          "types": [
            "administrative_area_level_1",
            "political"
          ]
        },
        {
          "long_name": "United States",
          "short_name": "US",
          "types": [
            "country",
            "political"
          ]
        }
      ],
      "formatted_address": "East Lynne, MO 64743, USA",
      "geometry": {
        "bounds": {
          "northeast": {
            "lat": 38.67179489999999,
            "lng": -94.22535599999999
          },
          "southwest": {
            "lat": 38.666471,
            "lng": -94.2346129
          }
        },
        "location": {
          "lat": 38.66973369999999,
          "lng": -94.2294908
        },
        "location_type": "APPROXIMATE",
        "viewport": {
          "northeast": {
            "lat": 38.67179489999999,
            "lng": -94.22535599999999
          },
          "southwest": {
            "lat": 38.666471,
            "lng": -94.2346129
          }
        }
      },
      "place_id": "ChIJ652DzPYxwYcRb5TPPQ9sd4g",
      "types": [
        "postal_code"
      ]
    },
    {
      "address_components": [
        {
          "long_name": "Camp Branch Township",
          "short_name": "Camp Branch Township",
          "types": [
            "administrative_area_level_3",
            "political"
          ]
        },
        {
          "long_name": "Cass County",
          "short_name": "Cass County",
          "types": [
            "administrative_area_level_2",
            "political"
          ]
        },
        {
          "long_name": "Missouri",
          "short_name": "MO",
          "types": [
            "administrative_area_level_1",
            "political"
          ]
        },
        {
          "long_name": "United States",
          "short_name": "US",
          "types": [
            "country",
            "political"
          ]
        }
      ],
      "formatted_address": "Camp Branch Township, MO, USA",
      "geometry": {
        "bounds": {
          "northeast": {
            "lat": 38.704553,
            "lng": -94.182672
          },
          "southwest": {
            "lat": 38.5558599,
            "lng": -94.296431
          }
        },
        "location": {
          "lat": 38.6387593,
          "lng": -94.2538452
        },
        "location_type": "APPROXIMATE",
        "viewport": {
          "northeast": {
            "lat": 38.704553,
            "lng": -94.182672
          },
          "southwest": {
            "lat": 38.5558599,
            "lng": -94.296431
          }
        }
      },
      "place_id": "ChIJQQYNP48twYcR73sZ4OYbO0M",
      "types": [
        "administrative_area_level_3",
        "political"
      ]
    },
    {
      "address_components": [
        {
          "long_name": "Cass County",
          "short_name": "Cass County",
          "types": [
            "administrative_area_level_2",
            "political"
          ]
        },
        {
          "long_name": "Missouri",
          "short_name": "MO",
          "types": [
            "administrative_area_level_1",
            "political"
          ]
        },
        {
          "long_name": "United States",
          "short_name": "US",
          "types": [
            "country",
            "political"
          ]
        }
      ],
      "formatted_address": "Cass County, MO, USA",
      "geometry": {
        "bounds": {
          "northeast": {
            "lat": 38.8472069,
            "lng": -94.0643171
          },
          "southwest": {
            "lat": 38.445268,
            "lng": -94.61288189999999
          }
        },
        "location": {
          "lat": 38.6574448,
          "lng": -94.315422
        },
        "location_type": "APPROXIMATE",
        "viewport": {
          "northeast": {
            "lat": 38.8472069,
            "lng": -94.0643171
          },
          "southwest": {
            "lat": 38.445268,
            "lng": -94.61288189999999
          }
        }
      },
      "place_id": "ChIJ60VnSicnwYcRCxOFL2boo3I",
      "types": [
        "administrative_area_level_2",
        "political"
      ]
    },
    {
      "address_components": [
        {
          "long_name": "Kansas City",
          "short_name": "Kansas City",
          "types": [
            "political"
          ]
        },
        {
          "long_name": "United States",
          "short_name": "US",
          "types": [
            "country",
            "political"
          ]
        }
      ],
      "formatted_address": "Kansas City, USA",
      "geometry": {
        "bounds": {
          "northeast": {
            "lat": 39.788955,
            "lng": -93.477233
          },
          "southwest": {
            "lat": 38.026143,
            "lng": -95.5090159
          }
        },
        "location": {
          "lat": 39.0653602,
          "lng": -94.5624426
        },
        "location_type": "APPROXIMATE",
        "viewport": {
          "northeast": {
            "lat": 39.788955,
            "lng": -93.477233
          },
          "southwest": {
            "lat": 38.026143,
            "lng": -95.5090159
          }
        }
      },
      "place_id": "ChIJ5176R2TnwIcRX_TpnWkvgMk",
      "types": [
        "political"
      ]
    },
    {
      "address_components": [
        {
          "long_name": "Missouri",
          "short_name": "MO",
          "types": [
            "administrative_area_level_1",
            "political"
          ]
        },
        {
          "long_name": "United States",
          "short_name": "US",
          "types": [
            "country",
            "political"
          ]
        }
      ],
      "formatted_address": "Missouri, USA",
      "geometry": {
        "bounds": {
          "northeast": {
            "lat": 40.61364,
            "lng": -89.09949399999999
          },
          "southwest": {
            "lat": 35.9956829,
            "lng": -95.774704
          }
        },
        "location": {
          "lat": 37.9642529,
          "lng": -91.8318334
        },
        "location_type": "APPROXIMATE",
        "viewport": {
          "northeast": {
            "lat": 40.61364,
            "lng": -89.09949399999999
          },
          "southwest": {
            "lat": 35.9956829,
            "lng": -95.774704
          }
        }
      },
      "place_id": "ChIJfeMiSNXmwIcRcr1mBFnEW7U",
      "types": [
        "administrative_area_level_1",
        "political"
      ]
    },
    {
      "address_components": [
        {
          "long_name": "United States",
          "short_name": "US",
          "types": [
            "country",
            "political"
          ]
        }
      ],
      "formatted_address": "United States",
      "geometry": {
        "bounds": {
          "northeast": {
            "lat": 71.3867745,
            "lng": -66.9502861
          },
          "southwest": {
            "lat": 18.9106768,
            "lng": 172.4458955
          }
        },
        "location": {
          "lat": 37.09024,
          "lng": -95.712891
        },
        "location_type": "APPROXIMATE",
        "viewport": {
          "northeast": {
            "lat": 49.38,
            "lng": -66.94
          },
          "southwest": {
            "lat": 25.82,
            "lng": -124.39
          }
        }
      },
      "place_id": "ChIJCzYy5IS16lQRQrfeQ5K5Oxw",
      "types": [
        "country",
        "political"
      ]
    }
  ],
  "status": "OK"
}
