{
  "results": [
    {
      "address_components": [
        {
          "long_name": "500",
          "short_name": "500",
          "types": [
            "street_number"
          ]
        },
        {
          "long_name": "6th Street",
          "short_name": "6th St",
          "types": [
            "route"
          ]
        },
        {
          "long_name": "Bloomington",
          "short_name": "Bloomington",
          "types": [
            "locality",
            "political"
          ]
        },
        {
          "long_name": "East Bloomington",
          "short_name": "East Bloomington",
          "types": [
            "administrative_area_level_3",
            "political"
          ]
        },
        {
          "long_name": "Franklin County",
          "short_name": "Franklin County",
          "types": [
            "administrative_area_level_2",
            "political"
          ]
        },
        {
          "long_name": "Nebraska",
          "short_name": "NE",
          "types": [
            "administrative_area_level_1",
            "political"
          ]
        },
        {
          "long_name": "United States",
          "short_name": "US",
          "types": [
            "country",
            "political"
          ]
        },
        {
          "long_name": "68929",
          "short_name": "68929",
          "types": [
            "postal_code"
          ]
        }
      ],
      "formatted_address": "500 6th St, Bloomington, NE 68929, USA",
      "geometry": {
        "location": {
          "lat": 40.0943687,
          "lng": -99.0356539
        },
        "location_type": "ROOFTOP",
        "viewport": {
          "northeast": {
            "lat": 40.0957176802915,
            "lng": -99.0343049197085
          },
          "southwest": {
            "lat": 40.0930197197085,
            "lng": -99.03700288029151
          }
        }
      },
      "place_id": "ChIJ5wSlGr7PmIcRBVp74bNaIM4",
      "types": [
        "street_address"
      ]
    },
    {
      "address_components": [
        {
          "long_name": "Bloomington",
          "short_name": "Bloomington",
          "types": [
            "locality",
            "political"
          ]
        },
        {
          "long_name": "East Bloomington",
          "short_name": "East Bloomington",
          "types": [
            "administrative_area_level_3",
            "political"
          ]
        },
        {
          "long_name": "Franklin County",
          "short_name": "Franklin County",
          "types": [
            "administrative_area_level_2",
            "political"
          ]
        },
        {
          "long_name": "Nebraska",
          "short_name": "NE",
          "types": [
            "administrative_area_level_1",
            "political"
          ]
        },
        {
          "long_name": "United States",
          "short_name": "US",
          "types": [
            "country",
            "political"
          ]
        }
      ],
      "formatted_address": "Bloomington, NE, USA",
      "geometry": {
        "bounds": {
          "northeast": {
            "lat": 40.103643,
            "lng": -99.030504
          },
          "southwest": {
            "lat": 40.082861,
            "lng": -99.0472971
          }
        },
        "location": {
          "lat": 40.0941794,
          "lng": -99.0370286
        },
        "location_type": "APPROXIMATE",
        "viewport": {
          "northeast": {
            "lat": 40.103643,
            "lng": -99.030504
          },
          "southwest": {
            "lat": 40.082861,
            "lng": -99.0472971
          }
        }
      },
      "place_id": "ChIJT5PJArrPmIcRGsHrgc2SBAU",
      "types": [
        "locality",
        "political"
      ]
    },
    {
      "address_components": [
        {
          "long_name": "68929",
          "short_name": "68929",
          "types": [
            "postal_code"
          ]
        },
        {
          "long_name": "Bloomington",
          "short_name": "Bloomington",
          "types": [
            "locality",
            "political"
          ]
        },
        {
          "long_name": "Franklin County",
          "short_name": "Franklin County",
          "types": [
            "administrative_area_level_2",
            "political"
          ]
        },
        {
          "long_name": "Nebraska",
          "short_name": "NE",
          "types": [
            "administrative_area_level_1",
            "political"
          ]
        },
        {
          "long_name": "United States",
          "short_name": "US",
          "types": [
            "country",
            "political"
          ]
        }
      ],
      "formatted_address": "Bloomington, NE 68929, USA",
      "geometry": {
        "bounds": {
          "northeast": {
            "lat": 40.2490769,
            "lng": -98.971345
          },
          "southwest": {
            "lat": 40.07086890000001,
            "lng": -99.1322479
          }
        },
        "location": {
          "lat": 40.1394643,
          "lng": -99.03499769999999
        },
        "location_type": "APPROXIMATE",
        "viewport": {
          "northeast": {
            "lat": 40.2490769,
            "lng": -98.971345
          },
          "southwest": {
            "lat": 40.07086890000001,
            "lng": -99.1322479
          }
        }
      },
      "place_id": "ChIJlRILIhHQmIcR0C0y6CT-xx4",
      "types": [
        "postal_code"
      ]
    },
    {
      "address_components": [
        {
          "long_name": "East Bloomington",
          "short_name": "East Bloomington",
          "types": [
            "administrative_area_level_3",
            "political"
          ]
        },
        {
          "long_name": "Franklin County",
          "short_name": "Franklin County",
          "types": [
            "administrative_area_level_2",
            "political"
          ]
        },
        {
          "long_name": "Nebraska",
          "short_name": "NE",
          "types": [
            "administrative_area_level_1",
            "political"
          ]
        },
        {
          "long_name": "United States",
          "short_name": "US",
          "types": [
            "country",
            "political"
          ]
        }
      ],
      "formatted_address": "East Bloomington, NE, USA",
      "geometry": {
        "bounds": {
          "northeast": {
            "lat": 40.1763761,
            "lng": -98.9522849
          },
          "southwest": {
            "lat": 40.0021908,
            "lng": -99.066518
          }
        },
        "location": {
          "lat": 40.102274,
          "lng": -98.99079379999999
        },
        "location_type": "APPROXIMATE",
        "viewport": {
          "northeast": {
            "lat": 40.1763761,
            "lng": -98.9522849
          },
          "southwest": {
            "lat": 40.0021908,
            "lng": -99.066518
          }
        }
      },
      "place_id": "ChIJTe1x6HzFmIcR17CTev7libs",
      "types": [
        "administrative_area_level_3",
        "political"
      ]
    },
    {
      "address_components": [
        {
          "long_name": "Franklin County",
          "short_name": "Franklin County",
          "types": [
            "administrative_area_level_2",
            "political"
          ]
        },
        {
          "long_name": "Nebraska",
          "short_name": "NE",
          "types": [
            "administrative_area_level_1",
            "political"
          ]
        },
        {
          "long_name": "United States",
          "short_name": "US",
          "types": [
            "country",
            "political"
          ]
        }
      ],
      "formatted_address": "Franklin County, NE, USA",
      "geometry": {
        "bounds": {
          "northeast": {
            "lat": 40.3506811,
            "lng": -98.72590090000001
          },
          "southwest": {
            "lat": 40.001975,
            "lng": -99.1794779
          }
        },
        "location": {
          "lat": 40.20898570000001,
          "lng": -98.92453429999999
        },
        "location_type": "APPROXIMATE",
        "viewport": {
          "northeast": {
            "lat": 40.3506811,
            "lng": -98.72590090000001
          },
          "southwest": {
            "lat": 40.001975,
            "lng": -99.1794779
          }
        }
      },
      "place_id": "ChIJyZ5Y7U_ZmIcRb8CJhoxjAJ0",
      "types": [
        "administrative_area_level_2",
        "political"
      ]
    },
    {
      "address_components": [
        {
          "long_name": "Nebraska",
          "short_name": "NE",
          "types": [
            "administrative_area_level_1",
            "political"
          ]
        },
        {
          "long_name": "United States",
          "short_name": "US",
          "types": [
            "country",
            "political"
          ]
        }
      ],
      "formatted_address": "Nebraska, USA",
      "geometry": {
        "bounds": {
          "northeast": {
            "lat": 43.00170689999999,
            "lng": -95.30829000000001
          },
          "southwest": {
            "lat": 39.999932,
            "lng": -104.053514
          }
        },
        "location": {
          "lat": 41.4925374,
          "lng": -99.9018131
        },
        "location_type": "APPROXIMATE",
        "viewport": {
          "northeast": {
            "lat": 43.00170689999999,
            "lng": -95.30829000000001
          },
          "southwest": {
            "lat": 39.999932,
            "lng": -104.053514
          }
        }
      },
      "place_id": "ChIJ7fwMtciNk4cRxArzDwyQJ6E",
      "types": [
        "administrative_area_level_1",
        "political"
      ]
    },
    {
      "address_components": [
        {
          "long_name": "United States",
          "short_name": "US",
          "types": [
            "country",
            "political"
          ]
        }
      ],
      "formatted_address": "United States",
      "geometry": {
        "bounds": {
          "northeast": {
            "lat": 71.3867745,
            "lng": -66.9502861
          },
          "southwest": {
            "lat": 18.9106768,
            "lng": 172.4458955
          }
        },
        "location": {
          "lat": 37.09024,
          "lng": -95.712891
        },
        "location_type": "APPROXIMATE",
        "viewport": {
          "northeast": {
            "lat": 49.38,
            "lng": -66.94
          },
          "southwest": {
            "lat": 25.82,
            "lng": -124.39
          }
        }
      },
      "place_id": "ChIJCzYy5IS16lQRQrfeQ5K5Oxw",
      "types": [
        "country",
        "political"
      ]
    }
  ],
  "status": "OK"
}
