{
  "results": [
    {
      "address_components": [
        {
          "long_name": "65440",
          "short_name": "65440",
          "types": [
            "street_number"
          ]
        },
        {
          "long_name": "East Street",
          "short_name": "East St",
          "types": [
            "route"
          ]
        },
        {
          "long_name": "Bellaire",
          "short_name": "Bellaire",
          "types": [
            "locality",
            "political"
          ]
        },
        {
          "long_name": "Pultney Township",
          "short_name": "Pultney Township",
          "types": [
            "administrative_area_level_3",
            "political"
          ]
        },
        {
          "long_name": "Belmont County",
          "short_name": "Belmont County",
          "types": [
            "administrative_area_level_2",
            "political"
          ]
        },
        {
          "long_name": "Ohio",
          "short_name": "OH",
          "types": [
            "administrative_area_level_1",
            "political"
          ]
        },
        {
          "long_name": "United States",
          "short_name": "US",
          "types": [
            "country",
            "political"
          ]
        },
        {
          "long_name": "43906",
          "short_name": "43906",
          "types": [
            "postal_code"
          ]
        }
      ],
      "formatted_address": "65440 East St, Bellaire, OH 43906, USA",
      "geometry": {
        "bounds": {
          "northeast": {
            "lat": 40.0318662,
            "lng": -80.81293
          },
          "southwest": {
            "lat": 40.0301289,
            "lng": -80.8145246
          }
        },
        "location": {
          "lat": 40.0318523,
          "lng": -80.81452929999999
        },
        "location_type": "RANGE_INTERPOLATED",
        "viewport": {
          "northeast": {
            "lat": 40.03234653029151,
            "lng": -80.81237831970849
          },
          "southwest": {
            "lat": 40.02964856970851,
            "lng": -80.8150762802915
          }
        }
      },
      "place_id": "EiY2NTQ0MCBFYXN0IFN0LCBCZWxsYWlyZSwgT0ggNDM5MDYsIFVTQQ",
      "types": [
        "street_address"
      ]
    },
    {
      "address_components": [
        {
          "long_name": "Neffs",
          "short_name": "Neffs",
          "types": [
            "locality",
            "political"
          ]
        },
        {
          "long_name": "Pultney Township",
          "short_name": "Pultney Township",
          "types": [
            "administrative_area_level_3",
            "political"
          ]
        },
        {
          "long_name": "Belmont County",
          "short_name": "Belmont County",
          "types": [
            "administrative_area_level_2",
            "political"
          ]
        },
        {
          "long_name": "Ohio",
          "short_name": "OH",
          "types": [
            "administrative_area_level_1",
            "political"
          ]
        },
        {
          "long_name": "United States",
          "short_name": "US",
          "types": [
            "country",
            "political"
          ]
        }
      ],
      "formatted_address": "Neffs, OH, USA",
      "geometry": {
        "bounds": {
          "northeast": {
            "lat": 40.053647,
            "lng": -80.794252
          },
          "southwest": {
            "lat": 40.01186,
            "lng": -80.8322258
          }
        },
        "location": {
          "lat": 40.0272946,
          "lng": -80.8150871
        },
        "location_type": "APPROXIMATE",
        "viewport": {
          "northeast": {
            "lat": 40.053647,
            "lng": -80.794252
          },
          "southwest": {
            "lat": 40.01186,
            "lng": -80.8322258
          }
        }
      },
      "place_id": "ChIJobtdLQF2NogRHR8F1ONCi6Q",
      "types": [
        "locality",
        "political"
      ]
    },
    {
      "address_components": [
        {
          "long_name": "Pultney Township",
          "short_name": "Pultney Township",
          "types": [
            "administrative_area_level_3",
            "political"
          ]
        },
        {
          "long_name": "Belmont County",
          "short_name": "Belmont County",
          "types": [
            "administrative_area_level_2",
            "political"
          ]
        },
        {
          "long_name": "Ohio",
          "short_name": "OH",
          "types": [
            "administrative_area_level_1",
            "political"
          ]
        },
        {
          "long_name": "United States",
          "short_name": "US",
          "types": [
            "country",
            "political"
          ]
        }
      ],
      "formatted_address": "Pultney Township, OH, USA",
      "geometry": {
        "bounds": {
          "northeast": {
            "lat": 40.057096,
            "lng": -80.7310239
          },
          "southwest": {
            "lat": 39.968144,
            "lng": -80.83462589999999
          }
        },
        "location": {
          "lat": 40.0034446,
          "lng": -80.7879407
        },
        "location_type": "APPROXIMATE",
        "viewport": {
          "northeast": {
            "lat": 40.057096,
            "lng": -80.7310239
          },
          "southwest": {
            "lat": 39.968144,
            "lng": -80.83462589999999
          }
        }
      },
      "place_id": "ChIJO7E__DnfNYgRNEmo51yYDzo",
      "types": [
        "administrative_area_level_3",
        "political"
      ]
    },
    {
      "address_components": [
        {
          "long_name": "43906",
          "short_name": "43906",
          "types": [
            "postal_code"
          ]
        },
        {
          "long_name": "Bellaire",
          "short_name": "Bellaire",
          "types": [
            "locality",
            "political"
          ]
        },
        {
          "long_name": "Ohio",
          "short_name": "OH",
          "types": [
            "administrative_area_level_1",
            "political"
          ]
        },
        {
          "long_name": "United States",
          "short_name": "US",
          "types": [
            "country",
            "political"
          ]
        }
      ],
      "formatted_address": "Bellaire, OH 43906, USA",
      "geometry": {
        "bounds": {
          "northeast": {
            "lat": 40.0650689,
            "lng": -80.731044
          },
          "southwest": {
            "lat": 39.9437149,
            "lng": -80.8841389
          }
        },
        "location": {
          "lat": 40.01450550000001,
          "lng": -80.7990185
        },
        "location_type": "APPROXIMATE",
        "viewport": {
          "northeast": {
            "lat": 40.0650689,
            "lng": -80.731044
          },
          "southwest": {
            "lat": 39.9437149,
            "lng": -80.8841389
          }
        }
      },
      "place_id": "ChIJrxZJGV_fNYgR6fBOCQXSLzg",
      "types": [
        "postal_code"
      ]
    },
    {
      "address_components": [
        {
          "long_name": "Belmont County",
          "short_name": "Belmont County",
          "types": [
            "administrative_area_level_2",
            "political"
          ]
        },
        {
          "long_name": "Ohio",
          "short_name": "OH",
          "types": [
            "administrative_area_level_1",
            "political"
          ]
        },
        {
          "long_name": "United States",
          "short_name": "US",
          "types": [
            "country",
            "political"
          ]
        }
      ],
      "formatted_address": "Belmont County, OH, USA",
      "geometry": {
        "bounds": {
          "northeast": {
            "lat": 40.172694,
            "lng": -80.7031001
          },
          "southwest": {
            "lat": 39.849982,
            "lng": -81.2373159
          }
        },
        "location": {
          "lat": 40.0325848,
          "lng": -80.89865019999999
        },
        "location_type": "APPROXIMATE",
        "viewport": {
          "northeast": {
            "lat": 40.172694,
            "lng": -80.7031001
          },
          "southwest": {
            "lat": 39.849982,
            "lng": -81.2373159
          }
        }
      },
      "place_id": "ChIJo3bZwnhyNogRkv3G0nO-w5k",
      "types": [
        "administrative_area_level_2",
        "political"
      ]
    },
    {
      "address_components": [
        {
          "long_name": "Wheeling",
          "short_name": "Wheeling",
          "types": [
            "political"
          ]
        },
        {
          "long_name": "United States",
          "short_name": "US",
          "types": [
            "country",
            "political"
          ]
        }
      ],
      "formatted_address": "Wheeling, USA",
      "geometry": {
        "bounds": {
          "northeast": {
            "lat": 40.1857189,
            "lng": -80.5188909
          },
          "southwest": {
            "lat": 39.7208124,
            "lng": -81.2373159
          }
        },
        "location": {
          "lat": 40.0325848,
          "lng": -80.89865019999999
        },
        "location_type": "APPROXIMATE",
        "viewport": {
          "northeast": {
            "lat": 40.1857189,
            "lng": -80.5188909
          },
          "southwest": {
            "lat": 39.7208124,
            "lng": -81.2373159
          }
        }
      },
      "place_id": "ChIJpVmeVxB1NogRITanl-K6DXQ",
      "types": [
        "political"
      ]
    },
    {
      "address_components": [
        {
          "long_name": "Ohio",
          "short_name": "OH",
          "types": [
            "administrative_area_level_1",
            "political"
          ]
        },
        {
          "long_name": "United States",
          "short_name": "US",
          "types": [
            "country",
            "political"
          ]
        }
      ],
      "formatted_address": "Ohio, USA",
      "geometry": {
        "bounds": {
          "northeast": {
            "lat": 41.9773019,
            "lng": -80.5182
          },
          "southwest": {
            "lat": 38.4034229,
            "lng": -84.8203049
          }
        },
        "location": {
          "lat": 40.4172871,
          "lng": -82.90712300000001
        },
        "location_type": "APPROXIMATE",
        "viewport": {
          "northeast": {
            "lat": 41.9773019,
            "lng": -80.5182
          },
          "southwest": {
            "lat": 38.4034229,
            "lng": -84.8203049
          }
        }
      },
      "place_id": "ChIJwY5NtXrpNogRFtmfnDlkzeU",
      "types": [
        "administrative_area_level_1",
        "political"
      ]
    },
    {
      "address_components": [
        {
          "long_name": "United States",
          "short_name": "US",
          "types": [
            "country",
            "political"
          ]
        }
      ],
      "formatted_address": "United States",
      "geometry": {
        "bounds": {
          "northeast": {
            "lat": 71.3867745,
            "lng": -66.9502861
          },
          "southwest": {
            "lat": 18.9106768,
            "lng": 172.4458955
          }
        },
        "location": {
          "lat": 37.09024,
          "lng": -95.712891
        },
        "location_type": "APPROXIMATE",
        "viewport": {
          "northeast": {
            "lat": 49.38,
            "lng": -66.94
          },
          "southwest": {
            "lat": 25.82,
            "lng": -124.39
          }
        }
      },
      "place_id": "ChIJCzYy5IS16lQRQrfeQ5K5Oxw",
      "types": [
        "country",
        "political"
      ]
    }
  ],
  "status": "OK"
}
