{
  "results": [
    {
      "address_components": [
        {
          "long_name": "Fulton Avenue",
          "short_name": "Fulton Ave",
          "types": [
            "route"
          ]
        },
        {
          "long_name": "Mokane",
          "short_name": "Mokane",
          "types": [
            "locality",
            "political"
          ]
        },
        {
          "long_name": "St. Aubert Township",
          "short_name": "St Aubert Township",
          "types": [
            "administrative_area_level_3",
            "political"
          ]
        },
        {
          "long_name": "Callaway County",
          "short_name": "Callaway County",
          "types": [
            "administrative_area_level_2",
            "political"
          ]
        },
        {
          "long_name": "Missouri",
          "short_name": "MO",
          "types": [
            "administrative_area_level_1",
            "political"
          ]
        },
        {
          "long_name": "United States",
          "short_name": "US",
          "types": [
            "country",
            "political"
          ]
        },
        {
          "long_name": "65059",
          "short_name": "65059",
          "types": [
            "postal_code"
          ]
        }
      ],
      "formatted_address": "Fulton Ave, Mokane, MO 65059, USA",
      "geometry": {
        "bounds": {
          "northeast": {
            "lat": 38.6746264,
            "lng": -91.872322
          },
          "southwest": {
            "lat": 38.6743359,
            "lng": -91.8729263
          }
        },
        "location": {
          "lat": 38.6744812,
          "lng": -91.8726241
        },
        "location_type": "GEOMETRIC_CENTER",
        "viewport": {
          "northeast": {
            "lat": 38.67583013029149,
            "lng": -91.8712751697085
          },
          "southwest": {
            "lat": 38.6731321697085,
            "lng": -91.8739731302915
          }
        }
      },
      "place_id": "ChIJyT2WnKyB3IcR9epfbp7BNLU",
      "types": [
        "route"
      ]
    },
    {
      "address_components": [
        {
          "long_name": "Mokane",
          "short_name": "Mokane",
          "types": [
            "locality",
            "political"
          ]
        },
        {
          "long_name": "St. Aubert Township",
          "short_name": "St Aubert Township",
          "types": [
            "administrative_area_level_3",
            "political"
          ]
        },
        {
          "long_name": "Callaway County",
          "short_name": "Callaway County",
          "types": [
            "administrative_area_level_2",
            "political"
          ]
        },
        {
          "long_name": "Missouri",
          "short_name": "MO",
          "types": [
            "administrative_area_level_1",
            "political"
          ]
        },
        {
          "long_name": "United States",
          "short_name": "US",
          "types": [
            "country",
            "political"
          ]
        },
        {
          "long_name": "65059",
          "short_name": "65059",
          "types": [
            "postal_code"
          ]
        }
      ],
      "formatted_address": "Mokane, MO 65059, USA",
      "geometry": {
        "bounds": {
          "northeast": {
            "lat": 38.6784659,
            "lng": -91.866716
          },
          "southwest": {
            "lat": 38.6703819,
            "lng": -91.8799219
          }
        },
        "location": {
          "lat": 38.6750418,
          "lng": -91.87434499999999
        },
        "location_type": "APPROXIMATE",
        "viewport": {
          "northeast": {
            "lat": 38.6784659,
            "lng": -91.866716
          },
          "southwest": {
            "lat": 38.6703819,
            "lng": -91.8799219
          }
        }
      },
      "place_id": "ChIJj-UBshmB3IcRV5bYckimmQM",
      "types": [
        "locality",
        "political"
      ]
    },
    {
      "address_components": [
        {
          "long_name": "65059",
          "short_name": "65059",
          "types": [
            "postal_code"
          ]
        },
        {
          "long_name": "Mokane",
          "short_name": "Mokane",
          "types": [
            "locality",
            "political"
          ]
        },
        {
          "long_name": "Callaway County",
          "short_name": "Callaway County",
          "types": [
            "administrative_area_level_2",
            "political"
          ]
        },
        {
          "long_name": "Missouri",
          "short_name": "MO",
          "types": [
            "administrative_area_level_1",
            "political"
          ]
        },
        {
          "long_name": "United States",
          "short_name": "US",
          "types": [
            "country",
            "political"
          ]
        }
      ],
      "formatted_address": "Mokane, MO 65059, USA",
      "geometry": {
        "bounds": {
          "northeast": {
            "lat": 38.773343,
            "lng": -91.81099309999999
          },
          "southwest": {
            "lat": 38.6345601,
            "lng": -91.9534669
          }
        },
        "location": {
          "lat": 38.70064929999999,
          "lng": -91.89038819999999
        },
        "location_type": "APPROXIMATE",
        "viewport": {
          "northeast": {
            "lat": 38.773343,
            "lng": -91.81099309999999
          },
          "southwest": {
            "lat": 38.6345601,
            "lng": -91.9534669
          }
        }
      },
      "place_id": "ChIJmd3umRSB3IcRZrJwBKiEQ-Q",
      "types": [
        "postal_code"
      ]
    },
    {
      "address_components": [
        {
          "long_name": "St. Aubert Township",
          "short_name": "St Aubert Township",
          "types": [
            "administrative_area_level_3",
            "political"
          ]
        },
        {
          "long_name": "Callaway County",
          "short_name": "Callaway County",
          "types": [
            "administrative_area_level_2",
            "political"
          ]
        },
        {
          "long_name": "Missouri",
          "short_name": "MO",
          "types": [
            "administrative_area_level_1",
            "political"
          ]
        },
        {
          "long_name": "United States",
          "short_name": "US",
          "types": [
            "country",
            "political"
          ]
        }
      ],
      "formatted_address": "St Aubert Township, MO, USA",
      "geometry": {
        "bounds": {
          "northeast": {
            "lat": 38.7978691,
            "lng": -91.819952
          },
          "southwest": {
            "lat": 38.6389349,
            "lng": -91.9891129
          }
        },
        "location": {
          "lat": 38.7425347,
          "lng": -91.89038819999999
        },
        "location_type": "APPROXIMATE",
        "viewport": {
          "northeast": {
            "lat": 38.7978691,
            "lng": -91.819952
          },
          "southwest": {
            "lat": 38.6389349,
            "lng": -91.9891129
          }
        }
      },
      "place_id": "ChIJKSuumFOB3IcRsbV8TXPSELc",
      "types": [
        "administrative_area_level_3",
        "political"
      ]
    },
    {
      "address_components": [
        {
          "long_name": "Callaway County",
          "short_name": "Callaway County",
          "types": [
            "administrative_area_level_2",
            "political"
          ]
        },
        {
          "long_name": "Missouri",
          "short_name": "MO",
          "types": [
            "administrative_area_level_1",
            "political"
          ]
        },
        {
          "long_name": "United States",
          "short_name": "US",
          "types": [
            "country",
            "political"
          ]
        }
      ],
      "formatted_address": "Callaway County, MO, USA",
      "geometry": {
        "bounds": {
          "northeast": {
            "lat": 39.0644931,
            "lng": -91.6339979
          },
          "southwest": {
            "lat": 38.557842,
            "lng": -92.226091
          }
        },
        "location": {
          "lat": 38.8886044,
          "lng": -91.9099238
        },
        "location_type": "APPROXIMATE",
        "viewport": {
          "northeast": {
            "lat": 39.0644931,
            "lng": -91.6339979
          },
          "southwest": {
            "lat": 38.557842,
            "lng": -92.226091
          }
        }
      },
      "place_id": "ChIJwW7F7wSxw4cR3_IDVcX9V0U",
      "types": [
        "administrative_area_level_2",
        "political"
      ]
    },
    {
      "address_components": [
        {
          "long_name": "Jefferson City",
          "short_name": "Jefferson City",
          "types": [
            "political"
          ]
        },
        {
          "long_name": "Missouri",
          "short_name": "MO",
          "types": [
            "administrative_area_level_1",
            "political"
          ]
        },
        {
          "long_name": "United States",
          "short_name": "US",
          "types": [
            "country",
            "political"
          ]
        }
      ],
      "formatted_address": "Jefferson City, MO, USA",
      "geometry": {
        "bounds": {
          "northeast": {
            "lat": 39.064697,
            "lng": -91.6339991
          },
          "southwest": {
            "lat": 38.28814,
            "lng": -92.84187109999999
          }
        },
        "location": {
          "lat": 38.468187,
          "lng": -91.9881527
        },
        "location_type": "APPROXIMATE",
        "viewport": {
          "northeast": {
            "lat": 39.064697,
            "lng": -91.6339991
          },
          "southwest": {
            "lat": 38.28814,
            "lng": -92.84187109999999
          }
        }
      },
      "place_id": "ChIJS1oEHiSe3IcReDWU-udvLWw",
      "types": [
        "political"
      ]
    },
    {
      "address_components": [
        {
          "long_name": "Missouri",
          "short_name": "MO",
          "types": [
            "administrative_area_level_1",
            "political"
          ]
        },
        {
          "long_name": "United States",
          "short_name": "US",
          "types": [
            "country",
            "political"
          ]
        }
      ],
      "formatted_address": "Missouri, USA",
      "geometry": {
        "bounds": {
          "northeast": {
            "lat": 40.61364,
            "lng": -89.09949399999999
          },
          "southwest": {
            "lat": 35.9956829,
            "lng": -95.774704
          }
        },
        "location": {
          "lat": 37.9642529,
          "lng": -91.8318334
        },
        "location_type": "APPROXIMATE",
        "viewport": {
          "northeast": {
            "lat": 40.61364,
            "lng": -89.09949399999999
          },
          "southwest": {
            "lat": 35.9956829,
            "lng": -95.774704
          }
        }
      },
      "place_id": "ChIJfeMiSNXmwIcRcr1mBFnEW7U",
      "types": [
        "administrative_area_level_1",
        "political"
      ]
    },
    {
      "address_components": [
        {
          "long_name": "United States",
          "short_name": "US",
          "types": [
            "country",
            "political"
          ]
        }
      ],
      "formatted_address": "United States",
      "geometry": {
        "bounds": {
          "northeast": {
            "lat": 71.3867745,
            "lng": -66.9502861
          },
          "southwest": {
            "lat": 18.9106768,
            "lng": 172.4458955
          }
        },
        "location": {
          "lat": 37.09024,
          "lng": -95.712891
        },
        "location_type": "APPROXIMATE",
        "viewport": {
          "northeast": {
            "lat": 49.38,
            "lng": -66.94
          },
          "southwest": {
            "lat": 25.82,
            "lng": -124.39
          }
        }
      },
      "place_id": "ChIJCzYy5IS16lQRQrfeQ5K5Oxw",
      "types": [
        "country",
        "political"
      ]
    }
  ],
  "status": "OK"
}
