{
  "results": [
    {
      "address_components": [
        {
          "long_name": "Greeley Avenue",
          "short_name": "Greeley Ave",
          "types": [
            "route"
          ]
        },
        {
          "long_name": "Brownell",
          "short_name": "Brownell",
          "types": [
            "locality",
            "political"
          ]
        },
        {
          "long_name": "Waring",
          "short_name": "Waring",
          "types": [
            "administrative_area_level_3",
            "political"
          ]
        },
        {
          "long_name": "Ness County",
          "short_name": "Ness County",
          "types": [
            "administrative_area_level_2",
            "political"
          ]
        },
        {
          "long_name": "Kansas",
          "short_name": "KS",
          "types": [
            "administrative_area_level_1",
            "political"
          ]
        },
        {
          "long_name": "United States",
          "short_name": "US",
          "types": [
            "country",
            "political"
          ]
        },
        {
          "long_name": "67521",
          "short_name": "67521",
          "types": [
            "postal_code"
          ]
        }
      ],
      "formatted_address": "Greeley Ave, Brownell, KS 67521, USA",
      "geometry": {
        "bounds": {
          "northeast": {
            "lat": 38.641194,
            "lng": -99.74429339999999
          },
          "southwest": {
            "lat": 38.64006560000001,
            "lng": -99.7450009
          }
        },
        "location": {
          "lat": 38.6406447,
          "lng": -99.7448895
        },
        "location_type": "GEOMETRIC_CENTER",
        "viewport": {
          "northeast": {
            "lat": 38.6419787802915,
            "lng": -99.74329816970848
          },
          "southwest": {
            "lat": 38.6392808197085,
            "lng": -99.7459961302915
          }
        }
      },
      "place_id": "ChIJ2SAYicAZoYcRFHwEbKnIQ_o",
      "types": [
        "route"
      ]
    },
    {
      "address_components": [
        {
          "long_name": "Brownell",
          "short_name": "Brownell",
          "types": [
            "locality",
            "political"
          ]
        },
        {
          "long_name": "Waring",
          "short_name": "Waring",
          "types": [
            "administrative_area_level_3",
            "political"
          ]
        },
        {
          "long_name": "Ness County",
          "short_name": "Ness County",
          "types": [
            "administrative_area_level_2",
            "political"
          ]
        },
        {
          "long_name": "Kansas",
          "short_name": "KS",
          "types": [
            "administrative_area_level_1",
            "political"
          ]
        },
        {
          "long_name": "United States",
          "short_name": "US",
          "types": [
            "country",
            "political"
          ]
        },
        {
          "long_name": "67521",
          "short_name": "67521",
          "types": [
            "postal_code"
          ]
        }
      ],
      "formatted_address": "Brownell, KS 67521, USA",
      "geometry": {
        "bounds": {
          "northeast": {
            "lat": 38.64369689999999,
            "lng": -99.738991
          },
          "southwest": {
            "lat": 38.63633900000001,
            "lng": -99.7483949
          }
        },
        "location": {
          "lat": 38.6402918,
          "lng": -99.7462292
        },
        "location_type": "APPROXIMATE",
        "viewport": {
          "northeast": {
            "lat": 38.64369689999999,
            "lng": -99.738991
          },
          "southwest": {
            "lat": 38.63633900000001,
            "lng": -99.7483949
          }
        }
      },
      "place_id": "ChIJR1QY78AZoYcRlCwKx_hMV4s",
      "types": [
        "locality",
        "political"
      ]
    },
    {
      "address_components": [
        {
          "long_name": "Waring",
          "short_name": "Waring",
          "types": [
            "administrative_area_level_3",
            "political"
          ]
        },
        {
          "long_name": "Ness County",
          "short_name": "Ness County",
          "types": [
            "administrative_area_level_2",
            "political"
          ]
        },
        {
          "long_name": "Kansas",
          "short_name": "KS",
          "types": [
            "administrative_area_level_1",
            "political"
          ]
        },
        {
          "long_name": "United States",
          "short_name": "US",
          "types": [
            "country",
            "political"
          ]
        }
      ],
      "formatted_address": "Waring, KS, USA",
      "geometry": {
        "bounds": {
          "northeast": {
            "lat": 38.69702789999999,
            "lng": -99.585087
          },
          "southwest": {
            "lat": 38.552513,
            "lng": -99.8085029
          }
        },
        "location": {
          "lat": 38.6281823,
          "lng": -99.6786894
        },
        "location_type": "APPROXIMATE",
        "viewport": {
          "northeast": {
            "lat": 38.69702789999999,
            "lng": -99.585087
          },
          "southwest": {
            "lat": 38.552513,
            "lng": -99.8085029
          }
        }
      },
      "place_id": "ChIJrfanwqAXoYcRAOaaxkEGkG8",
      "types": [
        "administrative_area_level_3",
        "political"
      ]
    },
    {
      "address_components": [
        {
          "long_name": "67521",
          "short_name": "67521",
          "types": [
            "postal_code"
          ]
        },
        {
          "long_name": "Brownell",
          "short_name": "Brownell",
          "types": [
            "locality",
            "political"
          ]
        },
        {
          "long_name": "Kansas",
          "short_name": "KS",
          "types": [
            "administrative_area_level_1",
            "political"
          ]
        },
        {
          "long_name": "United States",
          "short_name": "US",
          "types": [
            "country",
            "political"
          ]
        }
      ],
      "formatted_address": "Brownell, KS 67521, USA",
      "geometry": {
        "bounds": {
          "northeast": {
            "lat": 38.783767,
            "lng": -99.585087
          },
          "southwest": {
            "lat": 38.407188,
            "lng": -99.863548
          }
        },
        "location": {
          "lat": 38.6018115,
          "lng": -99.745565
        },
        "location_type": "APPROXIMATE",
        "viewport": {
          "northeast": {
            "lat": 38.783767,
            "lng": -99.585087
          },
          "southwest": {
            "lat": 38.407188,
            "lng": -99.863548
          }
        }
      },
      "place_id": "ChIJnSHs6KgXoYcRImpINpQ62VM",
      "types": [
        "postal_code"
      ]
    },
    {
      "address_components": [
        {
          "long_name": "Ness County",
          "short_name": "Ness County",
          "types": [
            "administrative_area_level_2",
            "political"
          ]
        },
        {
          "long_name": "Kansas",
          "short_name": "KS",
          "types": [
            "administrative_area_level_1",
            "political"
          ]
        },
        {
          "long_name": "United States",
          "short_name": "US",
          "types": [
            "country",
            "political"
          ]
        }
      ],
      "formatted_address": "Ness County, KS, USA",
      "geometry": {
        "bounds": {
          "northeast": {
            "lat": 38.69818,
            "lng": -99.5842069
          },
          "southwest": {
            "lat": 38.26145500000001,
            "lng": -100.248657
          }
        },
        "location": {
          "lat": 38.4769509,
          "lng": -99.99122539999999
        },
        "location_type": "APPROXIMATE",
        "viewport": {
          "northeast": {
            "lat": 38.69818,
            "lng": -99.5842069
          },
          "southwest": {
            "lat": 38.26145500000001,
            "lng": -100.248657
          }
        }
      },
      "place_id": "ChIJT1jAxjreoIcRtIGDPtF_yys",
      "types": [
        "administrative_area_level_2",
        "political"
      ]
    },
    {
      "address_components": [
        {
          "long_name": "Kansas",
          "short_name": "KS",
          "types": [
            "administrative_area_level_1",
            "political"
          ]
        },
        {
          "long_name": "United States",
          "short_name": "US",
          "types": [
            "country",
            "political"
          ]
        }
      ],
      "formatted_address": "Kansas, USA",
      "geometry": {
        "bounds": {
          "northeast": {
            "lat": 40.0045419,
            "lng": -94.588387
          },
          "southwest": {
            "lat": 36.9930159,
            "lng": -102.0517688
          }
        },
        "location": {
          "lat": 39.011902,
          "lng": -98.4842465
        },
        "location_type": "APPROXIMATE",
        "viewport": {
          "northeast": {
            "lat": 40.0045419,
            "lng": -94.588387
          },
          "southwest": {
            "lat": 36.9930159,
            "lng": -102.0517688
          }
        }
      },
      "place_id": "ChIJawF8cXEXo4cRXwk-S6m0wmg",
      "types": [
        "administrative_area_level_1",
        "political"
      ]
    },
    {
      "address_components": [
        {
          "long_name": "United States",
          "short_name": "US",
          "types": [
            "country",
            "political"
          ]
        }
      ],
      "formatted_address": "United States",
      "geometry": {
        "bounds": {
          "northeast": {
            "lat": 71.3867745,
            "lng": -66.9502861
          },
          "southwest": {
            "lat": 18.9106768,
            "lng": 172.4458955
          }
        },
        "location": {
          "lat": 37.09024,
          "lng": -95.712891
        },
        "location_type": "APPROXIMATE",
        "viewport": {
          "northeast": {
            "lat": 49.38,
            "lng": -66.94
          },
          "southwest": {
            "lat": 25.82,
            "lng": -124.39
          }
        }
      },
      "place_id": "ChIJCzYy5IS16lQRQrfeQ5K5Oxw",
      "types": [
        "country",
        "political"
      ]
    }
  ],
  "status": "OK"
}
