{
  "results": [
    {
      "address_components": [
        {
          "long_name": "371-399",
          "short_name": "371-399",
          "types": [
            "street_number"
          ]
        },
        {
          "long_name": "Merrick Road",
          "short_name": "Merrick Rd",
          "types": [
            "route"
          ]
        },
        {
          "long_name": "Lynbrook",
          "short_name": "Lynbrook",
          "types": [
            "locality",
            "political"
          ]
        },
        {
          "long_name": "Hempstead",
          "short_name": "Hempstead",
          "types": [
            "administrative_area_level_3",
            "political"
          ]
        },
        {
          "long_name": "Nassau County",
          "short_name": "Nassau County",
          "types": [
            "administrative_area_level_2",
            "political"
          ]
        },
        {
          "long_name": "New York",
          "short_name": "NY",
          "types": [
            "administrative_area_level_1",
            "political"
          ]
        },
        {
          "long_name": "United States",
          "short_name": "US",
          "types": [
            "country",
            "political"
          ]
        },
        {
          "long_name": "11563",
          "short_name": "11563",
          "types": [
            "postal_code"
          ]
        }
      ],
      "formatted_address": "371-399 Merrick Rd, Lynbrook, NY 11563, USA",
      "geometry": {
        "bounds": {
          "northeast": {
            "lat": 40.6580118,
            "lng": -73.6740671
          },
          "southwest": {
            "lat": 40.6577467,
            "lng": -73.67504509999999
          }
        },
        "location": {
          "lat": 40.657806,
          "lng": -73.6742307
        },
        "location_type": "RANGE_INTERPOLATED",
        "viewport": {
          "northeast": {
            "lat": 40.6592282302915,
            "lng": -73.6732071197085
          },
          "southwest": {
            "lat": 40.6565302697085,
            "lng": -73.6759050802915
          }
        }
      },
      "place_id": "EiszNzEtMzk5IE1lcnJpY2sgUmQsIEx5bmJyb29rLCBOWSAxMTU2MywgVVNB",
      "types": [
        "street_address"
      ]
    },
    {
      "address_components": [
        {
          "long_name": "Lynbrook",
          "short_name": "Lynbrook",
          "types": [
            "locality",
            "political"
          ]
        },
        {
          "long_name": "Hempstead",
          "short_name": "Hempstead",
          "types": [
            "administrative_area_level_3",
            "political"
          ]
        },
        {
          "long_name": "Nassau County",
          "short_name": "Nassau County",
          "types": [
            "administrative_area_level_2",
            "political"
          ]
        },
        {
          "long_name": "New York",
          "short_name": "NY",
          "types": [
            "administrative_area_level_1",
            "political"
          ]
        },
        {
          "long_name": "United States",
          "short_name": "US",
          "types": [
            "country",
            "political"
          ]
        }
      ],
      "formatted_address": "Lynbrook, NY, USA",
      "geometry": {
        "bounds": {
          "northeast": {
            "lat": 40.671297,
            "lng": -73.6556311
          },
          "southwest": {
            "lat": 40.643003,
            "lng": -73.69077589999999
          }
        },
        "location": {
          "lat": 40.6548253,
          "lng": -73.67179689999999
        },
        "location_type": "APPROXIMATE",
        "viewport": {
          "northeast": {
            "lat": 40.671297,
            "lng": -73.6556311
          },
          "southwest": {
            "lat": 40.643003,
            "lng": -73.69077589999999
          }
        }
      },
      "place_id": "ChIJm1ynNJRkwokRVoclCksORCo",
      "types": [
        "locality",
        "political"
      ]
    },
    {
      "address_components": [
        {
          "long_name": "11563",
          "short_name": "11563",
          "types": [
            "postal_code"
          ]
        },
        {
          "long_name": "Lynbrook",
          "short_name": "Lynbrook",
          "types": [
            "locality",
            "political"
          ]
        },
        {
          "long_name": "Hempstead",
          "short_name": "Hempstead",
          "types": [
            "administrative_area_level_3",
            "political"
          ]
        },
        {
          "long_name": "Nassau County",
          "short_name": "Nassau County",
          "types": [
            "administrative_area_level_2",
            "political"
          ]
        },
        {
          "long_name": "New York",
          "short_name": "NY",
          "types": [
            "administrative_area_level_1",
            "political"
          ]
        },
        {
          "long_name": "United States",
          "short_name": "US",
          "types": [
            "country",
            "political"
          ]
        }
      ],
      "formatted_address": "Lynbrook, NY 11563, USA",
      "geometry": {
        "bounds": {
          "northeast": {
            "lat": 40.672334,
            "lng": -73.6532308
          },
          "southwest": {
            "lat": 40.6425518,
            "lng": -73.69077589999999
          }
        },
        "location": {
          "lat": 40.6589417,
          "lng": -73.6742232
        },
        "location_type": "APPROXIMATE",
        "viewport": {
          "northeast": {
            "lat": 40.672334,
            "lng": -73.6532308
          },
          "southwest": {
            "lat": 40.6425518,
            "lng": -73.69077589999999
          }
        }
      },
      "place_id": "ChIJz95Oh5ZkwokRsNmKRT949hU",
      "types": [
        "postal_code"
      ]
    },
    {
      "address_components": [
        {
          "long_name": "Hempstead",
          "short_name": "Hempstead",
          "types": [
            "administrative_area_level_3",
            "political"
          ]
        },
        {
          "long_name": "Nassau County",
          "short_name": "Nassau County",
          "types": [
            "administrative_area_level_2",
            "political"
          ]
        },
        {
          "long_name": "New York",
          "short_name": "NY",
          "types": [
            "administrative_area_level_1",
            "political"
          ]
        },
        {
          "long_name": "United States",
          "short_name": "US",
          "types": [
            "country",
            "political"
          ]
        }
      ],
      "formatted_address": "Hempstead, NY, USA",
      "geometry": {
        "bounds": {
          "northeast": {
            "lat": 40.7566779,
            "lng": -73.4815866
          },
          "southwest": {
            "lat": 40.5730904,
            "lng": -73.7667408
          }
        },
        "location": {
          "lat": 40.6451257,
          "lng": -73.6300729
        },
        "location_type": "APPROXIMATE",
        "viewport": {
          "northeast": {
            "lat": 40.7566779,
            "lng": -73.4815866
          },
          "southwest": {
            "lat": 40.5730904,
            "lng": -73.7667408
          }
        }
      },
      "place_id": "ChIJHTbFH9BkwokR6paY895RsDs",
      "types": [
        "administrative_area_level_3",
        "political"
      ]
    },
    {
      "address_components": [
        {
          "long_name": "Nassau County",
          "short_name": "Nassau County",
          "types": [
            "administrative_area_level_2",
            "political"
          ]
        },
        {
          "long_name": "New York",
          "short_name": "NY",
          "types": [
            "administrative_area_level_1",
            "political"
          ]
        },
        {
          "long_name": "United States",
          "short_name": "US",
          "types": [
            "country",
            "political"
          ]
        }
      ],
      "formatted_address": "Nassau County, NY, USA",
      "geometry": {
        "bounds": {
          "northeast": {
            "lat": 40.9478348,
            "lng": -73.4232586
          },
          "southwest": {
            "lat": 40.5730904,
            "lng": -73.7667408
          }
        },
        "location": {
          "lat": 40.6546145,
          "lng": -73.55941279999999
        },
        "location_type": "APPROXIMATE",
        "viewport": {
          "northeast": {
            "lat": 40.9478286,
            "lng": -73.4232586
          },
          "southwest": {
            "lat": 40.5730904,
            "lng": -73.7667408
          }
        }
      },
      "place_id": "ChIJoQxey52xwokRap4G05mKJBs",
      "types": [
        "administrative_area_level_2",
        "political"
      ]
    },
    {
      "address_components": [
        {
          "long_name": "New York",
          "short_name": "NY",
          "types": [
            "administrative_area_level_1",
            "political"
          ]
        },
        {
          "long_name": "United States",
          "short_name": "US",
          "types": [
            "country",
            "political"
          ]
        }
      ],
      "formatted_address": "New York, USA",
      "geometry": {
        "bounds": {
          "northeast": {
            "lat": 45.015865,
            "lng": -71.85620639999999
          },
          "southwest": {
            "lat": 40.496091,
            "lng": -79.76214379999999
          }
        },
        "location": {
          "lat": 43.2994285,
          "lng": -74.21793260000001
        },
        "location_type": "APPROXIMATE",
        "viewport": {
          "northeast": {
            "lat": 45.015859,
            "lng": -71.85620639999999
          },
          "southwest": {
            "lat": 40.496091,
            "lng": -79.76214379999999
          }
        }
      },
      "place_id": "ChIJqaUj8fBLzEwRZ5UY3sHGz90",
      "types": [
        "administrative_area_level_1",
        "political"
      ]
    },
    {
      "address_components": [
        {
          "long_name": "United States",
          "short_name": "US",
          "types": [
            "country",
            "political"
          ]
        }
      ],
      "formatted_address": "United States",
      "geometry": {
        "bounds": {
          "northeast": {
            "lat": 71.3867745,
            "lng": -66.9502861
          },
          "southwest": {
            "lat": 18.9106768,
            "lng": 172.4458955
          }
        },
        "location": {
          "lat": 37.09024,
          "lng": -95.712891
        },
        "location_type": "APPROXIMATE",
        "viewport": {
          "northeast": {
            "lat": 49.38,
            "lng": -66.94
          },
          "southwest": {
            "lat": 25.82,
            "lng": -124.39
          }
        }
      },
      "place_id": "ChIJCzYy5IS16lQRQrfeQ5K5Oxw",
      "types": [
        "country",
        "political"
      ]
    }
  ],
  "status": "OK"
}
