{
  "results": [
    {
      "address_components": [
        {
          "long_name": "Maple Street",
          "short_name": "Maple St",
          "types": [
            "route"
          ]
        },
        {
          "long_name": "Grandin",
          "short_name": "Grandin",
          "types": [
            "locality",
            "political"
          ]
        },
        {
          "long_name": "Johnson Township",
          "short_name": "Johnson Township",
          "types": [
            "administrative_area_level_3",
            "political"
          ]
        },
        {
          "long_name": "Carter County",
          "short_name": "Carter County",
          "types": [
            "administrative_area_level_2",
            "political"
          ]
        },
        {
          "long_name": "Missouri",
          "short_name": "MO",
          "types": [
            "administrative_area_level_1",
            "political"
          ]
        },
        {
          "long_name": "United States",
          "short_name": "US",
          "types": [
            "country",
            "political"
          ]
        },
        {
          "long_name": "63943",
          "short_name": "63943",
          "types": [
            "postal_code"
          ]
        }
      ],
      "formatted_address": "Maple St, Grandin, MO 63943, USA",
      "geometry": {
        "bounds": {
          "northeast": {
            "lat": 36.8317187,
            "lng": -90.8209184
          },
          "southwest": {
            "lat": 36.8303321,
            "lng": -90.8214185
          }
        },
        "location": {
          "lat": 36.8309399,
          "lng": -90.82141589999999
        },
        "location_type": "GEOMETRIC_CENTER",
        "viewport": {
          "northeast": {
            "lat": 36.8323743802915,
            "lng": -90.81981946970849
          },
          "southwest": {
            "lat": 36.8296764197085,
            "lng": -90.82251743029151
          }
        }
      },
      "place_id": "ChIJO6w9vS8R14cRup_kRY-H03A",
      "types": [
        "route"
      ]
    },
    {
      "address_components": [
        {
          "long_name": "Grandin",
          "short_name": "Grandin",
          "types": [
            "locality",
            "political"
          ]
        },
        {
          "long_name": "Johnson Township",
          "short_name": "Johnson Township",
          "types": [
            "administrative_area_level_3",
            "political"
          ]
        },
        {
          "long_name": "Carter County",
          "short_name": "Carter County",
          "types": [
            "administrative_area_level_2",
            "political"
          ]
        },
        {
          "long_name": "Missouri",
          "short_name": "MO",
          "types": [
            "administrative_area_level_1",
            "political"
          ]
        },
        {
          "long_name": "United States",
          "short_name": "US",
          "types": [
            "country",
            "political"
          ]
        },
        {
          "long_name": "63943",
          "short_name": "63943",
          "types": [
            "postal_code"
          ]
        }
      ],
      "formatted_address": "Grandin, MO 63943, USA",
      "geometry": {
        "bounds": {
          "northeast": {
            "lat": 36.837753,
            "lng": -90.8084351
          },
          "southwest": {
            "lat": 36.8264061,
            "lng": -90.832715
          }
        },
        "location": {
          "lat": 36.8292209,
          "lng": -90.8229006
        },
        "location_type": "APPROXIMATE",
        "viewport": {
          "northeast": {
            "lat": 36.8343049,
            "lng": -90.8084351
          },
          "southwest": {
            "lat": 36.8264061,
            "lng": -90.832715
          }
        }
      },
      "place_id": "ChIJ2xUmUS4R14cRF_K6EQUf_Mw",
      "types": [
        "locality",
        "political"
      ]
    },
    {
      "address_components": [
        {
          "long_name": "63943",
          "short_name": "63943",
          "types": [
            "postal_code"
          ]
        },
        {
          "long_name": "Grandin",
          "short_name": "Grandin",
          "types": [
            "locality",
            "political"
          ]
        },
        {
          "long_name": "Missouri",
          "short_name": "MO",
          "types": [
            "administrative_area_level_1",
            "political"
          ]
        },
        {
          "long_name": "United States",
          "short_name": "US",
          "types": [
            "country",
            "political"
          ]
        }
      ],
      "formatted_address": "Grandin, MO 63943, USA",
      "geometry": {
        "bounds": {
          "northeast": {
            "lat": 36.9069209,
            "lng": -90.718572
          },
          "southwest": {
            "lat": 36.731386,
            "lng": -90.946726
          }
        },
        "location": {
          "lat": 36.8007432,
          "lng": -90.810357
        },
        "location_type": "APPROXIMATE",
        "viewport": {
          "northeast": {
            "lat": 36.9069209,
            "lng": -90.718572
          },
          "southwest": {
            "lat": 36.731386,
            "lng": -90.946726
          }
        }
      },
      "place_id": "ChIJCRjSl7UR14cRNVYArxctOdg",
      "types": [
        "postal_code"
      ]
    },
    {
      "address_components": [
        {
          "long_name": "Johnson Township",
          "short_name": "Johnson Township",
          "types": [
            "administrative_area_level_3",
            "political"
          ]
        },
        {
          "long_name": "Carter County",
          "short_name": "Carter County",
          "types": [
            "administrative_area_level_2",
            "political"
          ]
        },
        {
          "long_name": "Missouri",
          "short_name": "MO",
          "types": [
            "administrative_area_level_1",
            "political"
          ]
        },
        {
          "long_name": "United States",
          "short_name": "US",
          "types": [
            "country",
            "political"
          ]
        }
      ],
      "formatted_address": "Johnson Township, MO, USA",
      "geometry": {
        "bounds": {
          "northeast": {
            "lat": 36.9438101,
            "lng": -90.66123110000001
          },
          "southwest": {
            "lat": 36.81144889999999,
            "lng": -90.898389
          }
        },
        "location": {
          "lat": 36.8870966,
          "lng": -90.7722974
        },
        "location_type": "APPROXIMATE",
        "viewport": {
          "northeast": {
            "lat": 36.9438101,
            "lng": -90.66123110000001
          },
          "southwest": {
            "lat": 36.81144889999999,
            "lng": -90.898389
          }
        }
      },
      "place_id": "ChIJtXTA4cgF14cRs2tdNgMrk6s",
      "types": [
        "administrative_area_level_3",
        "political"
      ]
    },
    {
      "address_components": [
        {
          "long_name": "Carter County",
          "short_name": "Carter County",
          "types": [
            "administrative_area_level_2",
            "political"
          ]
        },
        {
          "long_name": "Missouri",
          "short_name": "MO",
          "types": [
            "administrative_area_level_1",
            "political"
          ]
        },
        {
          "long_name": "United States",
          "short_name": "US",
          "types": [
            "country",
            "political"
          ]
        }
      ],
      "formatted_address": "Carter County, MO, USA",
      "geometry": {
        "bounds": {
          "northeast": {
            "lat": 37.100404,
            "lng": -90.66123110000001
          },
          "southwest": {
            "lat": 36.81144889999999,
            "lng": -91.2248249
          }
        },
        "location": {
          "lat": 36.9073725,
          "lng": -90.9438468
        },
        "location_type": "APPROXIMATE",
        "viewport": {
          "northeast": {
            "lat": 37.100404,
            "lng": -90.66123110000001
          },
          "southwest": {
            "lat": 36.81144889999999,
            "lng": -91.2248249
          }
        }
      },
      "place_id": "ChIJtXKvxXBO14cRHdffLime0ds",
      "types": [
        "administrative_area_level_2",
        "political"
      ]
    },
    {
      "address_components": [
        {
          "long_name": "Missouri",
          "short_name": "MO",
          "types": [
            "administrative_area_level_1",
            "political"
          ]
        },
        {
          "long_name": "United States",
          "short_name": "US",
          "types": [
            "country",
            "political"
          ]
        }
      ],
      "formatted_address": "Missouri, USA",
      "geometry": {
        "bounds": {
          "northeast": {
            "lat": 40.61364,
            "lng": -89.09949399999999
          },
          "southwest": {
            "lat": 35.9956829,
            "lng": -95.774704
          }
        },
        "location": {
          "lat": 37.9642529,
          "lng": -91.8318334
        },
        "location_type": "APPROXIMATE",
        "viewport": {
          "northeast": {
            "lat": 40.61364,
            "lng": -89.09949399999999
          },
          "southwest": {
            "lat": 35.9956829,
            "lng": -95.774704
          }
        }
      },
      "place_id": "ChIJfeMiSNXmwIcRcr1mBFnEW7U",
      "types": [
        "administrative_area_level_1",
        "political"
      ]
    },
    {
      "address_components": [
        {
          "long_name": "United States",
          "short_name": "US",
          "types": [
            "country",
            "political"
          ]
        }
      ],
      "formatted_address": "United States",
      "geometry": {
        "bounds": {
          "northeast": {
            "lat": 71.3867745,
            "lng": -66.9502861
          },
          "southwest": {
            "lat": 18.9106768,
            "lng": 172.4458955
          }
        },
        "location": {
          "lat": 37.09024,
          "lng": -95.712891
        },
        "location_type": "APPROXIMATE",
        "viewport": {
          "northeast": {
            "lat": 49.38,
            "lng": -66.94
          },
          "southwest": {
            "lat": 25.82,
            "lng": -124.39
          }
        }
      },
      "place_id": "ChIJCzYy5IS16lQRQrfeQ5K5Oxw",
      "types": [
        "country",
        "political"
      ]
    }
  ],
  "status": "OK"
}
