{
  "results": [
    {
      "address_components": [
        {
          "long_name": "18",
          "short_name": "18",
          "types": [
            "street_number"
          ]
        },
        {
          "long_name": "Calgary Lane",
          "short_name": "Calgary Ln",
          "types": [
            "route"
          ]
        },
        {
          "long_name": "Binghamton",
          "short_name": "Binghamton",
          "types": [
            "locality",
            "political"
          ]
        },
        {
          "long_name": "Chenango",
          "short_name": "Chenango",
          "types": [
            "administrative_area_level_3",
            "political"
          ]
        },
        {
          "long_name": "Broome County",
          "short_name": "Broome County",
          "types": [
            "administrative_area_level_2",
            "political"
          ]
        },
        {
          "long_name": "New York",
          "short_name": "NY",
          "types": [
            "administrative_area_level_1",
            "political"
          ]
        },
        {
          "long_name": "United States",
          "short_name": "US",
          "types": [
            "country",
            "political"
          ]
        },
        {
          "long_name": "13901",
          "short_name": "13901",
          "types": [
            "postal_code"
          ]
        },
        {
          "long_name": "1339",
          "short_name": "1339",
          "types": [
            "postal_code_suffix"
          ]
        }
      ],
      "formatted_address": "18 Calgary Ln, Binghamton, NY 13901, USA",
      "geometry": {
        "location": {
          "lat": 42.17146400000001,
          "lng": -75.85828099999999
        },
        "location_type": "ROOFTOP",
        "viewport": {
          "northeast": {
            "lat": 42.17281298029151,
            "lng": -75.8569320197085
          },
          "southwest": {
            "lat": 42.17011501970851,
            "lng": -75.8596299802915
          }
        }
      },
      "place_id": "ChIJz0dUlvz62okR9co-I8_atRM",
      "types": [
        "street_address"
      ]
    },
    {
      "address_components": [
        {
          "long_name": "13901",
          "short_name": "13901",
          "types": [
            "postal_code"
          ]
        },
        {
          "long_name": "Binghamton",
          "short_name": "Binghamton",
          "types": [
            "locality",
            "political"
          ]
        },
        {
          "long_name": "Broome County",
          "short_name": "Broome County",
          "types": [
            "administrative_area_level_2",
            "political"
          ]
        },
        {
          "long_name": "New York",
          "short_name": "NY",
          "types": [
            "administrative_area_level_1",
            "political"
          ]
        },
        {
          "long_name": "United States",
          "short_name": "US",
          "types": [
            "country",
            "political"
          ]
        }
      ],
      "formatted_address": "Binghamton, NY 13901, USA",
      "geometry": {
        "bounds": {
          "northeast": {
            "lat": 42.2378659,
            "lng": -75.828548
          },
          "southwest": {
            "lat": 42.091709,
            "lng": -75.92899179999999
          }
        },
        "location": {
          "lat": 42.2014637,
          "lng": -75.8766333
        },
        "location_type": "APPROXIMATE",
        "viewport": {
          "northeast": {
            "lat": 42.2378659,
            "lng": -75.828548
          },
          "southwest": {
            "lat": 42.091709,
            "lng": -75.92899179999999
          }
        }
      },
      "place_id": "ChIJnTPvCVvl2okRxDX7djRPsT0",
      "types": [
        "postal_code"
      ]
    },
    {
      "address_components": [
        {
          "long_name": "Chenango",
          "short_name": "Chenango",
          "types": [
            "administrative_area_level_3",
            "political"
          ]
        },
        {
          "long_name": "Broome County",
          "short_name": "Broome County",
          "types": [
            "administrative_area_level_2",
            "political"
          ]
        },
        {
          "long_name": "New York",
          "short_name": "NY",
          "types": [
            "administrative_area_level_1",
            "political"
          ]
        },
        {
          "long_name": "United States",
          "short_name": "US",
          "types": [
            "country",
            "political"
          ]
        }
      ],
      "formatted_address": "Chenango, NY, USA",
      "geometry": {
        "bounds": {
          "northeast": {
            "lat": 42.2395469,
            "lng": -75.8283368
          },
          "southwest": {
            "lat": 42.13848489999999,
            "lng": -75.96486709999999
          }
        },
        "location": {
          "lat": 42.2014637,
          "lng": -75.8766333
        },
        "location_type": "APPROXIMATE",
        "viewport": {
          "northeast": {
            "lat": 42.2395469,
            "lng": -75.8283368
          },
          "southwest": {
            "lat": 42.13848489999999,
            "lng": -75.96486709999999
          }
        }
      },
      "place_id": "ChIJRdMBTH762okR5IHh5cADbwU",
      "types": [
        "administrative_area_level_3",
        "political"
      ]
    },
    {
      "address_components": [
        {
          "long_name": "Broome County",
          "short_name": "Broome County",
          "types": [
            "administrative_area_level_2",
            "political"
          ]
        },
        {
          "long_name": "New York",
          "short_name": "NY",
          "types": [
            "administrative_area_level_1",
            "political"
          ]
        },
        {
          "long_name": "United States",
          "short_name": "US",
          "types": [
            "country",
            "political"
          ]
        }
      ],
      "formatted_address": "Broome County, NY, USA",
      "geometry": {
        "bounds": {
          "northeast": {
            "lat": 42.41570189999999,
            "lng": -75.359579
          },
          "southwest": {
            "lat": 41.99778999999999,
            "lng": -76.13018100000001
          }
        },
        "location": {
          "lat": 42.1791865,
          "lng": -75.8533954
        },
        "location_type": "APPROXIMATE",
        "viewport": {
          "northeast": {
            "lat": 42.41570189999999,
            "lng": -75.359579
          },
          "southwest": {
            "lat": 41.99778999999999,
            "lng": -76.13018100000001
          }
        }
      },
      "place_id": "ChIJYY7ptUqE2okRMrKzIsAel3M",
      "types": [
        "administrative_area_level_2",
        "political"
      ]
    },
    {
      "address_components": [
        {
          "long_name": "Binghamton",
          "short_name": "Binghamton",
          "types": [
            "political"
          ]
        },
        {
          "long_name": "United States",
          "short_name": "US",
          "types": [
            "country",
            "political"
          ]
        }
      ],
      "formatted_address": "Binghamton, USA",
      "geometry": {
        "bounds": {
          "northeast": {
            "lat": 42.415702,
            "lng": -75.359579
          },
          "southwest": {
            "lat": 41.99786400000001,
            "lng": -76.563394
          }
        },
        "location": {
          "lat": 42.23530170000001,
          "lng": -75.9927652
        },
        "location_type": "APPROXIMATE",
        "viewport": {
          "northeast": {
            "lat": 42.415702,
            "lng": -75.359579
          },
          "southwest": {
            "lat": 41.99786400000001,
            "lng": -76.563394
          }
        }
      },
      "place_id": "ChIJKXR4A3fy2okRw-zjlmmLqOA",
      "types": [
        "political"
      ]
    },
    {
      "address_components": [
        {
          "long_name": "New York",
          "short_name": "NY",
          "types": [
            "administrative_area_level_1",
            "political"
          ]
        },
        {
          "long_name": "United States",
          "short_name": "US",
          "types": [
            "country",
            "political"
          ]
        }
      ],
      "formatted_address": "New York, USA",
      "geometry": {
        "bounds": {
          "northeast": {
            "lat": 45.015865,
            "lng": -71.85620639999999
          },
          "southwest": {
            "lat": 40.496091,
            "lng": -79.76214379999999
          }
        },
        "location": {
          "lat": 43.2994285,
          "lng": -74.21793260000001
        },
        "location_type": "APPROXIMATE",
        "viewport": {
          "northeast": {
            "lat": 45.015859,
            "lng": -71.85620639999999
          },
          "southwest": {
            "lat": 40.496091,
            "lng": -79.76214379999999
          }
        }
      },
      "place_id": "ChIJqaUj8fBLzEwRZ5UY3sHGz90",
      "types": [
        "administrative_area_level_1",
        "political"
      ]
    },
    {
      "address_components": [
        {
          "long_name": "United States",
          "short_name": "US",
          "types": [
            "country",
            "political"
          ]
        }
      ],
      "formatted_address": "United States",
      "geometry": {
        "bounds": {
          "northeast": {
            "lat": 71.3867745,
            "lng": -66.9502861
          },
          "southwest": {
            "lat": 18.9106768,
            "lng": 172.4458955
          }
        },
        "location": {
          "lat": 37.09024,
          "lng": -95.712891
        },
        "location_type": "APPROXIMATE",
        "viewport": {
          "northeast": {
            "lat": 49.38,
            "lng": -66.94
          },
          "southwest": {
            "lat": 25.82,
            "lng": -124.39
          }
        }
      },
      "place_id": "ChIJCzYy5IS16lQRQrfeQ5K5Oxw",
      "types": [
        "country",
        "political"
      ]
    }
  ],
  "status": "OK"
}
