{
  "results": [
    {
      "address_components": [
        {
          "long_name": "317",
          "short_name": "317",
          "types": [
            "street_number"
          ]
        },
        {
          "long_name": "Main Street",
          "short_name": "Main St",
          "types": [
            "route"
          ]
        },
        {
          "long_name": "Stapleton",
          "short_name": "Stapleton",
          "types": [
            "locality",
            "political"
          ]
        },
        {
          "long_name": "Logan County",
          "short_name": "Logan County",
          "types": [
            "administrative_area_level_2",
            "political"
          ]
        },
        {
          "long_name": "Nebraska",
          "short_name": "NE",
          "types": [
            "administrative_area_level_1",
            "political"
          ]
        },
        {
          "long_name": "United States",
          "short_name": "US",
          "types": [
            "country",
            "political"
          ]
        },
        {
          "long_name": "69163",
          "short_name": "69163",
          "types": [
            "postal_code"
          ]
        }
      ],
      "formatted_address": "317 Main St, Stapleton, NE 69163, USA",
      "geometry": {
        "location": {
          "lat": 41.4799099,
          "lng": -100.5127217
        },
        "location_type": "ROOFTOP",
        "viewport": {
          "northeast": {
            "lat": 41.4812588802915,
            "lng": -100.5113727197085
          },
          "southwest": {
            "lat": 41.4785609197085,
            "lng": -100.5140706802915
          }
        }
      },
      "place_id": "ChIJLZMt1SB5nYcRfR4GQY9RLhs",
      "types": [
        "street_address"
      ]
    },
    {
      "address_components": [
        {
          "long_name": "Stapleton",
          "short_name": "Stapleton",
          "types": [
            "locality",
            "political"
          ]
        },
        {
          "long_name": "Logan County",
          "short_name": "Logan County",
          "types": [
            "administrative_area_level_2",
            "political"
          ]
        },
        {
          "long_name": "Nebraska",
          "short_name": "NE",
          "types": [
            "administrative_area_level_1",
            "political"
          ]
        },
        {
          "long_name": "United States",
          "short_name": "US",
          "types": [
            "country",
            "political"
          ]
        },
        {
          "long_name": "69163",
          "short_name": "69163",
          "types": [
            "postal_code"
          ]
        }
      ],
      "formatted_address": "Stapleton, NE 69163, USA",
      "geometry": {
        "bounds": {
          "northeast": {
            "lat": 41.4853899,
            "lng": -100.5065941
          },
          "southwest": {
            "lat": 41.475752,
            "lng": -100.5186361
          }
        },
        "location": {
          "lat": 41.4802753,
          "lng": -100.5129196
        },
        "location_type": "APPROXIMATE",
        "viewport": {
          "northeast": {
            "lat": 41.4853899,
            "lng": -100.5065941
          },
          "southwest": {
            "lat": 41.475752,
            "lng": -100.5186361
          }
        }
      },
      "place_id": "ChIJxVNGKyF5nYcRhF8xA2_px6w",
      "types": [
        "locality",
        "political"
      ]
    },
    {
      "address_components": [
        {
          "long_name": "Logan County",
          "short_name": "Logan County",
          "types": [
            "administrative_area_level_2",
            "political"
          ]
        },
        {
          "long_name": "Nebraska",
          "short_name": "NE",
          "types": [
            "administrative_area_level_1",
            "political"
          ]
        },
        {
          "long_name": "United States",
          "short_name": "US",
          "types": [
            "country",
            "political"
          ]
        }
      ],
      "formatted_address": "Logan County, NE, USA",
      "geometry": {
        "bounds": {
          "northeast": {
            "lat": 41.740127,
            "lng": -100.251098
          },
          "southwest": {
            "lat": 41.39313689999999,
            "lng": -100.714847
          }
        },
        "location": {
          "lat": 41.5155698,
          "lng": -100.5296115
        },
        "location_type": "APPROXIMATE",
        "viewport": {
          "northeast": {
            "lat": 41.740127,
            "lng": -100.251098
          },
          "southwest": {
            "lat": 41.39313689999999,
            "lng": -100.714847
          }
        }
      },
      "place_id": "ChIJ4-QiuFx5nYcRxF73urhDC3U",
      "types": [
        "administrative_area_level_2",
        "political"
      ]
    },
    {
      "address_components": [
        {
          "long_name": "69163",
          "short_name": "69163",
          "types": [
            "postal_code"
          ]
        },
        {
          "long_name": "Stapleton",
          "short_name": "Stapleton",
          "types": [
            "locality",
            "political"
          ]
        },
        {
          "long_name": "Nebraska",
          "short_name": "NE",
          "types": [
            "administrative_area_level_1",
            "political"
          ]
        },
        {
          "long_name": "United States",
          "short_name": "US",
          "types": [
            "country",
            "political"
          ]
        }
      ],
      "formatted_address": "Stapleton, NE 69163, USA",
      "geometry": {
        "bounds": {
          "northeast": {
            "lat": 41.8942469,
            "lng": -100.308373
          },
          "southwest": {
            "lat": 41.2630679,
            "lng": -100.843756
          }
        },
        "location": {
          "lat": 41.5155698,
          "lng": -100.5296115
        },
        "location_type": "APPROXIMATE",
        "viewport": {
          "northeast": {
            "lat": 41.8942469,
            "lng": -100.308373
          },
          "southwest": {
            "lat": 41.2630679,
            "lng": -100.843756
          }
        }
      },
      "place_id": "ChIJKzjvcIB5nYcRiHvO32u1TcI",
      "types": [
        "postal_code"
      ]
    },
    {
      "address_components": [
        {
          "long_name": "North Platte",
          "short_name": "North Platte",
          "types": [
            "political"
          ]
        },
        {
          "long_name": "Nebraska",
          "short_name": "NE",
          "types": [
            "administrative_area_level_1",
            "political"
          ]
        },
        {
          "long_name": "United States",
          "short_name": "US",
          "types": [
            "country",
            "political"
          ]
        }
      ],
      "formatted_address": "North Platte, NE, USA",
      "geometry": {
        "bounds": {
          "northeast": {
            "lat": 41.743559,
            "lng": -100.223311
          },
          "southwest": {
            "lat": 40.69779399999999,
            "lng": -101.4072671
          }
        },
        "location": {
          "lat": 41.2524748,
          "lng": -100.8000051
        },
        "location_type": "APPROXIMATE",
        "viewport": {
          "northeast": {
            "lat": 41.743559,
            "lng": -100.223311
          },
          "southwest": {
            "lat": 40.69779399999999,
            "lng": -101.4072671
          }
        }
      },
      "place_id": "ChIJA5n_GRUldocRktotUMjUmyo",
      "types": [
        "political"
      ]
    },
    {
      "address_components": [
        {
          "long_name": "Nebraska",
          "short_name": "NE",
          "types": [
            "administrative_area_level_1",
            "political"
          ]
        },
        {
          "long_name": "United States",
          "short_name": "US",
          "types": [
            "country",
            "political"
          ]
        }
      ],
      "formatted_address": "Nebraska, USA",
      "geometry": {
        "bounds": {
          "northeast": {
            "lat": 43.00170689999999,
            "lng": -95.30829000000001
          },
          "southwest": {
            "lat": 39.999932,
            "lng": -104.053514
          }
        },
        "location": {
          "lat": 41.4925374,
          "lng": -99.9018131
        },
        "location_type": "APPROXIMATE",
        "viewport": {
          "northeast": {
            "lat": 43.00170689999999,
            "lng": -95.30829000000001
          },
          "southwest": {
            "lat": 39.999932,
            "lng": -104.053514
          }
        }
      },
      "place_id": "ChIJ7fwMtciNk4cRxArzDwyQJ6E",
      "types": [
        "administrative_area_level_1",
        "political"
      ]
    },
    {
      "address_components": [
        {
          "long_name": "United States",
          "short_name": "US",
          "types": [
            "country",
            "political"
          ]
        }
      ],
      "formatted_address": "United States",
      "geometry": {
        "bounds": {
          "northeast": {
            "lat": 71.3867745,
            "lng": -66.9502861
          },
          "southwest": {
            "lat": 18.9106768,
            "lng": 172.4458955
          }
        },
        "location": {
          "lat": 37.09024,
          "lng": -95.712891
        },
        "location_type": "APPROXIMATE",
        "viewport": {
          "northeast": {
            "lat": 49.38,
            "lng": -66.94
          },
          "southwest": {
            "lat": 25.82,
            "lng": -124.39
          }
        }
      },
      "place_id": "ChIJCzYy5IS16lQRQrfeQ5K5Oxw",
      "types": [
        "country",
        "political"
      ]
    }
  ],
  "status": "OK"
}
