{
  "results": [
    {
      "address_components": [
        {
          "long_name": "16200-16398",
          "short_name": "16200-16398",
          "types": [
            "street_number"
          ]
        },
        {
          "long_name": "Zeba Trailer Park C",
          "short_name": "Zeba Trailer Park C",
          "types": [
            "route"
          ]
        },
        {
          "long_name": "L'Anse",
          "short_name": "L'Anse",
          "types": [
            "locality",
            "political"
          ]
        },
        {
          "long_name": "L'Anse Township",
          "short_name": "L'Anse Township",
          "types": [
            "administrative_area_level_3",
            "political"
          ]
        },
        {
          "long_name": "Baraga County",
          "short_name": "Baraga County",
          "types": [
            "administrative_area_level_2",
            "political"
          ]
        },
        {
          "long_name": "Michigan",
          "short_name": "MI",
          "types": [
            "administrative_area_level_1",
            "political"
          ]
        },
        {
          "long_name": "United States",
          "short_name": "US",
          "types": [
            "country",
            "political"
          ]
        },
        {
          "long_name": "49946",
          "short_name": "49946",
          "types": [
            "postal_code"
          ]
        }
      ],
      "formatted_address": "16200-16398 Zeba Trailer Park C, L'Anse, MI 49946, USA",
      "geometry": {
        "bounds": {
          "northeast": {
            "lat": 46.7953467,
            "lng": -88.4106902
          },
          "southwest": {
            "lat": 46.7942648,
            "lng": -88.4140747
          }
        },
        "location": {
          "lat": 46.794258,
          "lng": -88.4132887
        },
        "location_type": "RANGE_INTERPOLATED",
        "viewport": {
          "northeast": {
            "lat": 46.7961547302915,
            "lng": -88.4106902
          },
          "southwest": {
            "lat": 46.7934567697085,
            "lng": -88.4140747
          }
        }
      },
      "place_id": "EjYxNjIwMC0xNjM5OCBaZWJhIFRyYWlsZXIgUGFyayBDLCBMJ0Fuc2UsIE1JIDQ5OTQ2LCBVU0E",
      "types": [
        "street_address"
      ]
    },
    {
      "address_components": [
        {
          "long_name": "L'Anse Township",
          "short_name": "L'Anse Township",
          "types": [
            "administrative_area_level_3",
            "political"
          ]
        },
        {
          "long_name": "Baraga County",
          "short_name": "Baraga County",
          "types": [
            "administrative_area_level_2",
            "political"
          ]
        },
        {
          "long_name": "Michigan",
          "short_name": "MI",
          "types": [
            "administrative_area_level_1",
            "political"
          ]
        },
        {
          "long_name": "United States",
          "short_name": "US",
          "types": [
            "country",
            "political"
          ]
        }
      ],
      "formatted_address": "L'Anse Township, MI, USA",
      "geometry": {
        "bounds": {
          "northeast": {
            "lat": 46.8964516,
            "lng": -87.9911589
          },
          "southwest": {
            "lat": 46.59231200000001,
            "lng": -88.4910139
          }
        },
        "location": {
          "lat": 46.6972377,
          "lng": -88.344501
        },
        "location_type": "APPROXIMATE",
        "viewport": {
          "northeast": {
            "lat": 46.8964516,
            "lng": -87.9911589
          },
          "southwest": {
            "lat": 46.59231200000001,
            "lng": -88.4910139
          }
        }
      },
      "place_id": "ChIJzQ97e5ccUU0R2PHLdOwsY7w",
      "types": [
        "administrative_area_level_3",
        "political"
      ]
    },
    {
      "address_components": [
        {
          "long_name": "49946",
          "short_name": "49946",
          "types": [
            "postal_code"
          ]
        },
        {
          "long_name": "L'Anse",
          "short_name": "L'Anse",
          "types": [
            "locality",
            "political"
          ]
        },
        {
          "long_name": "Michigan",
          "short_name": "MI",
          "types": [
            "administrative_area_level_1",
            "political"
          ]
        },
        {
          "long_name": "United States",
          "short_name": "US",
          "types": [
            "country",
            "political"
          ]
        }
      ],
      "formatted_address": "L'Anse, MI 49946, USA",
      "geometry": {
        "bounds": {
          "northeast": {
            "lat": 46.969003,
            "lng": -88.116218
          },
          "southwest": {
            "lat": 46.536896,
            "lng": -88.5523668
          }
        },
        "location": {
          "lat": 46.7566255,
          "lng": -88.452979
        },
        "location_type": "APPROXIMATE",
        "viewport": {
          "northeast": {
            "lat": 46.969003,
            "lng": -88.116218
          },
          "southwest": {
            "lat": 46.536896,
            "lng": -88.5523668
          }
        }
      },
      "place_id": "ChIJK1YOmA3bUE0RPewXcnIUvUg",
      "types": [
        "postal_code"
      ]
    },
    {
      "address_components": [
        {
          "long_name": "Baraga County",
          "short_name": "Baraga County",
          "types": [
            "administrative_area_level_2",
            "political"
          ]
        },
        {
          "long_name": "Michigan",
          "short_name": "MI",
          "types": [
            "administrative_area_level_1",
            "political"
          ]
        },
        {
          "long_name": "United States",
          "short_name": "US",
          "types": [
            "country",
            "political"
          ]
        }
      ],
      "formatted_address": "Baraga County, MI, USA",
      "geometry": {
        "bounds": {
          "northeast": {
            "lat": 46.9670138,
            "lng": -87.9911589
          },
          "southwest": {
            "lat": 46.4196169,
            "lng": -88.679453
          }
        },
        "location": {
          "lat": 46.7352761,
          "lng": -88.3010401
        },
        "location_type": "APPROXIMATE",
        "viewport": {
          "northeast": {
            "lat": 46.9670138,
            "lng": -87.9911589
          },
          "southwest": {
            "lat": 46.4196169,
            "lng": -88.679453
          }
        }
      },
      "place_id": "ChIJxU35nhcsUU0RnxY3XRaEYTk",
      "types": [
        "administrative_area_level_2",
        "political"
      ]
    },
    {
      "address_components": [
        {
          "long_name": "Michigan",
          "short_name": "MI",
          "types": [
            "administrative_area_level_1",
            "political"
          ]
        },
        {
          "long_name": "United States",
          "short_name": "US",
          "types": [
            "country",
            "political"
          ]
        }
      ],
      "formatted_address": "Michigan, USA",
      "geometry": {
        "bounds": {
          "northeast": {
            "lat": 48.1986461,
            "lng": -82.413474
          },
          "southwest": {
            "lat": 41.696118,
            "lng": -90.4181358
          }
        },
        "location": {
          "lat": 44.3148443,
          "lng": -85.60236429999999
        },
        "location_type": "APPROXIMATE",
        "viewport": {
          "northeast": {
            "lat": 48.198602,
            "lng": -82.413474
          },
          "southwest": {
            "lat": 41.696118,
            "lng": -90.4181358
          }
        }
      },
      "place_id": "ChIJEQTKxz2qTE0Rs8liellI3Zc",
      "types": [
        "administrative_area_level_1",
        "political"
      ]
    },
    {
      "address_components": [
        {
          "long_name": "United States",
          "short_name": "US",
          "types": [
            "country",
            "political"
          ]
        }
      ],
      "formatted_address": "United States",
      "geometry": {
        "bounds": {
          "northeast": {
            "lat": 71.3867745,
            "lng": -66.9502861
          },
          "southwest": {
            "lat": 18.9106768,
            "lng": 172.4458955
          }
        },
        "location": {
          "lat": 37.09024,
          "lng": -95.712891
        },
        "location_type": "APPROXIMATE",
        "viewport": {
          "northeast": {
            "lat": 49.38,
            "lng": -66.94
          },
          "southwest": {
            "lat": 25.82,
            "lng": -124.39
          }
        }
      },
      "place_id": "ChIJCzYy5IS16lQRQrfeQ5K5Oxw",
      "types": [
        "country",
        "political"
      ]
    }
  ],
  "status": "OK"
}
