{
  "results": [
    {
      "address_components": [
        {
          "long_name": "1863",
          "short_name": "1863",
          "types": [
            "street_number"
          ]
        },
        {
          "long_name": "Saint Paul Road",
          "short_name": "St Paul Rd",
          "types": [
            "route"
          ]
        },
        {
          "long_name": "Saint Paul",
          "short_name": "St Paul",
          "types": [
            "locality",
            "political"
          ]
        },
        {
          "long_name": "Wentzville Township",
          "short_name": "Wentzville Township",
          "types": [
            "administrative_area_level_3",
            "political"
          ]
        },
        {
          "long_name": "St. Charles County",
          "short_name": "St Charles County",
          "types": [
            "administrative_area_level_2",
            "political"
          ]
        },
        {
          "long_name": "Missouri",
          "short_name": "MO",
          "types": [
            "administrative_area_level_1",
            "political"
          ]
        },
        {
          "long_name": "United States",
          "short_name": "US",
          "types": [
            "country",
            "political"
          ]
        },
        {
          "long_name": "63366",
          "short_name": "63366",
          "types": [
            "postal_code"
          ]
        }
      ],
      "formatted_address": "1863 St Paul Rd, St Paul, MO 63366, USA",
      "geometry": {
        "location": {
          "lat": 38.84567,
          "lng": -90.74033
        },
        "location_type": "ROOFTOP",
        "viewport": {
          "northeast": {
            "lat": 38.84701898029149,
            "lng": -90.73898101970849
          },
          "southwest": {
            "lat": 38.8443210197085,
            "lng": -90.74167898029151
          }
        }
      },
      "place_id": "ChIJC7F5QMTa3ocRIyPXXneFrlc",
      "types": [
        "street_address"
      ]
    },
    {
      "address_components": [
        {
          "long_name": "Saint Paul",
          "short_name": "St Paul",
          "types": [
            "locality",
            "political"
          ]
        },
        {
          "long_name": "Wentzville Township",
          "short_name": "Wentzville Township",
          "types": [
            "administrative_area_level_3",
            "political"
          ]
        },
        {
          "long_name": "St. Charles County",
          "short_name": "St Charles County",
          "types": [
            "administrative_area_level_2",
            "political"
          ]
        },
        {
          "long_name": "Missouri",
          "short_name": "MO",
          "types": [
            "administrative_area_level_1",
            "political"
          ]
        },
        {
          "long_name": "United States",
          "short_name": "US",
          "types": [
            "country",
            "political"
          ]
        }
      ],
      "formatted_address": "St Paul, MO, USA",
      "geometry": {
        "bounds": {
          "northeast": {
            "lat": 38.882351,
            "lng": -90.708219
          },
          "southwest": {
            "lat": 38.816927,
            "lng": -90.772227
          }
        },
        "location": {
          "lat": 38.8614405,
          "lng": -90.741793
        },
        "location_type": "APPROXIMATE",
        "viewport": {
          "northeast": {
            "lat": 38.882351,
            "lng": -90.708219
          },
          "southwest": {
            "lat": 38.816927,
            "lng": -90.772227
          }
        }
      },
      "place_id": "ChIJW_tqRnra3ocRZh4oSWxUR9I",
      "types": [
        "locality",
        "political"
      ]
    },
    {
      "address_components": [
        {
          "long_name": "63366",
          "short_name": "63366",
          "types": [
            "postal_code"
          ]
        },
        {
          "long_name": "O'Fallon",
          "short_name": "O'Fallon",
          "types": [
            "locality",
            "political"
          ]
        },
        {
          "long_name": "Missouri",
          "short_name": "MO",
          "types": [
            "administrative_area_level_1",
            "political"
          ]
        },
        {
          "long_name": "United States",
          "short_name": "US",
          "types": [
            "country",
            "political"
          ]
        }
      ],
      "formatted_address": "O'Fallon, MO 63366, USA",
      "geometry": {
        "bounds": {
          "northeast": {
            "lat": 38.937044,
            "lng": -90.6182099
          },
          "southwest": {
            "lat": 38.760908,
            "lng": -90.81429290000001
          }
        },
        "location": {
          "lat": 38.8809704,
          "lng": -90.73427339999999
        },
        "location_type": "APPROXIMATE",
        "viewport": {
          "northeast": {
            "lat": 38.937044,
            "lng": -90.6182099
          },
          "southwest": {
            "lat": 38.760908,
            "lng": -90.81429290000001
          }
        }
      },
      "place_id": "ChIJPy6SlBXP3ocRrjiLiYIvTBQ",
      "postcode_localities": [
        "Cottleville",
        "Dardenne Prairie",
        "O'Fallon",
        "Saint Paul",
        "Saint Peters"
      ],
      "types": [
        "postal_code"
      ]
    },
    {
      "address_components": [
        {
          "long_name": "Wentzville Township",
          "short_name": "Wentzville Township",
          "types": [
            "administrative_area_level_3",
            "political"
          ]
        },
        {
          "long_name": "St. Charles County",
          "short_name": "St Charles County",
          "types": [
            "administrative_area_level_2",
            "political"
          ]
        },
        {
          "long_name": "Missouri",
          "short_name": "MO",
          "types": [
            "administrative_area_level_1",
            "political"
          ]
        },
        {
          "long_name": "United States",
          "short_name": "US",
          "types": [
            "country",
            "political"
          ]
        }
      ],
      "formatted_address": "Wentzville Township, MO, USA",
      "geometry": {
        "bounds": {
          "northeast": {
            "lat": 38.923164,
            "lng": -90.6891239
          },
          "southwest": {
            "lat": 38.8024519,
            "lng": -90.96100899999999
          }
        },
        "location": {
          "lat": 38.8386608,
          "lng": -90.810357
        },
        "location_type": "APPROXIMATE",
        "viewport": {
          "northeast": {
            "lat": 38.923164,
            "lng": -90.6891239
          },
          "southwest": {
            "lat": 38.8024519,
            "lng": -90.96100899999999
          }
        }
      },
      "place_id": "ChIJK9X-VinE3ocR10ZH2tyL7dE",
      "types": [
        "administrative_area_level_3",
        "political"
      ]
    },
    {
      "address_components": [
        {
          "long_name": "St. Charles County",
          "short_name": "St Charles County",
          "types": [
            "administrative_area_level_2",
            "political"
          ]
        },
        {
          "long_name": "Missouri",
          "short_name": "MO",
          "types": [
            "administrative_area_level_1",
            "political"
          ]
        },
        {
          "long_name": "United States",
          "short_name": "US",
          "types": [
            "country",
            "political"
          ]
        }
      ],
      "formatted_address": "St Charles County, MO, USA",
      "geometry": {
        "bounds": {
          "northeast": {
            "lat": 38.96776880000001,
            "lng": -90.1091069
          },
          "southwest": {
            "lat": 38.5341339,
            "lng": -90.964461
          }
        },
        "location": {
          "lat": 38.7338885,
          "lng": -90.8294002
        },
        "location_type": "APPROXIMATE",
        "viewport": {
          "northeast": {
            "lat": 38.96776880000001,
            "lng": -90.1091069
          },
          "southwest": {
            "lat": 38.5341339,
            "lng": -90.964461
          }
        }
      },
      "place_id": "ChIJ8_ejCwAp34cR6jFA8VaN-pA",
      "types": [
        "administrative_area_level_2",
        "political"
      ]
    },
    {
      "address_components": [
        {
          "long_name": "St. Louis",
          "short_name": "St. Louis",
          "types": [
            "political"
          ]
        },
        {
          "long_name": "United States",
          "short_name": "US",
          "types": [
            "country",
            "political"
          ]
        }
      ],
      "formatted_address": "St. Louis, USA",
      "geometry": {
        "bounds": {
          "northeast": {
            "lat": 39.5233661,
            "lng": -89.138356
          },
          "southwest": {
            "lat": 37.7341961,
            "lng": -91.4186371
          }
        },
        "location": {
          "lat": 38.8196814,
          "lng": -90.4502368
        },
        "location_type": "APPROXIMATE",
        "viewport": {
          "northeast": {
            "lat": 39.5233661,
            "lng": -89.138356
          },
          "southwest": {
            "lat": 37.7341961,
            "lng": -91.4186371
          }
        }
      },
      "place_id": "ChIJneBzzj4z34cRFGg2ez6q57o",
      "types": [
        "political"
      ]
    },
    {
      "address_components": [
        {
          "long_name": "Missouri",
          "short_name": "MO",
          "types": [
            "administrative_area_level_1",
            "political"
          ]
        },
        {
          "long_name": "United States",
          "short_name": "US",
          "types": [
            "country",
            "political"
          ]
        }
      ],
      "formatted_address": "Missouri, USA",
      "geometry": {
        "bounds": {
          "northeast": {
            "lat": 40.61364,
            "lng": -89.09949399999999
          },
          "southwest": {
            "lat": 35.9956829,
            "lng": -95.774704
          }
        },
        "location": {
          "lat": 37.9642529,
          "lng": -91.8318334
        },
        "location_type": "APPROXIMATE",
        "viewport": {
          "northeast": {
            "lat": 40.61364,
            "lng": -89.09949399999999
          },
          "southwest": {
            "lat": 35.9956829,
            "lng": -95.774704
          }
        }
      },
      "place_id": "ChIJfeMiSNXmwIcRcr1mBFnEW7U",
      "types": [
        "administrative_area_level_1",
        "political"
      ]
    },
    {
      "address_components": [
        {
          "long_name": "United States",
          "short_name": "US",
          "types": [
            "country",
            "political"
          ]
        }
      ],
      "formatted_address": "United States",
      "geometry": {
        "bounds": {
          "northeast": {
            "lat": 71.3867745,
            "lng": -66.9502861
          },
          "southwest": {
            "lat": 18.9106768,
            "lng": 172.4458955
          }
        },
        "location": {
          "lat": 37.09024,
          "lng": -95.712891
        },
        "location_type": "APPROXIMATE",
        "viewport": {
          "northeast": {
            "lat": 49.38,
            "lng": -66.94
          },
          "southwest": {
            "lat": 25.82,
            "lng": -124.39
          }
        }
      },
      "place_id": "ChIJCzYy5IS16lQRQrfeQ5K5Oxw",
      "types": [
        "country",
        "political"
      ]
    }
  ],
  "status": "OK"
}
