{
  "results": [
    {
      "address_components": [
        {
          "long_name": "101-113",
          "short_name": "101-113",
          "types": [
            "street_number"
          ]
        },
        {
          "long_name": "West 5th Street",
          "short_name": "W 5th St",
          "types": [
            "route"
          ]
        },
        {
          "long_name": "Hoyt",
          "short_name": "Hoyt",
          "types": [
            "locality",
            "political"
          ]
        },
        {
          "long_name": "Douglas",
          "short_name": "Douglas",
          "types": [
            "administrative_area_level_3",
            "political"
          ]
        },
        {
          "long_name": "Jackson County",
          "short_name": "Jackson County",
          "types": [
            "administrative_area_level_2",
            "political"
          ]
        },
        {
          "long_name": "Kansas",
          "short_name": "KS",
          "types": [
            "administrative_area_level_1",
            "political"
          ]
        },
        {
          "long_name": "United States",
          "short_name": "US",
          "types": [
            "country",
            "political"
          ]
        },
        {
          "long_name": "66440",
          "short_name": "66440",
          "types": [
            "postal_code"
          ]
        },
        {
          "long_name": "9680",
          "short_name": "9680",
          "types": [
            "postal_code_suffix"
          ]
        }
      ],
      "formatted_address": "101-113 W 5th St, Hoyt, KS 66440, USA",
      "geometry": {
        "bounds": {
          "northeast": {
            "lat": 39.249966,
            "lng": -95.707054
          },
          "southwest": {
            "lat": 39.2499511,
            "lng": -95.7089353
          }
        },
        "location": {
          "lat": 39.2499434,
          "lng": -95.7080739
        },
        "location_type": "RANGE_INTERPOLATED",
        "viewport": {
          "northeast": {
            "lat": 39.2513075302915,
            "lng": -95.7066456697085
          },
          "southwest": {
            "lat": 39.2486095697085,
            "lng": -95.7093436302915
          }
        }
      },
      "place_id": "EiUxMDEtMTEzIFcgNXRoIFN0LCBIb3l0LCBLUyA2NjQ0MCwgVVNB",
      "types": [
        "street_address"
      ]
    },
    {
      "address_components": [
        {
          "long_name": "Hoyt",
          "short_name": "Hoyt",
          "types": [
            "locality",
            "political"
          ]
        },
        {
          "long_name": "Douglas",
          "short_name": "Douglas",
          "types": [
            "administrative_area_level_3",
            "political"
          ]
        },
        {
          "long_name": "Jackson County",
          "short_name": "Jackson County",
          "types": [
            "administrative_area_level_2",
            "political"
          ]
        },
        {
          "long_name": "Kansas",
          "short_name": "KS",
          "types": [
            "administrative_area_level_1",
            "political"
          ]
        },
        {
          "long_name": "United States",
          "short_name": "US",
          "types": [
            "country",
            "political"
          ]
        },
        {
          "long_name": "66440",
          "short_name": "66440",
          "types": [
            "postal_code"
          ]
        }
      ],
      "formatted_address": "Hoyt, KS 66440, USA",
      "geometry": {
        "bounds": {
          "northeast": {
            "lat": 39.25717480000001,
            "lng": -95.70027689999999
          },
          "southwest": {
            "lat": 39.2419601,
            "lng": -95.723916
          }
        },
        "location": {
          "lat": 39.247775,
          "lng": -95.70637099999999
        },
        "location_type": "APPROXIMATE",
        "viewport": {
          "northeast": {
            "lat": 39.25717480000001,
            "lng": -95.70027689999999
          },
          "southwest": {
            "lat": 39.2419601,
            "lng": -95.713903
          }
        }
      },
      "place_id": "ChIJZf5lLVurv4cRPBruueJaueI",
      "types": [
        "locality",
        "political"
      ]
    },
    {
      "address_components": [
        {
          "long_name": "66440",
          "short_name": "66440",
          "types": [
            "postal_code"
          ]
        },
        {
          "long_name": "Hoyt",
          "short_name": "Hoyt",
          "types": [
            "locality",
            "political"
          ]
        },
        {
          "long_name": "Kansas",
          "short_name": "KS",
          "types": [
            "administrative_area_level_1",
            "political"
          ]
        },
        {
          "long_name": "United States",
          "short_name": "US",
          "types": [
            "country",
            "political"
          ]
        }
      ],
      "formatted_address": "Hoyt, KS 66440, USA",
      "geometry": {
        "bounds": {
          "northeast": {
            "lat": 39.34682189999999,
            "lng": -95.607754
          },
          "southwest": {
            "lat": 39.215641,
            "lng": -95.766425
          }
        },
        "location": {
          "lat": 39.2452642,
          "lng": -95.6668306
        },
        "location_type": "APPROXIMATE",
        "viewport": {
          "northeast": {
            "lat": 39.34682189999999,
            "lng": -95.607754
          },
          "southwest": {
            "lat": 39.215641,
            "lng": -95.766425
          }
        }
      },
      "place_id": "ChIJ-bKlpICrv4cRiSPWw6JPbRU",
      "types": [
        "postal_code"
      ]
    },
    {
      "address_components": [
        {
          "long_name": "Douglas",
          "short_name": "Douglas",
          "types": [
            "administrative_area_level_3",
            "political"
          ]
        },
        {
          "long_name": "Jackson County",
          "short_name": "Jackson County",
          "types": [
            "administrative_area_level_2",
            "political"
          ]
        },
        {
          "long_name": "Kansas",
          "short_name": "KS",
          "types": [
            "administrative_area_level_1",
            "political"
          ]
        },
        {
          "long_name": "United States",
          "short_name": "US",
          "types": [
            "country",
            "political"
          ]
        }
      ],
      "formatted_address": "Douglas, KS, USA",
      "geometry": {
        "bounds": {
          "northeast": {
            "lat": 39.3181268,
            "lng": -95.588982
          },
          "southwest": {
            "lat": 39.21608090000001,
            "lng": -95.7941269
          }
        },
        "location": {
          "lat": 39.2452642,
          "lng": -95.6668306
        },
        "location_type": "APPROXIMATE",
        "viewport": {
          "northeast": {
            "lat": 39.3181268,
            "lng": -95.588982
          },
          "southwest": {
            "lat": 39.21608090000001,
            "lng": -95.7941269
          }
        }
      },
      "place_id": "ChIJld0NDIGsv4cROC6Ggvj2AKY",
      "types": [
        "administrative_area_level_3",
        "political"
      ]
    },
    {
      "address_components": [
        {
          "long_name": "Jackson County",
          "short_name": "Jackson County",
          "types": [
            "administrative_area_level_2",
            "political"
          ]
        },
        {
          "long_name": "Kansas",
          "short_name": "KS",
          "types": [
            "administrative_area_level_1",
            "political"
          ]
        },
        {
          "long_name": "United States",
          "short_name": "US",
          "types": [
            "country",
            "political"
          ]
        }
      ],
      "formatted_address": "Jackson County, KS, USA",
      "geometry": {
        "bounds": {
          "northeast": {
            "lat": 39.6532219,
            "lng": -95.5641519
          },
          "southwest": {
            "lat": 39.21608090000001,
            "lng": -96.03618089999999
          }
        },
        "location": {
          "lat": 39.4241422,
          "lng": -95.81428849999999
        },
        "location_type": "APPROXIMATE",
        "viewport": {
          "northeast": {
            "lat": 39.6532219,
            "lng": -95.5641519
          },
          "southwest": {
            "lat": 39.21608090000001,
            "lng": -96.03618089999999
          }
        }
      },
      "place_id": "ChIJeTHpM6xLvocRmqBddgOMnj8",
      "types": [
        "administrative_area_level_2",
        "political"
      ]
    },
    {
      "address_components": [
        {
          "long_name": "Topeka",
          "short_name": "Topeka",
          "types": [
            "political"
          ]
        },
        {
          "long_name": "Kansas",
          "short_name": "KS",
          "types": [
            "administrative_area_level_1",
            "political"
          ]
        },
        {
          "long_name": "United States",
          "short_name": "US",
          "types": [
            "country",
            "political"
          ]
        }
      ],
      "formatted_address": "Topeka, KS, USA",
      "geometry": {
        "bounds": {
          "northeast": {
            "lat": 39.6532219,
            "lng": -95.17948899999999
          },
          "southwest": {
            "lat": 38.434043,
            "lng": -96.5017111
          }
        },
        "location": {
          "lat": 39.0928449,
          "lng": -95.81428849999999
        },
        "location_type": "APPROXIMATE",
        "viewport": {
          "northeast": {
            "lat": 39.6532219,
            "lng": -95.17948899999999
          },
          "southwest": {
            "lat": 38.434043,
            "lng": -96.5017111
          }
        }
      },
      "place_id": "ChIJWftziY_8vocR0LV20sfCpFs",
      "types": [
        "political"
      ]
    },
    {
      "address_components": [
        {
          "long_name": "Kansas",
          "short_name": "KS",
          "types": [
            "administrative_area_level_1",
            "political"
          ]
        },
        {
          "long_name": "United States",
          "short_name": "US",
          "types": [
            "country",
            "political"
          ]
        }
      ],
      "formatted_address": "Kansas, USA",
      "geometry": {
        "bounds": {
          "northeast": {
            "lat": 40.0045419,
            "lng": -94.588387
          },
          "southwest": {
            "lat": 36.9930159,
            "lng": -102.0517688
          }
        },
        "location": {
          "lat": 39.011902,
          "lng": -98.4842465
        },
        "location_type": "APPROXIMATE",
        "viewport": {
          "northeast": {
            "lat": 40.0045419,
            "lng": -94.588387
          },
          "southwest": {
            "lat": 36.9930159,
            "lng": -102.0517688
          }
        }
      },
      "place_id": "ChIJawF8cXEXo4cRXwk-S6m0wmg",
      "types": [
        "administrative_area_level_1",
        "political"
      ]
    },
    {
      "address_components": [
        {
          "long_name": "United States",
          "short_name": "US",
          "types": [
            "country",
            "political"
          ]
        }
      ],
      "formatted_address": "United States",
      "geometry": {
        "bounds": {
          "northeast": {
            "lat": 71.3867745,
            "lng": -66.9502861
          },
          "southwest": {
            "lat": 18.9106768,
            "lng": 172.4458955
          }
        },
        "location": {
          "lat": 37.09024,
          "lng": -95.712891
        },
        "location_type": "APPROXIMATE",
        "viewport": {
          "northeast": {
            "lat": 49.38,
            "lng": -66.94
          },
          "southwest": {
            "lat": 25.82,
            "lng": -124.39
          }
        }
      },
      "place_id": "ChIJCzYy5IS16lQRQrfeQ5K5Oxw",
      "types": [
        "country",
        "political"
      ]
    }
  ],
  "status": "OK"
}
