{
  "results": [
    {
      "address_components": [
        {
          "long_name": "601-699",
          "short_name": "601-699",
          "types": [
            "street_number"
          ]
        },
        {
          "long_name": "Fairmount Avenue",
          "short_name": "Fairmount Ave",
          "types": [
            "route"
          ]
        },
        {
          "long_name": "Jonesboro",
          "short_name": "Jonesboro",
          "types": [
            "locality",
            "political"
          ]
        },
        {
          "long_name": "Mill Township",
          "short_name": "Mill Township",
          "types": [
            "administrative_area_level_3",
            "political"
          ]
        },
        {
          "long_name": "Grant County",
          "short_name": "Grant County",
          "types": [
            "administrative_area_level_2",
            "political"
          ]
        },
        {
          "long_name": "Indiana",
          "short_name": "IN",
          "types": [
            "administrative_area_level_1",
            "political"
          ]
        },
        {
          "long_name": "United States",
          "short_name": "US",
          "types": [
            "country",
            "political"
          ]
        },
        {
          "long_name": "46938",
          "short_name": "46938",
          "types": [
            "postal_code"
          ]
        }
      ],
      "formatted_address": "601-699 Fairmount Ave, Jonesboro, IN 46938, USA",
      "geometry": {
        "bounds": {
          "northeast": {
            "lat": 40.4802496,
            "lng": -85.6303657
          },
          "southwest": {
            "lat": 40.479026,
            "lng": -85.6303887
          }
        },
        "location": {
          "lat": 40.47975,
          "lng": -85.6303605
        },
        "location_type": "RANGE_INTERPOLATED",
        "viewport": {
          "northeast": {
            "lat": 40.4809867802915,
            "lng": -85.6290282197085
          },
          "southwest": {
            "lat": 40.4782888197085,
            "lng": -85.63172618029151
          }
        }
      },
      "place_id": "Ei82MDEtNjk5IEZhaXJtb3VudCBBdmUsIEpvbmVzYm9ybywgSU4gNDY5MzgsIFVTQQ",
      "types": [
        "street_address"
      ]
    },
    {
      "address_components": [
        {
          "long_name": "Jonesboro",
          "short_name": "Jonesboro",
          "types": [
            "locality",
            "political"
          ]
        },
        {
          "long_name": "Mill Township",
          "short_name": "Mill Township",
          "types": [
            "administrative_area_level_3",
            "political"
          ]
        },
        {
          "long_name": "Grant County",
          "short_name": "Grant County",
          "types": [
            "administrative_area_level_2",
            "political"
          ]
        },
        {
          "long_name": "Indiana",
          "short_name": "IN",
          "types": [
            "administrative_area_level_1",
            "political"
          ]
        },
        {
          "long_name": "United States",
          "short_name": "US",
          "types": [
            "country",
            "political"
          ]
        }
      ],
      "formatted_address": "Jonesboro, IN, USA",
      "geometry": {
        "bounds": {
          "northeast": {
            "lat": 40.4911774,
            "lng": -85.6165549
          },
          "southwest": {
            "lat": 40.4693589,
            "lng": -85.6399759
          }
        },
        "location": {
          "lat": 40.4797623,
          "lng": -85.6277537
        },
        "location_type": "APPROXIMATE",
        "viewport": {
          "northeast": {
            "lat": 40.4911774,
            "lng": -85.6165549
          },
          "southwest": {
            "lat": 40.4693589,
            "lng": -85.6399759
          }
        }
      },
      "place_id": "ChIJPz_QunH-FIgRsxjaOWD_EIY",
      "types": [
        "locality",
        "political"
      ]
    },
    {
      "address_components": [
        {
          "long_name": "Mill Township",
          "short_name": "Mill Township",
          "types": [
            "administrative_area_level_3",
            "political"
          ]
        },
        {
          "long_name": "Grant County",
          "short_name": "Grant County",
          "types": [
            "administrative_area_level_2",
            "political"
          ]
        },
        {
          "long_name": "Indiana",
          "short_name": "IN",
          "types": [
            "administrative_area_level_1",
            "political"
          ]
        },
        {
          "long_name": "United States",
          "short_name": "US",
          "types": [
            "country",
            "political"
          ]
        }
      ],
      "formatted_address": "Mill Township, IN, USA",
      "geometry": {
        "bounds": {
          "northeast": {
            "lat": 40.50964,
            "lng": -85.557869
          },
          "southwest": {
            "lat": 40.451688,
            "lng": -85.672977
          }
        },
        "location": {
          "lat": 40.48052020000001,
          "lng": -85.612648
        },
        "location_type": "APPROXIMATE",
        "viewport": {
          "northeast": {
            "lat": 40.50964,
            "lng": -85.557869
          },
          "southwest": {
            "lat": 40.451688,
            "lng": -85.672977
          }
        }
      },
      "place_id": "ChIJ_-P8ABD-FIgRFCsyAchu55I",
      "types": [
        "administrative_area_level_3",
        "political"
      ]
    },
    {
      "address_components": [
        {
          "long_name": "46938",
          "short_name": "46938",
          "types": [
            "postal_code"
          ]
        },
        {
          "long_name": "Jonesboro",
          "short_name": "Jonesboro",
          "types": [
            "locality",
            "political"
          ]
        },
        {
          "long_name": "Grant County",
          "short_name": "Grant County",
          "types": [
            "administrative_area_level_2",
            "political"
          ]
        },
        {
          "long_name": "Indiana",
          "short_name": "IN",
          "types": [
            "administrative_area_level_1",
            "political"
          ]
        },
        {
          "long_name": "United States",
          "short_name": "US",
          "types": [
            "country",
            "political"
          ]
        }
      ],
      "formatted_address": "Jonesboro, IN 46938, USA",
      "geometry": {
        "bounds": {
          "northeast": {
            "lat": 40.4927178,
            "lng": -85.5265639
          },
          "southwest": {
            "lat": 40.410146,
            "lng": -85.7867569
          }
        },
        "location": {
          "lat": 40.43907970000001,
          "lng": -85.5920787
        },
        "location_type": "APPROXIMATE",
        "viewport": {
          "northeast": {
            "lat": 40.4927178,
            "lng": -85.5265639
          },
          "southwest": {
            "lat": 40.410146,
            "lng": -85.7867569
          }
        }
      },
      "place_id": "ChIJwRAMX0H8FIgRWze_cieS_dk",
      "types": [
        "postal_code"
      ]
    },
    {
      "address_components": [
        {
          "long_name": "Grant County",
          "short_name": "Grant County",
          "types": [
            "administrative_area_level_2",
            "political"
          ]
        },
        {
          "long_name": "Indiana",
          "short_name": "IN",
          "types": [
            "administrative_area_level_1",
            "political"
          ]
        },
        {
          "long_name": "United States",
          "short_name": "US",
          "types": [
            "country",
            "political"
          ]
        }
      ],
      "formatted_address": "Grant County, IN, USA",
      "geometry": {
        "bounds": {
          "northeast": {
            "lat": 40.65366710000001,
            "lng": -85.4443299
          },
          "southwest": {
            "lat": 40.3783671,
            "lng": -85.86479109999999
          }
        },
        "location": {
          "lat": 40.4730605,
          "lng": -85.684578
        },
        "location_type": "APPROXIMATE",
        "viewport": {
          "northeast": {
            "lat": 40.65366710000001,
            "lng": -85.4443299
          },
          "southwest": {
            "lat": 40.3783671,
            "lng": -85.86479109999999
          }
        }
      },
      "place_id": "ChIJxZVZICz_FIgR0_8n-ftQTi0",
      "types": [
        "administrative_area_level_2",
        "political"
      ]
    },
    {
      "address_components": [
        {
          "long_name": "Marion",
          "short_name": "Marion",
          "types": [
            "political"
          ]
        },
        {
          "long_name": "Indiana",
          "short_name": "IN",
          "types": [
            "administrative_area_level_1",
            "political"
          ]
        },
        {
          "long_name": "United States",
          "short_name": "US",
          "types": [
            "country",
            "political"
          ]
        }
      ],
      "formatted_address": "Marion, IN, USA",
      "geometry": {
        "bounds": {
          "northeast": {
            "lat": 40.653607,
            "lng": -85.4443301
          },
          "southwest": {
            "lat": 40.378374,
            "lng": -85.8648649
          }
        },
        "location": {
          "lat": 40.4730605,
          "lng": -85.684578
        },
        "location_type": "APPROXIMATE",
        "viewport": {
          "northeast": {
            "lat": 40.653607,
            "lng": -85.4443301
          },
          "southwest": {
            "lat": 40.378374,
            "lng": -85.8648649
          }
        }
      },
      "place_id": "ChIJjcZMwxz_FIgRN5M1DOv6V4I",
      "types": [
        "political"
      ]
    },
    {
      "address_components": [
        {
          "long_name": "Indiana",
          "short_name": "IN",
          "types": [
            "administrative_area_level_1",
            "political"
          ]
        },
        {
          "long_name": "United States",
          "short_name": "US",
          "types": [
            "country",
            "political"
          ]
        }
      ],
      "formatted_address": "Indiana, USA",
      "geometry": {
        "bounds": {
          "northeast": {
            "lat": 41.7606971,
            "lng": -84.784662
          },
          "southwest": {
            "lat": 37.7717419,
            "lng": -88.097892
          }
        },
        "location": {
          "lat": 40.2671941,
          "lng": -86.1349019
        },
        "location_type": "APPROXIMATE",
        "viewport": {
          "northeast": {
            "lat": 41.7606971,
            "lng": -84.784662
          },
          "southwest": {
            "lat": 37.7717419,
            "lng": -88.097892
          }
        }
      },
      "place_id": "ChIJHRv42bxQa4gRcuwyy84vEH4",
      "types": [
        "administrative_area_level_1",
        "political"
      ]
    },
    {
      "address_components": [
        {
          "long_name": "United States",
          "short_name": "US",
          "types": [
            "country",
            "political"
          ]
        }
      ],
      "formatted_address": "United States",
      "geometry": {
        "bounds": {
          "northeast": {
            "lat": 71.3867745,
            "lng": -66.9502861
          },
          "southwest": {
            "lat": 18.9106768,
            "lng": 172.4458955
          }
        },
        "location": {
          "lat": 37.09024,
          "lng": -95.712891
        },
        "location_type": "APPROXIMATE",
        "viewport": {
          "northeast": {
            "lat": 49.38,
            "lng": -66.94
          },
          "southwest": {
            "lat": 25.82,
            "lng": -124.39
          }
        }
      },
      "place_id": "ChIJCzYy5IS16lQRQrfeQ5K5Oxw",
      "types": [
        "country",
        "political"
      ]
    }
  ],
  "status": "OK"
}
