{
  "results": [
    {
      "address_components": [
        {
          "long_name": "2-98",
          "short_name": "2-98",
          "types": [
            "street_number"
          ]
        },
        {
          "long_name": "Townsend Road",
          "short_name": "Townsend Rd",
          "types": [
            "route"
          ]
        },
        {
          "long_name": "Wappingers Falls",
          "short_name": "Wappingers Falls",
          "types": [
            "locality",
            "political"
          ]
        },
        {
          "long_name": "East Fishkill",
          "short_name": "East Fishkill",
          "types": [
            "administrative_area_level_3",
            "political"
          ]
        },
        {
          "long_name": "Dutchess County",
          "short_name": "Dutchess County",
          "types": [
            "administrative_area_level_2",
            "political"
          ]
        },
        {
          "long_name": "New York",
          "short_name": "NY",
          "types": [
            "administrative_area_level_1",
            "political"
          ]
        },
        {
          "long_name": "United States",
          "short_name": "US",
          "types": [
            "country",
            "political"
          ]
        },
        {
          "long_name": "12590",
          "short_name": "12590",
          "types": [
            "postal_code"
          ]
        }
      ],
      "formatted_address": "2-98 Townsend Rd, Wappingers Falls, NY 12590, USA",
      "geometry": {
        "bounds": {
          "northeast": {
            "lat": 41.6191638,
            "lng": -73.79439300000001
          },
          "southwest": {
            "lat": 41.618803,
            "lng": -73.7947039
          }
        },
        "location": {
          "lat": 41.6189777,
          "lng": -73.79452119999999
        },
        "location_type": "RANGE_INTERPOLATED",
        "viewport": {
          "northeast": {
            "lat": 41.62033238029149,
            "lng": -73.79319946970851
          },
          "southwest": {
            "lat": 41.61763441970849,
            "lng": -73.79589743029152
          }
        }
      },
      "place_id": "EjEyLTk4IFRvd25zZW5kIFJkLCBXYXBwaW5nZXJzIEZhbGxzLCBOWSAxMjU5MCwgVVNB",
      "types": [
        "street_address"
      ]
    },
    {
      "address_components": [
        {
          "long_name": "Hillside Lake",
          "short_name": "Hillside Lake",
          "types": [
            "locality",
            "political"
          ]
        },
        {
          "long_name": "East Fishkill",
          "short_name": "East Fishkill",
          "types": [
            "administrative_area_level_3",
            "political"
          ]
        },
        {
          "long_name": "Dutchess County",
          "short_name": "Dutchess County",
          "types": [
            "administrative_area_level_2",
            "political"
          ]
        },
        {
          "long_name": "New York",
          "short_name": "NY",
          "types": [
            "administrative_area_level_1",
            "political"
          ]
        },
        {
          "long_name": "United States",
          "short_name": "US",
          "types": [
            "country",
            "political"
          ]
        }
      ],
      "formatted_address": "Hillside Lake, NY, USA",
      "geometry": {
        "bounds": {
          "northeast": {
            "lat": 41.631329,
            "lng": -73.7747389
          },
          "southwest": {
            "lat": 41.605526,
            "lng": -73.81249009999999
          }
        },
        "location": {
          "lat": 41.6148158,
          "lng": -73.79818809999999
        },
        "location_type": "APPROXIMATE",
        "viewport": {
          "northeast": {
            "lat": 41.631329,
            "lng": -73.7747389
          },
          "southwest": {
            "lat": 41.605526,
            "lng": -73.81249009999999
          }
        }
      },
      "place_id": "ChIJjU3dPCFH3YkRpHo2t4oq97k",
      "types": [
        "locality",
        "political"
      ]
    },
    {
      "address_components": [
        {
          "long_name": "12590",
          "short_name": "12590",
          "types": [
            "postal_code"
          ]
        },
        {
          "long_name": "Wappingers Falls",
          "short_name": "Wappingers Falls",
          "types": [
            "locality",
            "political"
          ]
        },
        {
          "long_name": "New York",
          "short_name": "NY",
          "types": [
            "administrative_area_level_1",
            "political"
          ]
        },
        {
          "long_name": "United States",
          "short_name": "US",
          "types": [
            "country",
            "political"
          ]
        }
      ],
      "formatted_address": "Wappingers Falls, NY 12590, USA",
      "geometry": {
        "bounds": {
          "northeast": {
            "lat": 41.6507919,
            "lng": -73.784939
          },
          "southwest": {
            "lat": 41.5182469,
            "lng": -73.987866
          }
        },
        "location": {
          "lat": 41.588439,
          "lng": -73.9124674
        },
        "location_type": "APPROXIMATE",
        "viewport": {
          "northeast": {
            "lat": 41.6507919,
            "lng": -73.784939
          },
          "southwest": {
            "lat": 41.5182469,
            "lng": -73.987866
          }
        }
      },
      "place_id": "ChIJly5AE0k43YkRBN4e2XQOHQc",
      "postcode_localities": [
        "New Hamburg",
        "WAPPINGERS FL",
        "Wappingers Falls"
      ],
      "types": [
        "postal_code"
      ]
    },
    {
      "address_components": [
        {
          "long_name": "East Fishkill",
          "short_name": "East Fishkill",
          "types": [
            "administrative_area_level_3",
            "political"
          ]
        },
        {
          "long_name": "Dutchess County",
          "short_name": "Dutchess County",
          "types": [
            "administrative_area_level_2",
            "political"
          ]
        },
        {
          "long_name": "New York",
          "short_name": "NY",
          "types": [
            "administrative_area_level_1",
            "political"
          ]
        },
        {
          "long_name": "United States",
          "short_name": "US",
          "types": [
            "country",
            "political"
          ]
        }
      ],
      "formatted_address": "East Fishkill, NY, USA",
      "geometry": {
        "bounds": {
          "northeast": {
            "lat": 41.6338079,
            "lng": -73.6735107
          },
          "southwest": {
            "lat": 41.4957409,
            "lng": -73.859995
          }
        },
        "location": {
          "lat": 41.5681371,
          "lng": -73.77132
        },
        "location_type": "APPROXIMATE",
        "viewport": {
          "northeast": {
            "lat": 41.6338079,
            "lng": -73.6735107
          },
          "southwest": {
            "lat": 41.4957409,
            "lng": -73.859995
          }
        }
      },
      "place_id": "ChIJ85DfQxdG3YkRvgZm8ND2_mU",
      "types": [
        "administrative_area_level_3",
        "political"
      ]
    },
    {
      "address_components": [
        {
          "long_name": "Dutchess County",
          "short_name": "Dutchess County",
          "types": [
            "administrative_area_level_2",
            "political"
          ]
        },
        {
          "long_name": "New York",
          "short_name": "NY",
          "types": [
            "administrative_area_level_1",
            "political"
          ]
        },
        {
          "long_name": "United States",
          "short_name": "US",
          "types": [
            "country",
            "political"
          ]
        }
      ],
      "formatted_address": "Dutchess County, NY, USA",
      "geometry": {
        "bounds": {
          "northeast": {
            "lat": 42.0809059,
            "lng": -73.48731409999999
          },
          "southwest": {
            "lat": 41.4421468,
            "lng": -73.989972
          }
        },
        "location": {
          "lat": 41.7784372,
          "lng": -73.7477857
        },
        "location_type": "APPROXIMATE",
        "viewport": {
          "northeast": {
            "lat": 42.0809059,
            "lng": -73.48731409999999
          },
          "southwest": {
            "lat": 41.4421468,
            "lng": -73.989972
          }
        }
      },
      "place_id": "ChIJgXGMHTpq3YkRLcG0JidTOfc",
      "types": [
        "administrative_area_level_2",
        "political"
      ]
    },
    {
      "address_components": [
        {
          "long_name": "New York",
          "short_name": "NY",
          "types": [
            "administrative_area_level_1",
            "political"
          ]
        },
        {
          "long_name": "United States",
          "short_name": "US",
          "types": [
            "country",
            "political"
          ]
        }
      ],
      "formatted_address": "New York, USA",
      "geometry": {
        "bounds": {
          "northeast": {
            "lat": 45.015865,
            "lng": -71.85620639999999
          },
          "southwest": {
            "lat": 40.496091,
            "lng": -79.76214379999999
          }
        },
        "location": {
          "lat": 43.2994285,
          "lng": -74.21793260000001
        },
        "location_type": "APPROXIMATE",
        "viewport": {
          "northeast": {
            "lat": 45.015859,
            "lng": -71.85620639999999
          },
          "southwest": {
            "lat": 40.496091,
            "lng": -79.76214379999999
          }
        }
      },
      "place_id": "ChIJqaUj8fBLzEwRZ5UY3sHGz90",
      "types": [
        "administrative_area_level_1",
        "political"
      ]
    },
    {
      "address_components": [
        {
          "long_name": "United States",
          "short_name": "US",
          "types": [
            "country",
            "political"
          ]
        }
      ],
      "formatted_address": "United States",
      "geometry": {
        "bounds": {
          "northeast": {
            "lat": 71.3867745,
            "lng": -66.9502861
          },
          "southwest": {
            "lat": 18.9106768,
            "lng": 172.4458955
          }
        },
        "location": {
          "lat": 37.09024,
          "lng": -95.712891
        },
        "location_type": "APPROXIMATE",
        "viewport": {
          "northeast": {
            "lat": 49.38,
            "lng": -66.94
          },
          "southwest": {
            "lat": 25.82,
            "lng": -124.39
          }
        }
      },
      "place_id": "ChIJCzYy5IS16lQRQrfeQ5K5Oxw",
      "types": [
        "country",
        "political"
      ]
    }
  ],
  "status": "OK"
}
