{
  "results": [
    {
      "address_components": [
        {
          "long_name": "300-310",
          "short_name": "300-310",
          "types": [
            "street_number"
          ]
        },
        {
          "long_name": "South Maple Street",
          "short_name": "S Maple St",
          "types": [
            "route"
          ]
        },
        {
          "long_name": "Bellflower",
          "short_name": "Bellflower",
          "types": [
            "locality",
            "political"
          ]
        },
        {
          "long_name": "Bear Creek Township",
          "short_name": "Bear Creek Township",
          "types": [
            "administrative_area_level_3",
            "political"
          ]
        },
        {
          "long_name": "Montgomery County",
          "short_name": "Montgomery County",
          "types": [
            "administrative_area_level_2",
            "political"
          ]
        },
        {
          "long_name": "Missouri",
          "short_name": "MO",
          "types": [
            "administrative_area_level_1",
            "political"
          ]
        },
        {
          "long_name": "United States",
          "short_name": "US",
          "types": [
            "country",
            "political"
          ]
        },
        {
          "long_name": "63333",
          "short_name": "63333",
          "types": [
            "postal_code"
          ]
        },
        {
          "long_name": "1707",
          "short_name": "1707",
          "types": [
            "postal_code_suffix"
          ]
        }
      ],
      "formatted_address": "300-310 S Maple St, Bellflower, MO 63333, USA",
      "geometry": {
        "bounds": {
          "northeast": {
            "lat": 39.0044169,
            "lng": -91.3522859
          },
          "southwest": {
            "lat": 39.0034315,
            "lng": -91.3523263
          }
        },
        "location": {
          "lat": 39.0036346,
          "lng": -91.35229919999999
        },
        "location_type": "RANGE_INTERPOLATED",
        "viewport": {
          "northeast": {
            "lat": 39.0052731802915,
            "lng": -91.3509571197085
          },
          "southwest": {
            "lat": 39.0025752197085,
            "lng": -91.3536550802915
          }
        }
      },
      "place_id": "Ei0zMDAtMzEwIFMgTWFwbGUgU3QsIEJlbGxmbG93ZXIsIE1PIDYzMzMzLCBVU0E",
      "types": [
        "street_address"
      ]
    },
    {
      "address_components": [
        {
          "long_name": "Bellflower",
          "short_name": "Bellflower",
          "types": [
            "locality",
            "political"
          ]
        },
        {
          "long_name": "Bear Creek Township",
          "short_name": "Bear Creek Township",
          "types": [
            "administrative_area_level_3",
            "political"
          ]
        },
        {
          "long_name": "Montgomery County",
          "short_name": "Montgomery County",
          "types": [
            "administrative_area_level_2",
            "political"
          ]
        },
        {
          "long_name": "Missouri",
          "short_name": "MO",
          "types": [
            "administrative_area_level_1",
            "political"
          ]
        },
        {
          "long_name": "United States",
          "short_name": "US",
          "types": [
            "country",
            "political"
          ]
        },
        {
          "long_name": "63333",
          "short_name": "63333",
          "types": [
            "postal_code"
          ]
        }
      ],
      "formatted_address": "Bellflower, MO 63333, USA",
      "geometry": {
        "bounds": {
          "northeast": {
            "lat": 39.009219,
            "lng": -91.3449399
          },
          "southwest": {
            "lat": 38.997008,
            "lng": -91.36207999999999
          }
        },
        "location": {
          "lat": 39.0067081,
          "lng": -91.3551564
        },
        "location_type": "APPROXIMATE",
        "viewport": {
          "northeast": {
            "lat": 39.009219,
            "lng": -91.3449399
          },
          "southwest": {
            "lat": 38.997008,
            "lng": -91.36207999999999
          }
        }
      },
      "place_id": "ChIJ0eCM3MYi3IcReLUvVZhNKkw",
      "types": [
        "locality",
        "political"
      ]
    },
    {
      "address_components": [
        {
          "long_name": "63333",
          "short_name": "63333",
          "types": [
            "postal_code"
          ]
        },
        {
          "long_name": "Bellflower",
          "short_name": "Bellflower",
          "types": [
            "locality",
            "political"
          ]
        },
        {
          "long_name": "Missouri",
          "short_name": "MO",
          "types": [
            "administrative_area_level_1",
            "political"
          ]
        },
        {
          "long_name": "United States",
          "short_name": "US",
          "types": [
            "country",
            "political"
          ]
        }
      ],
      "formatted_address": "Bellflower, MO 63333, USA",
      "geometry": {
        "bounds": {
          "northeast": {
            "lat": 39.108037,
            "lng": -91.2206389
          },
          "southwest": {
            "lat": 38.9790019,
            "lng": -91.410652
          }
        },
        "location": {
          "lat": 39.0429261,
          "lng": -91.3083685
        },
        "location_type": "APPROXIMATE",
        "viewport": {
          "northeast": {
            "lat": 39.108037,
            "lng": -91.2206389
          },
          "southwest": {
            "lat": 38.9790019,
            "lng": -91.410652
          }
        }
      },
      "place_id": "ChIJo4J7-R4j3IcRJN8oLUAI0VE",
      "types": [
        "postal_code"
      ]
    },
    {
      "address_components": [
        {
          "long_name": "Bear Creek Township",
          "short_name": "Bear Creek Township",
          "types": [
            "administrative_area_level_3",
            "political"
          ]
        },
        {
          "long_name": "Montgomery County",
          "short_name": "Montgomery County",
          "types": [
            "administrative_area_level_2",
            "political"
          ]
        },
        {
          "long_name": "Missouri",
          "short_name": "MO",
          "types": [
            "administrative_area_level_1",
            "political"
          ]
        },
        {
          "long_name": "United States",
          "short_name": "US",
          "types": [
            "country",
            "political"
          ]
        }
      ],
      "formatted_address": "Bear Creek Township, MO, USA",
      "geometry": {
        "bounds": {
          "northeast": {
            "lat": 39.0371668,
            "lng": -91.263104
          },
          "southwest": {
            "lat": 38.84346499999999,
            "lng": -91.415832
          }
        },
        "location": {
          "lat": 38.9384123,
          "lng": -91.3276422
        },
        "location_type": "APPROXIMATE",
        "viewport": {
          "northeast": {
            "lat": 39.0371668,
            "lng": -91.263104
          },
          "southwest": {
            "lat": 38.84346499999999,
            "lng": -91.415832
          }
        }
      },
      "place_id": "ChIJW3u1jUoY3IcR0v1cD51P4gk",
      "types": [
        "administrative_area_level_3",
        "political"
      ]
    },
    {
      "address_components": [
        {
          "long_name": "Montgomery County",
          "short_name": "Montgomery County",
          "types": [
            "administrative_area_level_2",
            "political"
          ]
        },
        {
          "long_name": "Missouri",
          "short_name": "MO",
          "types": [
            "administrative_area_level_1",
            "political"
          ]
        },
        {
          "long_name": "United States",
          "short_name": "US",
          "types": [
            "country",
            "political"
          ]
        }
      ],
      "formatted_address": "Montgomery County, MO, USA",
      "geometry": {
        "bounds": {
          "northeast": {
            "lat": 39.147853,
            "lng": -91.26023190000001
          },
          "southwest": {
            "lat": 38.6762668,
            "lng": -91.647171
          }
        },
        "location": {
          "lat": 38.9365599,
          "lng": -91.4821482
        },
        "location_type": "APPROXIMATE",
        "viewport": {
          "northeast": {
            "lat": 39.147853,
            "lng": -91.26023190000001
          },
          "southwest": {
            "lat": 38.6762668,
            "lng": -91.647171
          }
        }
      },
      "place_id": "ChIJTRZaG4EN3IcR8WeRgBVDefo",
      "types": [
        "administrative_area_level_2",
        "political"
      ]
    },
    {
      "address_components": [
        {
          "long_name": "Missouri",
          "short_name": "MO",
          "types": [
            "administrative_area_level_1",
            "political"
          ]
        },
        {
          "long_name": "United States",
          "short_name": "US",
          "types": [
            "country",
            "political"
          ]
        }
      ],
      "formatted_address": "Missouri, USA",
      "geometry": {
        "bounds": {
          "northeast": {
            "lat": 40.61364,
            "lng": -89.09949399999999
          },
          "southwest": {
            "lat": 35.9956829,
            "lng": -95.774704
          }
        },
        "location": {
          "lat": 37.9642529,
          "lng": -91.8318334
        },
        "location_type": "APPROXIMATE",
        "viewport": {
          "northeast": {
            "lat": 40.61364,
            "lng": -89.09949399999999
          },
          "southwest": {
            "lat": 35.9956829,
            "lng": -95.774704
          }
        }
      },
      "place_id": "ChIJfeMiSNXmwIcRcr1mBFnEW7U",
      "types": [
        "administrative_area_level_1",
        "political"
      ]
    },
    {
      "address_components": [
        {
          "long_name": "United States",
          "short_name": "US",
          "types": [
            "country",
            "political"
          ]
        }
      ],
      "formatted_address": "United States",
      "geometry": {
        "bounds": {
          "northeast": {
            "lat": 71.3867745,
            "lng": -66.9502861
          },
          "southwest": {
            "lat": 18.9106768,
            "lng": 172.4458955
          }
        },
        "location": {
          "lat": 37.09024,
          "lng": -95.712891
        },
        "location_type": "APPROXIMATE",
        "viewport": {
          "northeast": {
            "lat": 49.38,
            "lng": -66.94
          },
          "southwest": {
            "lat": 25.82,
            "lng": -124.39
          }
        }
      },
      "place_id": "ChIJCzYy5IS16lQRQrfeQ5K5Oxw",
      "types": [
        "country",
        "political"
      ]
    }
  ],
  "status": "OK"
}
