{
  "results": [
    {
      "address_components": [
        {
          "long_name": "3",
          "short_name": "3",
          "types": [
            "street_number"
          ]
        },
        {
          "long_name": "Wago Avenue",
          "short_name": "Wago Ave",
          "types": [
            "route"
          ]
        },
        {
          "long_name": "Armonk",
          "short_name": "Armonk",
          "types": [
            "locality",
            "political"
          ]
        },
        {
          "long_name": "North Castle",
          "short_name": "North Castle",
          "types": [
            "administrative_area_level_3",
            "political"
          ]
        },
        {
          "long_name": "Westchester County",
          "short_name": "Westchester County",
          "types": [
            "administrative_area_level_2",
            "political"
          ]
        },
        {
          "long_name": "New York",
          "short_name": "NY",
          "types": [
            "administrative_area_level_1",
            "political"
          ]
        },
        {
          "long_name": "United States",
          "short_name": "US",
          "types": [
            "country",
            "political"
          ]
        },
        {
          "long_name": "10504",
          "short_name": "10504",
          "types": [
            "postal_code"
          ]
        },
        {
          "long_name": "1447",
          "short_name": "1447",
          "types": [
            "postal_code_suffix"
          ]
        }
      ],
      "formatted_address": "3 Wago Ave, Armonk, NY 10504, USA",
      "geometry": {
        "location": {
          "lat": 41.1319919,
          "lng": -73.71387
        },
        "location_type": "ROOFTOP",
        "viewport": {
          "northeast": {
            "lat": 41.13334088029149,
            "lng": -73.7125210197085
          },
          "southwest": {
            "lat": 41.1306429197085,
            "lng": -73.71521898029151
          }
        }
      },
      "place_id": "ChIJPWBsZ2i8wokRuAN5XhxNrDQ",
      "types": [
        "street_address"
      ]
    },
    {
      "address_components": [
        {
          "long_name": "Armonk",
          "short_name": "Armonk",
          "types": [
            "locality",
            "political"
          ]
        },
        {
          "long_name": "North Castle",
          "short_name": "North Castle",
          "types": [
            "administrative_area_level_3",
            "political"
          ]
        },
        {
          "long_name": "Westchester County",
          "short_name": "Westchester County",
          "types": [
            "administrative_area_level_2",
            "political"
          ]
        },
        {
          "long_name": "New York",
          "short_name": "NY",
          "types": [
            "administrative_area_level_1",
            "political"
          ]
        },
        {
          "long_name": "United States",
          "short_name": "US",
          "types": [
            "country",
            "political"
          ]
        }
      ],
      "formatted_address": "Armonk, NY, USA",
      "geometry": {
        "bounds": {
          "northeast": {
            "lat": 41.1653571,
            "lng": -73.69462589999999
          },
          "southwest": {
            "lat": 41.1003359,
            "lng": -73.7337429
          }
        },
        "location": {
          "lat": 41.1264849,
          "lng": -73.71401949999999
        },
        "location_type": "APPROXIMATE",
        "viewport": {
          "northeast": {
            "lat": 41.1653571,
            "lng": -73.69462589999999
          },
          "southwest": {
            "lat": 41.1003359,
            "lng": -73.7337429
          }
        }
      },
      "place_id": "ChIJd6-xgGi8wokRF7qkDo3dyRQ",
      "types": [
        "locality",
        "political"
      ]
    },
    {
      "address_components": [
        {
          "long_name": "10504",
          "short_name": "10504",
          "types": [
            "postal_code"
          ]
        },
        {
          "long_name": "Armonk",
          "short_name": "Armonk",
          "types": [
            "locality",
            "political"
          ]
        },
        {
          "long_name": "New York",
          "short_name": "NY",
          "types": [
            "administrative_area_level_1",
            "political"
          ]
        },
        {
          "long_name": "United States",
          "short_name": "US",
          "types": [
            "country",
            "political"
          ]
        }
      ],
      "formatted_address": "Armonk, NY 10504, USA",
      "geometry": {
        "bounds": {
          "northeast": {
            "lat": 41.1772499,
            "lng": -73.644074
          },
          "southwest": {
            "lat": 41.07183,
            "lng": -73.7545848
          }
        },
        "location": {
          "lat": 41.1395518,
          "lng": -73.712479
        },
        "location_type": "APPROXIMATE",
        "viewport": {
          "northeast": {
            "lat": 41.1772499,
            "lng": -73.644074
          },
          "southwest": {
            "lat": 41.07183,
            "lng": -73.7545848
          }
        }
      },
      "place_id": "ChIJB-DOJ4i8wokRjkUMFXmGGbs",
      "types": [
        "postal_code"
      ]
    },
    {
      "address_components": [
        {
          "long_name": "North Castle",
          "short_name": "North Castle",
          "types": [
            "administrative_area_level_3",
            "political"
          ]
        },
        {
          "long_name": "Westchester County",
          "short_name": "Westchester County",
          "types": [
            "administrative_area_level_2",
            "political"
          ]
        },
        {
          "long_name": "New York",
          "short_name": "NY",
          "types": [
            "administrative_area_level_1",
            "political"
          ]
        },
        {
          "long_name": "United States",
          "short_name": "US",
          "types": [
            "country",
            "political"
          ]
        }
      ],
      "formatted_address": "North Castle, NY, USA",
      "geometry": {
        "bounds": {
          "northeast": {
            "lat": 41.1872089,
            "lng": -73.61544289999999
          },
          "southwest": {
            "lat": 41.0520969,
            "lng": -73.774101
          }
        },
        "location": {
          "lat": 41.1361412,
          "lng": -73.68893779999999
        },
        "location_type": "APPROXIMATE",
        "viewport": {
          "northeast": {
            "lat": 41.1872089,
            "lng": -73.61544289999999
          },
          "southwest": {
            "lat": 41.0520969,
            "lng": -73.774101
          }
        }
      },
      "place_id": "ChIJyTG31_C8wokReTLiytezL4I",
      "types": [
        "administrative_area_level_3",
        "political"
      ]
    },
    {
      "address_components": [
        {
          "long_name": "Westchester County",
          "short_name": "Westchester County",
          "types": [
            "administrative_area_level_2",
            "political"
          ]
        },
        {
          "long_name": "New York",
          "short_name": "NY",
          "types": [
            "administrative_area_level_1",
            "political"
          ]
        },
        {
          "long_name": "United States",
          "short_name": "US",
          "types": [
            "country",
            "political"
          ]
        }
      ],
      "formatted_address": "Westchester County, NY, USA",
      "geometry": {
        "bounds": {
          "northeast": {
            "lat": 41.366375,
            "lng": -73.4827091
          },
          "southwest": {
            "lat": 40.8764415,
            "lng": -73.98062070000002
          }
        },
        "location": {
          "lat": 41.1220194,
          "lng": -73.7948516
        },
        "location_type": "APPROXIMATE",
        "viewport": {
          "northeast": {
            "lat": 41.366375,
            "lng": -73.4827091
          },
          "southwest": {
            "lat": 40.8764415,
            "lng": -73.98062070000002
          }
        }
      },
      "place_id": "ChIJr1lrnWrJwokRidu9ImLYDjc",
      "types": [
        "administrative_area_level_2",
        "political"
      ]
    },
    {
      "address_components": [
        {
          "long_name": "New York",
          "short_name": "NY",
          "types": [
            "administrative_area_level_1",
            "political"
          ]
        },
        {
          "long_name": "United States",
          "short_name": "US",
          "types": [
            "country",
            "political"
          ]
        }
      ],
      "formatted_address": "New York, USA",
      "geometry": {
        "bounds": {
          "northeast": {
            "lat": 45.015865,
            "lng": -71.85620639999999
          },
          "southwest": {
            "lat": 40.496091,
            "lng": -79.76214379999999
          }
        },
        "location": {
          "lat": 43.2994285,
          "lng": -74.21793260000001
        },
        "location_type": "APPROXIMATE",
        "viewport": {
          "northeast": {
            "lat": 45.015859,
            "lng": -71.85620639999999
          },
          "southwest": {
            "lat": 40.496091,
            "lng": -79.76214379999999
          }
        }
      },
      "place_id": "ChIJqaUj8fBLzEwRZ5UY3sHGz90",
      "types": [
        "administrative_area_level_1",
        "political"
      ]
    },
    {
      "address_components": [
        {
          "long_name": "United States",
          "short_name": "US",
          "types": [
            "country",
            "political"
          ]
        }
      ],
      "formatted_address": "United States",
      "geometry": {
        "bounds": {
          "northeast": {
            "lat": 71.3867745,
            "lng": -66.9502861
          },
          "southwest": {
            "lat": 18.9106768,
            "lng": 172.4458955
          }
        },
        "location": {
          "lat": 37.09024,
          "lng": -95.712891
        },
        "location_type": "APPROXIMATE",
        "viewport": {
          "northeast": {
            "lat": 49.38,
            "lng": -66.94
          },
          "southwest": {
            "lat": 25.82,
            "lng": -124.39
          }
        }
      },
      "place_id": "ChIJCzYy5IS16lQRQrfeQ5K5Oxw",
      "types": [
        "country",
        "political"
      ]
    }
  ],
  "status": "OK"
}
