{
  "results": [
    {
      "address_components": [
        {
          "long_name": "101-199",
          "short_name": "101-199",
          "types": [
            "street_number"
          ]
        },
        {
          "long_name": "North Fulton Street",
          "short_name": "N Fulton St",
          "types": [
            "route"
          ]
        },
        {
          "long_name": "Lenora",
          "short_name": "Lenora",
          "types": [
            "locality",
            "political"
          ]
        },
        {
          "long_name": "Highland-District 2",
          "short_name": "Highland-District 2",
          "types": [
            "administrative_area_level_3",
            "political"
          ]
        },
        {
          "long_name": "Norton County",
          "short_name": "Norton County",
          "types": [
            "administrative_area_level_2",
            "political"
          ]
        },
        {
          "long_name": "Kansas",
          "short_name": "KS",
          "types": [
            "administrative_area_level_1",
            "political"
          ]
        },
        {
          "long_name": "United States",
          "short_name": "US",
          "types": [
            "country",
            "political"
          ]
        },
        {
          "long_name": "67645",
          "short_name": "67645",
          "types": [
            "postal_code"
          ]
        }
      ],
      "formatted_address": "101-199 N Fulton St, Lenora, KS 67645, USA",
      "geometry": {
        "bounds": {
          "northeast": {
            "lat": 39.6115391,
            "lng": -100.000856
          },
          "southwest": {
            "lat": 39.610468,
            "lng": -100.0008649
          }
        },
        "location": {
          "lat": 39.6108956,
          "lng": -100.000879
        },
        "location_type": "RANGE_INTERPOLATED",
        "viewport": {
          "northeast": {
            "lat": 39.6123525302915,
            "lng": -99.9995114697085
          },
          "southwest": {
            "lat": 39.6096545697085,
            "lng": -100.0022094302915
          }
        }
      },
      "place_id": "EioxMDEtMTk5IE4gRnVsdG9uIFN0LCBMZW5vcmEsIEtTIDY3NjQ1LCBVU0E",
      "types": [
        "street_address"
      ]
    },
    {
      "address_components": [
        {
          "long_name": "Lenora",
          "short_name": "Lenora",
          "types": [
            "locality",
            "political"
          ]
        },
        {
          "long_name": "Highland-District 2",
          "short_name": "Highland-District 2",
          "types": [
            "administrative_area_level_3",
            "political"
          ]
        },
        {
          "long_name": "Norton County",
          "short_name": "Norton County",
          "types": [
            "administrative_area_level_2",
            "political"
          ]
        },
        {
          "long_name": "Kansas",
          "short_name": "KS",
          "types": [
            "administrative_area_level_1",
            "political"
          ]
        },
        {
          "long_name": "United States",
          "short_name": "US",
          "types": [
            "country",
            "political"
          ]
        },
        {
          "long_name": "67645",
          "short_name": "67645",
          "types": [
            "postal_code"
          ]
        }
      ],
      "formatted_address": "Lenora, KS 67645, USA",
      "geometry": {
        "bounds": {
          "northeast": {
            "lat": 39.618448,
            "lng": -99.99423879999999
          },
          "southwest": {
            "lat": 39.603035,
            "lng": -100.011328
          }
        },
        "location": {
          "lat": 39.61056,
          "lng": -100.0026272
        },
        "location_type": "APPROXIMATE",
        "viewport": {
          "northeast": {
            "lat": 39.618448,
            "lng": -99.99423879999999
          },
          "southwest": {
            "lat": 39.603035,
            "lng": -100.011328
          }
        }
      },
      "place_id": "ChIJs970-8eGn4cROSvhkCQJStA",
      "types": [
        "locality",
        "political"
      ]
    },
    {
      "address_components": [
        {
          "long_name": "Highland-District 2",
          "short_name": "Highland-District 2",
          "types": [
            "administrative_area_level_3",
            "political"
          ]
        },
        {
          "long_name": "Norton County",
          "short_name": "Norton County",
          "types": [
            "administrative_area_level_2",
            "political"
          ]
        },
        {
          "long_name": "Kansas",
          "short_name": "KS",
          "types": [
            "administrative_area_level_1",
            "political"
          ]
        },
        {
          "long_name": "United States",
          "short_name": "US",
          "types": [
            "country",
            "political"
          ]
        }
      ],
      "formatted_address": "Highland-District 2, KS, USA",
      "geometry": {
        "bounds": {
          "northeast": {
            "lat": 39.827692,
            "lng": -99.85159999999999
          },
          "southwest": {
            "lat": 39.56679889999999,
            "lng": -100.180456
          }
        },
        "location": {
          "lat": 39.6695849,
          "lng": -100.0359661
        },
        "location_type": "APPROXIMATE",
        "viewport": {
          "northeast": {
            "lat": 39.827692,
            "lng": -99.85159999999999
          },
          "southwest": {
            "lat": 39.56679889999999,
            "lng": -100.180456
          }
        }
      },
      "place_id": "ChIJUZVbK8eEn4cRedPGotrqbPk",
      "types": [
        "administrative_area_level_3",
        "political"
      ]
    },
    {
      "address_components": [
        {
          "long_name": "67645",
          "short_name": "67645",
          "types": [
            "postal_code"
          ]
        },
        {
          "long_name": "Lenora",
          "short_name": "Lenora",
          "types": [
            "locality",
            "political"
          ]
        },
        {
          "long_name": "Kansas",
          "short_name": "KS",
          "types": [
            "administrative_area_level_1",
            "political"
          ]
        },
        {
          "long_name": "United States",
          "short_name": "US",
          "types": [
            "country",
            "political"
          ]
        }
      ],
      "formatted_address": "Lenora, KS 67645, USA",
      "geometry": {
        "bounds": {
          "northeast": {
            "lat": 39.755603,
            "lng": -99.62785079999999
          },
          "southwest": {
            "lat": 39.480982,
            "lng": -100.117865
          }
        },
        "location": {
          "lat": 39.6031932,
          "lng": -99.85714159999999
        },
        "location_type": "APPROXIMATE",
        "viewport": {
          "northeast": {
            "lat": 39.755603,
            "lng": -99.62785079999999
          },
          "southwest": {
            "lat": 39.480982,
            "lng": -100.117865
          }
        }
      },
      "place_id": "ChIJ0bkSWpx_n4cR7n-Tz8mwGEY",
      "postcode_localities": [
        "Densmore",
        "Edmond",
        "Lenora",
        "New Almelo"
      ],
      "types": [
        "postal_code"
      ]
    },
    {
      "address_components": [
        {
          "long_name": "Norton County",
          "short_name": "Norton County",
          "types": [
            "administrative_area_level_2",
            "political"
          ]
        },
        {
          "long_name": "Kansas",
          "short_name": "KS",
          "types": [
            "administrative_area_level_1",
            "political"
          ]
        },
        {
          "long_name": "United States",
          "short_name": "US",
          "types": [
            "country",
            "political"
          ]
        }
      ],
      "formatted_address": "Norton County, KS, USA",
      "geometry": {
        "bounds": {
          "northeast": {
            "lat": 40.001859,
            "lng": -99.6253239
          },
          "southwest": {
            "lat": 39.5667301,
            "lng": -100.180456
          }
        },
        "location": {
          "lat": 39.7959566,
          "lng": -99.99122539999999
        },
        "location_type": "APPROXIMATE",
        "viewport": {
          "northeast": {
            "lat": 40.001859,
            "lng": -99.6253239
          },
          "southwest": {
            "lat": 39.5667301,
            "lng": -100.180456
          }
        }
      },
      "place_id": "ChIJn6bI2GZln4cRjNWMyD2X9gA",
      "types": [
        "administrative_area_level_2",
        "political"
      ]
    },
    {
      "address_components": [
        {
          "long_name": "Kansas",
          "short_name": "KS",
          "types": [
            "administrative_area_level_1",
            "political"
          ]
        },
        {
          "long_name": "United States",
          "short_name": "US",
          "types": [
            "country",
            "political"
          ]
        }
      ],
      "formatted_address": "Kansas, USA",
      "geometry": {
        "bounds": {
          "northeast": {
            "lat": 40.0045419,
            "lng": -94.588387
          },
          "southwest": {
            "lat": 36.9930159,
            "lng": -102.0517688
          }
        },
        "location": {
          "lat": 39.011902,
          "lng": -98.4842465
        },
        "location_type": "APPROXIMATE",
        "viewport": {
          "northeast": {
            "lat": 40.0045419,
            "lng": -94.588387
          },
          "southwest": {
            "lat": 36.9930159,
            "lng": -102.0517688
          }
        }
      },
      "place_id": "ChIJawF8cXEXo4cRXwk-S6m0wmg",
      "types": [
        "administrative_area_level_1",
        "political"
      ]
    },
    {
      "address_components": [
        {
          "long_name": "United States",
          "short_name": "US",
          "types": [
            "country",
            "political"
          ]
        }
      ],
      "formatted_address": "United States",
      "geometry": {
        "bounds": {
          "northeast": {
            "lat": 71.3867745,
            "lng": -66.9502861
          },
          "southwest": {
            "lat": 18.9106768,
            "lng": 172.4458955
          }
        },
        "location": {
          "lat": 37.09024,
          "lng": -95.712891
        },
        "location_type": "APPROXIMATE",
        "viewport": {
          "northeast": {
            "lat": 49.38,
            "lng": -66.94
          },
          "southwest": {
            "lat": 25.82,
            "lng": -124.39
          }
        }
      },
      "place_id": "ChIJCzYy5IS16lQRQrfeQ5K5Oxw",
      "types": [
        "country",
        "political"
      ]
    }
  ],
  "status": "OK"
}
