{
  "results": [
    {
      "address_components": [
        {
          "long_name": "201-399",
          "short_name": "201-399",
          "types": [
            "street_number"
          ]
        },
        {
          "long_name": "Front Street",
          "short_name": "Front St",
          "types": [
            "route"
          ]
        },
        {
          "long_name": "Upper Sandusky",
          "short_name": "Upper Sandusky",
          "types": [
            "locality",
            "political"
          ]
        },
        {
          "long_name": "Crane Township",
          "short_name": "Crane Township",
          "types": [
            "administrative_area_level_3",
            "political"
          ]
        },
        {
          "long_name": "Wyandot County",
          "short_name": "Wyandot County",
          "types": [
            "administrative_area_level_2",
            "political"
          ]
        },
        {
          "long_name": "Ohio",
          "short_name": "OH",
          "types": [
            "administrative_area_level_1",
            "political"
          ]
        },
        {
          "long_name": "United States",
          "short_name": "US",
          "types": [
            "country",
            "political"
          ]
        },
        {
          "long_name": "43351",
          "short_name": "43351",
          "types": [
            "postal_code"
          ]
        }
      ],
      "formatted_address": "201-399 Front St, Upper Sandusky, OH 43351, USA",
      "geometry": {
        "bounds": {
          "northeast": {
            "lat": 40.8316039,
            "lng": -83.2735163
          },
          "southwest": {
            "lat": 40.829564,
            "lng": -83.273572
          }
        },
        "location": {
          "lat": 40.8301415,
          "lng": -83.2735311
        },
        "location_type": "RANGE_INTERPOLATED",
        "viewport": {
          "northeast": {
            "lat": 40.8319329302915,
            "lng": -83.2721951697085
          },
          "southwest": {
            "lat": 40.8292349697085,
            "lng": -83.2748931302915
          }
        }
      },
      "place_id": "Ei8yMDEtMzk5IEZyb250IFN0LCBVcHBlciBTYW5kdXNreSwgT0ggNDMzNTEsIFVTQQ",
      "types": [
        "street_address"
      ]
    },
    {
      "address_components": [
        {
          "long_name": "Upper Sandusky",
          "short_name": "Upper Sandusky",
          "types": [
            "locality",
            "political"
          ]
        },
        {
          "long_name": "Crane Township",
          "short_name": "Crane Township",
          "types": [
            "administrative_area_level_3",
            "political"
          ]
        },
        {
          "long_name": "Wyandot County",
          "short_name": "Wyandot County",
          "types": [
            "administrative_area_level_2",
            "political"
          ]
        },
        {
          "long_name": "Ohio",
          "short_name": "OH",
          "types": [
            "administrative_area_level_1",
            "political"
          ]
        },
        {
          "long_name": "United States",
          "short_name": "US",
          "types": [
            "country",
            "political"
          ]
        },
        {
          "long_name": "43351",
          "short_name": "43351",
          "types": [
            "postal_code"
          ]
        }
      ],
      "formatted_address": "Upper Sandusky, OH 43351, USA",
      "geometry": {
        "bounds": {
          "northeast": {
            "lat": 40.861863,
            "lng": -83.216391
          },
          "southwest": {
            "lat": 40.782104,
            "lng": -83.31178489999999
          }
        },
        "location": {
          "lat": 40.8272785,
          "lng": -83.2813089
        },
        "location_type": "APPROXIMATE",
        "viewport": {
          "northeast": {
            "lat": 40.861863,
            "lng": -83.216391
          },
          "southwest": {
            "lat": 40.782104,
            "lng": -83.31178489999999
          }
        }
      },
      "place_id": "ChIJIySpxphBOYgRNQM5tSbsZIU",
      "types": [
        "locality",
        "political"
      ]
    },
    {
      "address_components": [
        {
          "long_name": "Crane Township",
          "short_name": "Crane Township",
          "types": [
            "administrative_area_level_3",
            "political"
          ]
        },
        {
          "long_name": "Wyandot County",
          "short_name": "Wyandot County",
          "types": [
            "administrative_area_level_2",
            "political"
          ]
        },
        {
          "long_name": "Ohio",
          "short_name": "OH",
          "types": [
            "administrative_area_level_1",
            "political"
          ]
        },
        {
          "long_name": "United States",
          "short_name": "US",
          "types": [
            "country",
            "political"
          ]
        }
      ],
      "formatted_address": "Crane Township, OH, USA",
      "geometry": {
        "bounds": {
          "northeast": {
            "lat": 40.9060909,
            "lng": -83.188593
          },
          "southwest": {
            "lat": 40.78868500000001,
            "lng": -83.304469
          }
        },
        "location": {
          "lat": 40.8635625,
          "lng": -83.2720082
        },
        "location_type": "APPROXIMATE",
        "viewport": {
          "northeast": {
            "lat": 40.9060909,
            "lng": -83.188593
          },
          "southwest": {
            "lat": 40.78868500000001,
            "lng": -83.304469
          }
        }
      },
      "place_id": "ChIJga0bGfxpOYgRq5bOroXMbKM",
      "types": [
        "administrative_area_level_3",
        "political"
      ]
    },
    {
      "address_components": [
        {
          "long_name": "43351",
          "short_name": "43351",
          "types": [
            "postal_code"
          ]
        },
        {
          "long_name": "Upper Sandusky",
          "short_name": "Upper Sandusky",
          "types": [
            "locality",
            "political"
          ]
        },
        {
          "long_name": "Wyandot County",
          "short_name": "Wyandot County",
          "types": [
            "administrative_area_level_2",
            "political"
          ]
        },
        {
          "long_name": "Ohio",
          "short_name": "OH",
          "types": [
            "administrative_area_level_1",
            "political"
          ]
        },
        {
          "long_name": "United States",
          "short_name": "US",
          "types": [
            "country",
            "political"
          ]
        }
      ],
      "formatted_address": "Upper Sandusky, OH 43351, USA",
      "geometry": {
        "bounds": {
          "northeast": {
            "lat": 40.9566218,
            "lng": -83.16115599999999
          },
          "southwest": {
            "lat": 40.6872709,
            "lng": -83.4484339
          }
        },
        "location": {
          "lat": 40.8043646,
          "lng": -83.2934086
        },
        "location_type": "APPROXIMATE",
        "viewport": {
          "northeast": {
            "lat": 40.9566218,
            "lng": -83.16115599999999
          },
          "southwest": {
            "lat": 40.6872709,
            "lng": -83.4484339
          }
        }
      },
      "place_id": "ChIJu6xSZj9BOYgR5PcWh9Rp6S0",
      "postcode_localities": [
        "UPPER SANDSKY",
        "Upper Sandusky"
      ],
      "types": [
        "postal_code"
      ]
    },
    {
      "address_components": [
        {
          "long_name": "Wyandot County",
          "short_name": "Wyandot County",
          "types": [
            "administrative_area_level_2",
            "political"
          ]
        },
        {
          "long_name": "Ohio",
          "short_name": "OH",
          "types": [
            "administrative_area_level_1",
            "political"
          ]
        },
        {
          "long_name": "United States",
          "short_name": "US",
          "types": [
            "country",
            "political"
          ]
        }
      ],
      "formatted_address": "Wyandot County, OH, USA",
      "geometry": {
        "bounds": {
          "northeast": {
            "lat": 40.9934911,
            "lng": -83.11142079999999
          },
          "southwest": {
            "lat": 40.686816,
            "lng": -83.5158829
          }
        },
        "location": {
          "lat": 40.8471492,
          "lng": -83.33618799999999
        },
        "location_type": "APPROXIMATE",
        "viewport": {
          "northeast": {
            "lat": 40.9934911,
            "lng": -83.11142079999999
          },
          "southwest": {
            "lat": 40.686816,
            "lng": -83.5158829
          }
        }
      },
      "place_id": "ChIJLSjq3DFEOYgRUmCEnLRKoHg",
      "types": [
        "administrative_area_level_2",
        "political"
      ]
    },
    {
      "address_components": [
        {
          "long_name": "Ohio",
          "short_name": "OH",
          "types": [
            "administrative_area_level_1",
            "political"
          ]
        },
        {
          "long_name": "United States",
          "short_name": "US",
          "types": [
            "country",
            "political"
          ]
        }
      ],
      "formatted_address": "Ohio, USA",
      "geometry": {
        "bounds": {
          "northeast": {
            "lat": 41.9773019,
            "lng": -80.5182
          },
          "southwest": {
            "lat": 38.4034229,
            "lng": -84.8203049
          }
        },
        "location": {
          "lat": 40.4172871,
          "lng": -82.90712300000001
        },
        "location_type": "APPROXIMATE",
        "viewport": {
          "northeast": {
            "lat": 41.9773019,
            "lng": -80.5182
          },
          "southwest": {
            "lat": 38.4034229,
            "lng": -84.8203049
          }
        }
      },
      "place_id": "ChIJwY5NtXrpNogRFtmfnDlkzeU",
      "types": [
        "administrative_area_level_1",
        "political"
      ]
    },
    {
      "address_components": [
        {
          "long_name": "United States",
          "short_name": "US",
          "types": [
            "country",
            "political"
          ]
        }
      ],
      "formatted_address": "United States",
      "geometry": {
        "bounds": {
          "northeast": {
            "lat": 71.3867745,
            "lng": -66.9502861
          },
          "southwest": {
            "lat": 18.9106768,
            "lng": 172.4458955
          }
        },
        "location": {
          "lat": 37.09024,
          "lng": -95.712891
        },
        "location_type": "APPROXIMATE",
        "viewport": {
          "northeast": {
            "lat": 49.38,
            "lng": -66.94
          },
          "southwest": {
            "lat": 25.82,
            "lng": -124.39
          }
        }
      },
      "place_id": "ChIJCzYy5IS16lQRQrfeQ5K5Oxw",
      "types": [
        "country",
        "political"
      ]
    }
  ],
  "status": "OK"
}
