{
  "results": [
    {
      "address_components": [
        {
          "long_name": "411-415",
          "short_name": "411-415",
          "types": [
            "street_number"
          ]
        },
        {
          "long_name": "Main Street",
          "short_name": "Main St",
          "types": [
            "route"
          ]
        },
        {
          "long_name": "Hunnewell",
          "short_name": "Hunnewell",
          "types": [
            "locality",
            "political"
          ]
        },
        {
          "long_name": "South Haven",
          "short_name": "South Haven",
          "types": [
            "administrative_area_level_3",
            "political"
          ]
        },
        {
          "long_name": "Sumner County",
          "short_name": "Sumner County",
          "types": [
            "administrative_area_level_2",
            "political"
          ]
        },
        {
          "long_name": "Kansas",
          "short_name": "KS",
          "types": [
            "administrative_area_level_1",
            "political"
          ]
        },
        {
          "long_name": "United States",
          "short_name": "US",
          "types": [
            "country",
            "political"
          ]
        },
        {
          "long_name": "67140",
          "short_name": "67140",
          "types": [
            "postal_code"
          ]
        },
        {
          "long_name": "9119",
          "short_name": "9119",
          "types": [
            "postal_code_suffix"
          ]
        }
      ],
      "formatted_address": "411-415 Main St, Hunnewell, KS 67140, USA",
      "geometry": {
        "bounds": {
          "northeast": {
            "lat": 37.0049702,
            "lng": -97.406399
          },
          "southwest": {
            "lat": 37.004962,
            "lng": -97.4080479
          }
        },
        "location": {
          "lat": 37.0049526,
          "lng": -97.4075175
        },
        "location_type": "RANGE_INTERPOLATED",
        "viewport": {
          "northeast": {
            "lat": 37.0063150802915,
            "lng": -97.4058744697085
          },
          "southwest": {
            "lat": 37.0036171197085,
            "lng": -97.4085724302915
          }
        }
      },
      "place_id": "Eik0MTEtNDE1IE1haW4gU3QsIEh1bm5ld2VsbCwgS1MgNjcxNDAsIFVTQQ",
      "types": [
        "street_address"
      ]
    },
    {
      "address_components": [
        {
          "long_name": "Hunnewell",
          "short_name": "Hunnewell",
          "types": [
            "locality",
            "political"
          ]
        },
        {
          "long_name": "South Haven",
          "short_name": "South Haven",
          "types": [
            "administrative_area_level_3",
            "political"
          ]
        },
        {
          "long_name": "Sumner County",
          "short_name": "Sumner County",
          "types": [
            "administrative_area_level_2",
            "political"
          ]
        },
        {
          "long_name": "Kansas",
          "short_name": "KS",
          "types": [
            "administrative_area_level_1",
            "political"
          ]
        },
        {
          "long_name": "United States",
          "short_name": "US",
          "types": [
            "country",
            "political"
          ]
        },
        {
          "long_name": "67140",
          "short_name": "67140",
          "types": [
            "postal_code"
          ]
        }
      ],
      "formatted_address": "Hunnewell, KS 67140, USA",
      "geometry": {
        "bounds": {
          "northeast": {
            "lat": 37.009525,
            "lng": -97.4008098
          },
          "southwest": {
            "lat": 36.9997411,
            "lng": -97.414619
          }
        },
        "location": {
          "lat": 37.0050268,
          "lng": -97.4047679
        },
        "location_type": "APPROXIMATE",
        "viewport": {
          "northeast": {
            "lat": 37.009525,
            "lng": -97.4008098
          },
          "southwest": {
            "lat": 36.9997411,
            "lng": -97.414619
          }
        }
      },
      "place_id": "ChIJVxn9dO10sIcR3jVv_uJ5FsU",
      "types": [
        "locality",
        "political"
      ]
    },
    {
      "address_components": [
        {
          "long_name": "South Haven",
          "short_name": "South Haven",
          "types": [
            "administrative_area_level_3",
            "political"
          ]
        },
        {
          "long_name": "Sumner County",
          "short_name": "Sumner County",
          "types": [
            "administrative_area_level_2",
            "political"
          ]
        },
        {
          "long_name": "Kansas",
          "short_name": "KS",
          "types": [
            "administrative_area_level_1",
            "political"
          ]
        },
        {
          "long_name": "United States",
          "short_name": "US",
          "types": [
            "country",
            "political"
          ]
        }
      ],
      "formatted_address": "South Haven, KS, USA",
      "geometry": {
        "bounds": {
          "northeast": {
            "lat": 37.130272,
            "lng": -97.36486579999999
          },
          "southwest": {
            "lat": 36.998573,
            "lng": -97.47434489999999
          }
        },
        "location": {
          "lat": 37.0440901,
          "lng": -97.4165053
        },
        "location_type": "APPROXIMATE",
        "viewport": {
          "northeast": {
            "lat": 37.130272,
            "lng": -97.36486579999999
          },
          "southwest": {
            "lat": 36.998573,
            "lng": -97.47434489999999
          }
        }
      },
      "place_id": "ChIJ17wmcV91sIcRx-huFzA2hik",
      "types": [
        "administrative_area_level_3",
        "political"
      ]
    },
    {
      "address_components": [
        {
          "long_name": "67140",
          "short_name": "67140",
          "types": [
            "postal_code"
          ]
        },
        {
          "long_name": "South Haven",
          "short_name": "South Haven",
          "types": [
            "locality",
            "political"
          ]
        },
        {
          "long_name": "Kansas",
          "short_name": "KS",
          "types": [
            "administrative_area_level_1",
            "political"
          ]
        },
        {
          "long_name": "United States",
          "short_name": "US",
          "types": [
            "country",
            "political"
          ]
        }
      ],
      "formatted_address": "South Haven, KS 67140, USA",
      "geometry": {
        "bounds": {
          "northeast": {
            "lat": 37.203478,
            "lng": -97.237667
          },
          "southwest": {
            "lat": 36.9986851,
            "lng": -97.49253379999999
          }
        },
        "location": {
          "lat": 37.0894781,
          "lng": -97.3732655
        },
        "location_type": "APPROXIMATE",
        "viewport": {
          "northeast": {
            "lat": 37.203478,
            "lng": -97.237667
          },
          "southwest": {
            "lat": 36.9986851,
            "lng": -97.49253379999999
          }
        }
      },
      "place_id": "ChIJQ_Yi9gGeuocRiDN4W6AiJp0",
      "postcode_localities": [
        "Hunnewell",
        "South Haven"
      ],
      "types": [
        "postal_code"
      ]
    },
    {
      "address_components": [
        {
          "long_name": "Sumner County",
          "short_name": "Sumner County",
          "types": [
            "administrative_area_level_2",
            "political"
          ]
        },
        {
          "long_name": "Kansas",
          "short_name": "KS",
          "types": [
            "administrative_area_level_1",
            "political"
          ]
        },
        {
          "long_name": "United States",
          "short_name": "US",
          "types": [
            "country",
            "political"
          ]
        }
      ],
      "formatted_address": "Sumner County, KS, USA",
      "geometry": {
        "bounds": {
          "northeast": {
            "lat": 37.4772759,
            "lng": -97.1477139
          },
          "southwest": {
            "lat": 36.9985461,
            "lng": -97.8076
          }
        },
        "location": {
          "lat": 37.2236052,
          "lng": -97.6114217
        },
        "location_type": "APPROXIMATE",
        "viewport": {
          "northeast": {
            "lat": 37.4772759,
            "lng": -97.1477139
          },
          "southwest": {
            "lat": 36.9985461,
            "lng": -97.8076
          }
        }
      },
      "place_id": "ChIJb2Nlw8q_uocRpAMP89jrDH8",
      "types": [
        "administrative_area_level_2",
        "political"
      ]
    },
    {
      "address_components": [
        {
          "long_name": "Wichita",
          "short_name": "Wichita",
          "types": [
            "political"
          ]
        },
        {
          "long_name": "United States",
          "short_name": "US",
          "types": [
            "country",
            "political"
          ]
        }
      ],
      "formatted_address": "Wichita, USA",
      "geometry": {
        "bounds": {
          "northeast": {
            "lat": 38.174845,
            "lng": -96.52278199999999
          },
          "southwest": {
            "lat": 36.998682,
            "lng": -97.808684
          }
        },
        "location": {
          "lat": 37.56345719999999,
          "lng": -97.6114217
        },
        "location_type": "APPROXIMATE",
        "viewport": {
          "northeast": {
            "lat": 38.174845,
            "lng": -96.52278199999999
          },
          "southwest": {
            "lat": 36.998682,
            "lng": -97.808684
          }
        }
      },
      "place_id": "ChIJBR4vHiP7uocRb5iXYk82f7k",
      "types": [
        "political"
      ]
    },
    {
      "address_components": [
        {
          "long_name": "Kansas",
          "short_name": "KS",
          "types": [
            "administrative_area_level_1",
            "political"
          ]
        },
        {
          "long_name": "United States",
          "short_name": "US",
          "types": [
            "country",
            "political"
          ]
        }
      ],
      "formatted_address": "Kansas, USA",
      "geometry": {
        "bounds": {
          "northeast": {
            "lat": 40.0045419,
            "lng": -94.588387
          },
          "southwest": {
            "lat": 36.9930159,
            "lng": -102.0517688
          }
        },
        "location": {
          "lat": 39.011902,
          "lng": -98.4842465
        },
        "location_type": "APPROXIMATE",
        "viewport": {
          "northeast": {
            "lat": 40.0045419,
            "lng": -94.588387
          },
          "southwest": {
            "lat": 36.9930159,
            "lng": -102.0517688
          }
        }
      },
      "place_id": "ChIJawF8cXEXo4cRXwk-S6m0wmg",
      "types": [
        "administrative_area_level_1",
        "political"
      ]
    },
    {
      "address_components": [
        {
          "long_name": "United States",
          "short_name": "US",
          "types": [
            "country",
            "political"
          ]
        }
      ],
      "formatted_address": "United States",
      "geometry": {
        "bounds": {
          "northeast": {
            "lat": 71.3867745,
            "lng": -66.9502861
          },
          "southwest": {
            "lat": 18.9106768,
            "lng": 172.4458955
          }
        },
        "location": {
          "lat": 37.09024,
          "lng": -95.712891
        },
        "location_type": "APPROXIMATE",
        "viewport": {
          "northeast": {
            "lat": 49.38,
            "lng": -66.94
          },
          "southwest": {
            "lat": 25.82,
            "lng": -124.39
          }
        }
      },
      "place_id": "ChIJCzYy5IS16lQRQrfeQ5K5Oxw",
      "types": [
        "country",
        "political"
      ]
    }
  ],
  "status": "OK"
}
