{
  "results": [
    {
      "address_components": [
        {
          "long_name": "Bull Dog Lane",
          "short_name": "State Hwy 80",
          "types": [
            "route"
          ]
        },
        {
          "long_name": "Gainesville",
          "short_name": "Gainesville",
          "types": [
            "locality",
            "political"
          ]
        },
        {
          "long_name": "West Bridges Township",
          "short_name": "West Bridges Township",
          "types": [
            "administrative_area_level_3",
            "political"
          ]
        },
        {
          "long_name": "Ozark County",
          "short_name": "Ozark County",
          "types": [
            "administrative_area_level_2",
            "political"
          ]
        },
        {
          "long_name": "Missouri",
          "short_name": "MO",
          "types": [
            "administrative_area_level_1",
            "political"
          ]
        },
        {
          "long_name": "United States",
          "short_name": "US",
          "types": [
            "country",
            "political"
          ]
        },
        {
          "long_name": "65655",
          "short_name": "65655",
          "types": [
            "postal_code"
          ]
        }
      ],
      "formatted_address": "Bull Dog Ln, Gainesville, MO 65655, USA",
      "geometry": {
        "bounds": {
          "northeast": {
            "lat": 36.6072,
            "lng": -92.4238084
          },
          "southwest": {
            "lat": 36.6056799,
            "lng": -92.42542
          }
        },
        "location": {
          "lat": 36.6064375,
          "lng": -92.4246177
        },
        "location_type": "GEOMETRIC_CENTER",
        "viewport": {
          "northeast": {
            "lat": 36.6077889302915,
            "lng": -92.4232652197085
          },
          "southwest": {
            "lat": 36.6050909697085,
            "lng": -92.4259631802915
          }
        }
      },
      "place_id": "ChIJmRUAoOAq0IcRSUzJOy7LjOo",
      "types": [
        "route"
      ]
    },
    {
      "address_components": [
        {
          "long_name": "Gainesville",
          "short_name": "Gainesville",
          "types": [
            "locality",
            "political"
          ]
        },
        {
          "long_name": "West Bridges Township",
          "short_name": "West Bridges Township",
          "types": [
            "administrative_area_level_3",
            "political"
          ]
        },
        {
          "long_name": "Ozark County",
          "short_name": "Ozark County",
          "types": [
            "administrative_area_level_2",
            "political"
          ]
        },
        {
          "long_name": "Missouri",
          "short_name": "MO",
          "types": [
            "administrative_area_level_1",
            "political"
          ]
        },
        {
          "long_name": "United States",
          "short_name": "US",
          "types": [
            "country",
            "political"
          ]
        },
        {
          "long_name": "65655",
          "short_name": "65655",
          "types": [
            "postal_code"
          ]
        }
      ],
      "formatted_address": "Gainesville, MO 65655, USA",
      "geometry": {
        "bounds": {
          "northeast": {
            "lat": 36.623376,
            "lng": -92.39320389999999
          },
          "southwest": {
            "lat": 36.5927421,
            "lng": -92.475788
          }
        },
        "location": {
          "lat": 36.6031184,
          "lng": -92.42821699999999
        },
        "location_type": "APPROXIMATE",
        "viewport": {
          "northeast": {
            "lat": 36.623376,
            "lng": -92.39320389999999
          },
          "southwest": {
            "lat": 36.5927421,
            "lng": -92.475788
          }
        }
      },
      "place_id": "ChIJrzzJUNsq0IcRCZ2mnNOW3Ag",
      "types": [
        "locality",
        "political"
      ]
    },
    {
      "address_components": [
        {
          "long_name": "West Bridges Township",
          "short_name": "West Bridges Township",
          "types": [
            "administrative_area_level_3",
            "political"
          ]
        },
        {
          "long_name": "Ozark County",
          "short_name": "Ozark County",
          "types": [
            "administrative_area_level_2",
            "political"
          ]
        },
        {
          "long_name": "Missouri",
          "short_name": "MO",
          "types": [
            "administrative_area_level_1",
            "political"
          ]
        },
        {
          "long_name": "United States",
          "short_name": "US",
          "types": [
            "country",
            "political"
          ]
        }
      ],
      "formatted_address": "West Bridges Township, MO, USA",
      "geometry": {
        "bounds": {
          "northeast": {
            "lat": 36.665102,
            "lng": -92.3944489
          },
          "southwest": {
            "lat": 36.5122719,
            "lng": -92.55385679999999
          }
        },
        "location": {
          "lat": 36.5612715,
          "lng": -92.5197932
        },
        "location_type": "APPROXIMATE",
        "viewport": {
          "northeast": {
            "lat": 36.665102,
            "lng": -92.3944489
          },
          "southwest": {
            "lat": 36.5122719,
            "lng": -92.55385679999999
          }
        }
      },
      "place_id": "ChIJBQZUGEzVz4cRQt_-Zify1uw",
      "types": [
        "administrative_area_level_3",
        "political"
      ]
    },
    {
      "address_components": [
        {
          "long_name": "65655",
          "short_name": "65655",
          "types": [
            "postal_code"
          ]
        },
        {
          "long_name": "Gainesville",
          "short_name": "Gainesville",
          "types": [
            "locality",
            "political"
          ]
        },
        {
          "long_name": "Missouri",
          "short_name": "MO",
          "types": [
            "administrative_area_level_1",
            "political"
          ]
        },
        {
          "long_name": "United States",
          "short_name": "US",
          "types": [
            "country",
            "political"
          ]
        }
      ],
      "formatted_address": "Gainesville, MO 65655, USA",
      "geometry": {
        "bounds": {
          "northeast": {
            "lat": 36.71924,
            "lng": -92.25669599999999
          },
          "southwest": {
            "lat": 36.4971989,
            "lng": -92.596795
          }
        },
        "location": {
          "lat": 36.6280715,
          "lng": -92.4208713
        },
        "location_type": "APPROXIMATE",
        "viewport": {
          "northeast": {
            "lat": 36.71924,
            "lng": -92.25669599999999
          },
          "southwest": {
            "lat": 36.4971989,
            "lng": -92.596795
          }
        }
      },
      "place_id": "ChIJsYx6q88q0IcRTI0uwu0Rhik",
      "types": [
        "postal_code"
      ]
    },
    {
      "address_components": [
        {
          "long_name": "Ozark County",
          "short_name": "Ozark County",
          "types": [
            "administrative_area_level_2",
            "political"
          ]
        },
        {
          "long_name": "Missouri",
          "short_name": "MO",
          "types": [
            "administrative_area_level_1",
            "political"
          ]
        },
        {
          "long_name": "United States",
          "short_name": "US",
          "types": [
            "country",
            "political"
          ]
        }
      ],
      "formatted_address": "Ozark County, MO, USA",
      "geometry": {
        "bounds": {
          "northeast": {
            "lat": 36.8060969,
            "lng": -92.11234600000002
          },
          "southwest": {
            "lat": 36.4971989,
            "lng": -92.772188
          }
        },
        "location": {
          "lat": 36.6720061,
          "lng": -92.38136209999999
        },
        "location_type": "APPROXIMATE",
        "viewport": {
          "northeast": {
            "lat": 36.8060969,
            "lng": -92.11234600000002
          },
          "southwest": {
            "lat": 36.4971989,
            "lng": -92.772188
          }
        }
      },
      "place_id": "ChIJVaEHqb5K24cRvfQQjdPhsgo",
      "types": [
        "administrative_area_level_2",
        "political"
      ]
    },
    {
      "address_components": [
        {
          "long_name": "Missouri",
          "short_name": "MO",
          "types": [
            "administrative_area_level_1",
            "political"
          ]
        },
        {
          "long_name": "United States",
          "short_name": "US",
          "types": [
            "country",
            "political"
          ]
        }
      ],
      "formatted_address": "Missouri, USA",
      "geometry": {
        "bounds": {
          "northeast": {
            "lat": 40.61364,
            "lng": -89.09949399999999
          },
          "southwest": {
            "lat": 35.9956829,
            "lng": -95.774704
          }
        },
        "location": {
          "lat": 37.9642529,
          "lng": -91.8318334
        },
        "location_type": "APPROXIMATE",
        "viewport": {
          "northeast": {
            "lat": 40.61364,
            "lng": -89.09949399999999
          },
          "southwest": {
            "lat": 35.9956829,
            "lng": -95.774704
          }
        }
      },
      "place_id": "ChIJfeMiSNXmwIcRcr1mBFnEW7U",
      "types": [
        "administrative_area_level_1",
        "political"
      ]
    },
    {
      "address_components": [
        {
          "long_name": "United States",
          "short_name": "US",
          "types": [
            "country",
            "political"
          ]
        }
      ],
      "formatted_address": "United States",
      "geometry": {
        "bounds": {
          "northeast": {
            "lat": 71.3867745,
            "lng": -66.9502861
          },
          "southwest": {
            "lat": 18.9106768,
            "lng": 172.4458955
          }
        },
        "location": {
          "lat": 37.09024,
          "lng": -95.712891
        },
        "location_type": "APPROXIMATE",
        "viewport": {
          "northeast": {
            "lat": 49.38,
            "lng": -66.94
          },
          "southwest": {
            "lat": 25.82,
            "lng": -124.39
          }
        }
      },
      "place_id": "ChIJCzYy5IS16lQRQrfeQ5K5Oxw",
      "types": [
        "country",
        "political"
      ]
    }
  ],
  "status": "OK"
}
