{
  "results": [
    {
      "address_components": [
        {
          "long_name": "12501",
          "short_name": "12501",
          "types": [
            "street_number"
          ]
        },
        {
          "long_name": "Brandon Road",
          "short_name": "Brandon Rd",
          "types": [
            "route"
          ]
        },
        {
          "long_name": "South Rockwood",
          "short_name": "South Rockwood",
          "types": [
            "sublocality_level_1",
            "sublocality",
            "political"
          ]
        },
        {
          "long_name": "Berlin Charter Township",
          "short_name": "Berlin Charter Twp",
          "types": [
            "locality",
            "political"
          ]
        },
        {
          "long_name": "Monroe County",
          "short_name": "Monroe County",
          "types": [
            "administrative_area_level_2",
            "political"
          ]
        },
        {
          "long_name": "Michigan",
          "short_name": "MI",
          "types": [
            "administrative_area_level_1",
            "political"
          ]
        },
        {
          "long_name": "United States",
          "short_name": "US",
          "types": [
            "country",
            "political"
          ]
        },
        {
          "long_name": "48179",
          "short_name": "48179",
          "types": [
            "postal_code"
          ]
        }
      ],
      "formatted_address": "12501 Brandon Rd, South Rockwood, MI 48179, USA",
      "geometry": {
        "bounds": {
          "northeast": {
            "lat": 42.0624311,
            "lng": -83.26499059999999
          },
          "southwest": {
            "lat": 42.0601111,
            "lng": -83.26504659999999
          }
        },
        "location": {
          "lat": 42.0601109,
          "lng": -83.2650094
        },
        "location_type": "RANGE_INTERPOLATED",
        "viewport": {
          "northeast": {
            "lat": 42.0626200802915,
            "lng": -83.2636696197085
          },
          "southwest": {
            "lat": 42.0599221197085,
            "lng": -83.2663675802915
          }
        }
      },
      "place_id": "Ei8xMjUwMSBCcmFuZG9uIFJkLCBTb3V0aCBSb2Nrd29vZCwgTUkgNDgxNzksIFVTQQ",
      "types": [
        "street_address"
      ]
    },
    {
      "address_components": [
        {
          "long_name": "South Rockwood",
          "short_name": "South Rockwood",
          "types": [
            "sublocality_level_1",
            "sublocality",
            "political"
          ]
        },
        {
          "long_name": "Berlin Charter Township",
          "short_name": "Berlin Charter Twp",
          "types": [
            "locality",
            "political"
          ]
        },
        {
          "long_name": "Monroe County",
          "short_name": "Monroe County",
          "types": [
            "administrative_area_level_2",
            "political"
          ]
        },
        {
          "long_name": "Michigan",
          "short_name": "MI",
          "types": [
            "administrative_area_level_1",
            "political"
          ]
        },
        {
          "long_name": "United States",
          "short_name": "US",
          "types": [
            "country",
            "political"
          ]
        }
      ],
      "formatted_address": "South Rockwood, Berlin Charter Twp, MI, USA",
      "geometry": {
        "bounds": {
          "northeast": {
            "lat": 42.0772319,
            "lng": -83.2287871
          },
          "southwest": {
            "lat": 42.050835,
            "lng": -83.27932009999999
          }
        },
        "location": {
          "lat": 42.0639323,
          "lng": -83.2610406
        },
        "location_type": "APPROXIMATE",
        "viewport": {
          "northeast": {
            "lat": 42.0772319,
            "lng": -83.2287871
          },
          "southwest": {
            "lat": 42.050835,
            "lng": -83.27932009999999
          }
        }
      },
      "place_id": "ChIJsS5QbXJAO4gRhEc7K2OZ0go",
      "types": [
        "sublocality_level_1",
        "sublocality",
        "political"
      ]
    },
    {
      "address_components": [
        {
          "long_name": "Berlin Charter Township",
          "short_name": "Berlin Charter Twp",
          "types": [
            "locality",
            "political"
          ]
        },
        {
          "long_name": "Monroe County",
          "short_name": "Monroe County",
          "types": [
            "administrative_area_level_2",
            "political"
          ]
        },
        {
          "long_name": "Michigan",
          "short_name": "MI",
          "types": [
            "administrative_area_level_1",
            "political"
          ]
        },
        {
          "long_name": "United States",
          "short_name": "US",
          "types": [
            "country",
            "political"
          ]
        }
      ],
      "formatted_address": "Berlin Charter Twp, MI, USA",
      "geometry": {
        "bounds": {
          "northeast": {
            "lat": 42.0943801,
            "lng": -83.164603
          },
          "southwest": {
            "lat": 41.9760821,
            "lng": -83.340665
          }
        },
        "location": {
          "lat": 42.0195473,
          "lng": -83.2720082
        },
        "location_type": "APPROXIMATE",
        "viewport": {
          "northeast": {
            "lat": 42.0943801,
            "lng": -83.164603
          },
          "southwest": {
            "lat": 41.9760821,
            "lng": -83.340665
          }
        }
      },
      "place_id": "ChIJW2SwBatqO4gR4bqxWoaPnfk",
      "types": [
        "locality",
        "political"
      ]
    },
    {
      "address_components": [
        {
          "long_name": "48179",
          "short_name": "48179",
          "types": [
            "postal_code"
          ]
        },
        {
          "long_name": "South Rockwood",
          "short_name": "South Rockwood",
          "types": [
            "sublocality_level_1",
            "sublocality",
            "political"
          ]
        },
        {
          "long_name": "Michigan",
          "short_name": "MI",
          "types": [
            "administrative_area_level_1",
            "political"
          ]
        },
        {
          "long_name": "United States",
          "short_name": "US",
          "types": [
            "country",
            "political"
          ]
        }
      ],
      "formatted_address": "South Rockwood, MI 48179, USA",
      "geometry": {
        "bounds": {
          "northeast": {
            "lat": 42.088581,
            "lng": -83.192999
          },
          "southwest": {
            "lat": 42.0183898,
            "lng": -83.3290359
          }
        },
        "location": {
          "lat": 42.0484941,
          "lng": -83.2613054
        },
        "location_type": "APPROXIMATE",
        "viewport": {
          "northeast": {
            "lat": 42.088581,
            "lng": -83.192999
          },
          "southwest": {
            "lat": 42.0183898,
            "lng": -83.3290359
          }
        }
      },
      "place_id": "ChIJzeyDTAJAO4gR664ie8jROzA",
      "types": [
        "postal_code"
      ]
    },
    {
      "address_components": [
        {
          "long_name": "Monroe",
          "short_name": "Monroe",
          "types": [
            "political"
          ]
        },
        {
          "long_name": "United States",
          "short_name": "US",
          "types": [
            "country",
            "political"
          ]
        }
      ],
      "formatted_address": "Monroe, USA",
      "geometry": {
        "bounds": {
          "northeast": {
            "lat": 42.094269,
            "lng": -83.1814749
          },
          "southwest": {
            "lat": 41.72355,
            "lng": -83.773956
          }
        },
        "location": {
          "lat": 41.9738893,
          "lng": -83.5070203
        },
        "location_type": "APPROXIMATE",
        "viewport": {
          "northeast": {
            "lat": 42.094269,
            "lng": -83.1814749
          },
          "southwest": {
            "lat": 41.72355,
            "lng": -83.773956
          }
        }
      },
      "place_id": "ChIJk4KXmg9jO4gR9HXKZfYA0kg",
      "types": [
        "political"
      ]
    },
    {
      "address_components": [
        {
          "long_name": "Monroe County",
          "short_name": "Monroe County",
          "types": [
            "administrative_area_level_2",
            "political"
          ]
        },
        {
          "long_name": "Michigan",
          "short_name": "MI",
          "types": [
            "administrative_area_level_1",
            "political"
          ]
        },
        {
          "long_name": "United States",
          "short_name": "US",
          "types": [
            "country",
            "political"
          ]
        }
      ],
      "formatted_address": "Monroe County, MI, USA",
      "geometry": {
        "bounds": {
          "northeast": {
            "lat": 42.0943801,
            "lng": -83.1487458
          },
          "southwest": {
            "lat": 41.723546,
            "lng": -83.773922
          }
        },
        "location": {
          "lat": 41.9738893,
          "lng": -83.5070203
        },
        "location_type": "APPROXIMATE",
        "viewport": {
          "northeast": {
            "lat": 42.0943801,
            "lng": -83.1487458
          },
          "southwest": {
            "lat": 41.723546,
            "lng": -83.773922
          }
        }
      },
      "place_id": "ChIJ0yMoNdhmO4gR5ZubrvcyyZM",
      "types": [
        "administrative_area_level_2",
        "political"
      ]
    },
    {
      "address_components": [
        {
          "long_name": "Michigan",
          "short_name": "MI",
          "types": [
            "administrative_area_level_1",
            "political"
          ]
        },
        {
          "long_name": "United States",
          "short_name": "US",
          "types": [
            "country",
            "political"
          ]
        }
      ],
      "formatted_address": "Michigan, USA",
      "geometry": {
        "bounds": {
          "northeast": {
            "lat": 48.1986461,
            "lng": -82.413474
          },
          "southwest": {
            "lat": 41.696118,
            "lng": -90.4181358
          }
        },
        "location": {
          "lat": 44.3148443,
          "lng": -85.60236429999999
        },
        "location_type": "APPROXIMATE",
        "viewport": {
          "northeast": {
            "lat": 48.198602,
            "lng": -82.413474
          },
          "southwest": {
            "lat": 41.696118,
            "lng": -90.4181358
          }
        }
      },
      "place_id": "ChIJEQTKxz2qTE0Rs8liellI3Zc",
      "types": [
        "administrative_area_level_1",
        "political"
      ]
    },
    {
      "address_components": [
        {
          "long_name": "United States",
          "short_name": "US",
          "types": [
            "country",
            "political"
          ]
        }
      ],
      "formatted_address": "United States",
      "geometry": {
        "bounds": {
          "northeast": {
            "lat": 71.3867745,
            "lng": -66.9502861
          },
          "southwest": {
            "lat": 18.9106768,
            "lng": 172.4458955
          }
        },
        "location": {
          "lat": 37.09024,
          "lng": -95.712891
        },
        "location_type": "APPROXIMATE",
        "viewport": {
          "northeast": {
            "lat": 49.38,
            "lng": -66.94
          },
          "southwest": {
            "lat": 25.82,
            "lng": -124.39
          }
        }
      },
      "place_id": "ChIJCzYy5IS16lQRQrfeQ5K5Oxw",
      "types": [
        "country",
        "political"
      ]
    }
  ],
  "status": "OK"
}
