{
  "results": [
    {
      "address_components": [
        {
          "long_name": "34",
          "short_name": "34",
          "types": [
            "street_number"
          ]
        },
        {
          "long_name": "King Street",
          "short_name": "King St",
          "types": [
            "route"
          ]
        },
        {
          "long_name": "Hampton Bays",
          "short_name": "Hampton Bays",
          "types": [
            "locality",
            "political"
          ]
        },
        {
          "long_name": "Southampton",
          "short_name": "Southampton",
          "types": [
            "administrative_area_level_3",
            "political"
          ]
        },
        {
          "long_name": "Suffolk County",
          "short_name": "Suffolk County",
          "types": [
            "administrative_area_level_2",
            "political"
          ]
        },
        {
          "long_name": "New York",
          "short_name": "NY",
          "types": [
            "administrative_area_level_1",
            "political"
          ]
        },
        {
          "long_name": "United States",
          "short_name": "US",
          "types": [
            "country",
            "political"
          ]
        },
        {
          "long_name": "11946",
          "short_name": "11946",
          "types": [
            "postal_code"
          ]
        },
        {
          "long_name": "2267",
          "short_name": "2267",
          "types": [
            "postal_code_suffix"
          ]
        }
      ],
      "formatted_address": "34 King St, Hampton Bays, NY 11946, USA",
      "geometry": {
        "location": {
          "lat": 40.868834,
          "lng": -72.522694
        },
        "location_type": "ROOFTOP",
        "viewport": {
          "northeast": {
            "lat": 40.8701829802915,
            "lng": -72.52134501970849
          },
          "southwest": {
            "lat": 40.8674850197085,
            "lng": -72.5240429802915
          }
        }
      },
      "place_id": "ChIJDZ6yQp7y6IkRJHagtRQflYs",
      "types": [
        "street_address"
      ]
    },
    {
      "address_components": [
        {
          "long_name": "Hampton Bays",
          "short_name": "Hampton Bays",
          "types": [
            "locality",
            "political"
          ]
        },
        {
          "long_name": "Southampton",
          "short_name": "Southampton",
          "types": [
            "administrative_area_level_3",
            "political"
          ]
        },
        {
          "long_name": "Suffolk County",
          "short_name": "Suffolk County",
          "types": [
            "administrative_area_level_2",
            "political"
          ]
        },
        {
          "long_name": "New York",
          "short_name": "NY",
          "types": [
            "administrative_area_level_1",
            "political"
          ]
        },
        {
          "long_name": "United States",
          "short_name": "US",
          "types": [
            "country",
            "political"
          ]
        }
      ],
      "formatted_address": "Hampton Bays, NY, USA",
      "geometry": {
        "bounds": {
          "northeast": {
            "lat": 40.9170693,
            "lng": -72.4778207
          },
          "southwest": {
            "lat": 40.8154824,
            "lng": -72.57164809999999
          }
        },
        "location": {
          "lat": 40.8689892,
          "lng": -72.5175893
        },
        "location_type": "APPROXIMATE",
        "viewport": {
          "northeast": {
            "lat": 40.9170693,
            "lng": -72.4778207
          },
          "southwest": {
            "lat": 40.8154824,
            "lng": -72.57164809999999
          }
        }
      },
      "place_id": "ChIJjXGRu5P16IkRz5458V_j_c8",
      "types": [
        "locality",
        "political"
      ]
    },
    {
      "address_components": [
        {
          "long_name": "11946",
          "short_name": "11946",
          "types": [
            "postal_code"
          ]
        },
        {
          "long_name": "Hampton Bays",
          "short_name": "Hampton Bays",
          "types": [
            "locality",
            "political"
          ]
        },
        {
          "long_name": "Southampton",
          "short_name": "Southampton",
          "types": [
            "administrative_area_level_3",
            "political"
          ]
        },
        {
          "long_name": "Suffolk County",
          "short_name": "Suffolk County",
          "types": [
            "administrative_area_level_2",
            "political"
          ]
        },
        {
          "long_name": "New York",
          "short_name": "NY",
          "types": [
            "administrative_area_level_1",
            "political"
          ]
        },
        {
          "long_name": "United States",
          "short_name": "US",
          "types": [
            "country",
            "political"
          ]
        }
      ],
      "formatted_address": "Hampton Bays, NY 11946, USA",
      "geometry": {
        "bounds": {
          "northeast": {
            "lat": 40.9178438,
            "lng": -72.46761099999999
          },
          "southwest": {
            "lat": 40.8137089,
            "lng": -72.5819491
          }
        },
        "location": {
          "lat": 40.88378460000001,
          "lng": -72.53231389999999
        },
        "location_type": "APPROXIMATE",
        "viewport": {
          "northeast": {
            "lat": 40.9178438,
            "lng": -72.46761099999999
          },
          "southwest": {
            "lat": 40.8137089,
            "lng": -72.5819491
          }
        }
      },
      "place_id": "ChIJmXy2R8yS6IkR2HsZ3Cssn10",
      "types": [
        "postal_code"
      ]
    },
    {
      "address_components": [
        {
          "long_name": "Southampton",
          "short_name": "Southampton",
          "types": [
            "administrative_area_level_3",
            "political"
          ]
        },
        {
          "long_name": "Suffolk County",
          "short_name": "Suffolk County",
          "types": [
            "administrative_area_level_2",
            "political"
          ]
        },
        {
          "long_name": "New York",
          "short_name": "NY",
          "types": [
            "administrative_area_level_1",
            "political"
          ]
        },
        {
          "long_name": "United States",
          "short_name": "US",
          "types": [
            "country",
            "political"
          ]
        }
      ],
      "formatted_address": "Southampton, NY, USA",
      "geometry": {
        "bounds": {
          "northeast": {
            "lat": 41.0409569,
            "lng": -72.2456265
          },
          "southwest": {
            "lat": 40.7712478,
            "lng": -72.7287111
          }
        },
        "location": {
          "lat": 40.8598656,
          "lng": -72.5678041
        },
        "location_type": "APPROXIMATE",
        "viewport": {
          "northeast": {
            "lat": 41.0409569,
            "lng": -72.2456265
          },
          "southwest": {
            "lat": 40.7712478,
            "lng": -72.7287111
          }
        }
      },
      "place_id": "ChIJ_TWoDO5e6IkRvbxwplwpKsM",
      "types": [
        "administrative_area_level_3",
        "political"
      ]
    },
    {
      "address_components": [
        {
          "long_name": "Suffolk County",
          "short_name": "Suffolk County",
          "types": [
            "administrative_area_level_2",
            "political"
          ]
        },
        {
          "long_name": "New York",
          "short_name": "NY",
          "types": [
            "administrative_area_level_1",
            "political"
          ]
        },
        {
          "long_name": "United States",
          "short_name": "US",
          "types": [
            "country",
            "political"
          ]
        }
      ],
      "formatted_address": "Suffolk County, NY, USA",
      "geometry": {
        "bounds": {
          "northeast": {
            "lat": 41.2923797,
            "lng": -71.8562082
          },
          "southwest": {
            "lat": 40.6094203,
            "lng": -73.497125
          }
        },
        "location": {
          "lat": 40.9848784,
          "lng": -72.61511689999999
        },
        "location_type": "APPROXIMATE",
        "viewport": {
          "northeast": {
            "lat": 41.2923194,
            "lng": -71.8562082
          },
          "southwest": {
            "lat": 40.6094203,
            "lng": -73.497125
          }
        }
      },
      "place_id": "ChIJ1_mbyICu4IkRU18dDUkMxJU",
      "types": [
        "administrative_area_level_2",
        "political"
      ]
    },
    {
      "address_components": [
        {
          "long_name": "New York",
          "short_name": "NY",
          "types": [
            "administrative_area_level_1",
            "political"
          ]
        },
        {
          "long_name": "United States",
          "short_name": "US",
          "types": [
            "country",
            "political"
          ]
        }
      ],
      "formatted_address": "New York, USA",
      "geometry": {
        "bounds": {
          "northeast": {
            "lat": 45.015865,
            "lng": -71.85620639999999
          },
          "southwest": {
            "lat": 40.496091,
            "lng": -79.76214379999999
          }
        },
        "location": {
          "lat": 43.2994285,
          "lng": -74.21793260000001
        },
        "location_type": "APPROXIMATE",
        "viewport": {
          "northeast": {
            "lat": 45.015859,
            "lng": -71.85620639999999
          },
          "southwest": {
            "lat": 40.496091,
            "lng": -79.76214379999999
          }
        }
      },
      "place_id": "ChIJqaUj8fBLzEwRZ5UY3sHGz90",
      "types": [
        "administrative_area_level_1",
        "political"
      ]
    },
    {
      "address_components": [
        {
          "long_name": "United States",
          "short_name": "US",
          "types": [
            "country",
            "political"
          ]
        }
      ],
      "formatted_address": "United States",
      "geometry": {
        "bounds": {
          "northeast": {
            "lat": 71.3867745,
            "lng": -66.9502861
          },
          "southwest": {
            "lat": 18.9106768,
            "lng": 172.4458955
          }
        },
        "location": {
          "lat": 37.09024,
          "lng": -95.712891
        },
        "location_type": "APPROXIMATE",
        "viewport": {
          "northeast": {
            "lat": 49.38,
            "lng": -66.94
          },
          "southwest": {
            "lat": 25.82,
            "lng": -124.39
          }
        }
      },
      "place_id": "ChIJCzYy5IS16lQRQrfeQ5K5Oxw",
      "types": [
        "country",
        "political"
      ]
    }
  ],
  "status": "OK"
}
