{
  "results": [
    {
      "address_components": [
        {
          "long_name": "4111",
          "short_name": "4111",
          "types": [
            "street_number"
          ]
        },
        {
          "long_name": "East 20th Street",
          "short_name": "E 20th St",
          "types": [
            "route"
          ]
        },
        {
          "long_name": "Joplin",
          "short_name": "Joplin",
          "types": [
            "locality",
            "political"
          ]
        },
        {
          "long_name": "Joplin Township",
          "short_name": "Joplin Township",
          "types": [
            "administrative_area_level_3",
            "political"
          ]
        },
        {
          "long_name": "Jasper County",
          "short_name": "Jasper County",
          "types": [
            "administrative_area_level_2",
            "political"
          ]
        },
        {
          "long_name": "Missouri",
          "short_name": "MO",
          "types": [
            "administrative_area_level_1",
            "political"
          ]
        },
        {
          "long_name": "United States",
          "short_name": "US",
          "types": [
            "country",
            "political"
          ]
        },
        {
          "long_name": "64804",
          "short_name": "64804",
          "types": [
            "postal_code"
          ]
        },
        {
          "long_name": "3404",
          "short_name": "3404",
          "types": [
            "postal_code_suffix"
          ]
        }
      ],
      "formatted_address": "4111 E 20th St, Joplin, MO 64804, USA",
      "geometry": {
        "location": {
          "lat": 37.071154,
          "lng": -94.45756999999999
        },
        "location_type": "ROOFTOP",
        "viewport": {
          "northeast": {
            "lat": 37.0725029802915,
            "lng": -94.45622101970848
          },
          "southwest": {
            "lat": 37.0698050197085,
            "lng": -94.45891898029149
          }
        }
      },
      "place_id": "ChIJb0x95ex8yIcRgiSSqvp4mE4",
      "types": [
        "street_address"
      ]
    },
    {
      "address_components": [
        {
          "long_name": "Duquesne",
          "short_name": "Duquesne",
          "types": [
            "locality",
            "political"
          ]
        },
        {
          "long_name": "Joplin Township",
          "short_name": "Joplin Township",
          "types": [
            "administrative_area_level_3",
            "political"
          ]
        },
        {
          "long_name": "Jasper County",
          "short_name": "Jasper County",
          "types": [
            "administrative_area_level_2",
            "political"
          ]
        },
        {
          "long_name": "Missouri",
          "short_name": "MO",
          "types": [
            "administrative_area_level_1",
            "political"
          ]
        },
        {
          "long_name": "United States",
          "short_name": "US",
          "types": [
            "country",
            "political"
          ]
        }
      ],
      "formatted_address": "Duquesne, MO, USA",
      "geometry": {
        "bounds": {
          "northeast": {
            "lat": 37.0873549,
            "lng": -94.4290619
          },
          "southwest": {
            "lat": 37.054764,
            "lng": -94.4742239
          }
        },
        "location": {
          "lat": 37.0767273,
          "lng": -94.4593908
        },
        "location_type": "APPROXIMATE",
        "viewport": {
          "northeast": {
            "lat": 37.0873549,
            "lng": -94.4290619
          },
          "southwest": {
            "lat": 37.054764,
            "lng": -94.4742239
          }
        }
      },
      "place_id": "ChIJpxzvHe98yIcRfeEcPWBGwMQ",
      "types": [
        "locality",
        "political"
      ]
    },
    {
      "address_components": [
        {
          "long_name": "Joplin Township",
          "short_name": "Joplin Township",
          "types": [
            "administrative_area_level_3",
            "political"
          ]
        },
        {
          "long_name": "Jasper County",
          "short_name": "Jasper County",
          "types": [
            "administrative_area_level_2",
            "political"
          ]
        },
        {
          "long_name": "Missouri",
          "short_name": "MO",
          "types": [
            "administrative_area_level_1",
            "political"
          ]
        },
        {
          "long_name": "United States",
          "short_name": "US",
          "types": [
            "country",
            "political"
          ]
        }
      ],
      "formatted_address": "Joplin Township, MO, USA",
      "geometry": {
        "bounds": {
          "northeast": {
            "lat": 37.157199,
            "lng": -94.401658
          },
          "southwest": {
            "lat": 37.05424,
            "lng": -94.514781
          }
        },
        "location": {
          "lat": 37.1065464,
          "lng": -94.4593791
        },
        "location_type": "APPROXIMATE",
        "viewport": {
          "northeast": {
            "lat": 37.157199,
            "lng": -94.401658
          },
          "southwest": {
            "lat": 37.05424,
            "lng": -94.514781
          }
        }
      },
      "place_id": "ChIJff3QND58yIcRhtVx7h0QAfk",
      "types": [
        "administrative_area_level_3",
        "political"
      ]
    },
    {
      "address_components": [
        {
          "long_name": "64804",
          "short_name": "64804",
          "types": [
            "postal_code"
          ]
        },
        {
          "long_name": "Joplin",
          "short_name": "Joplin",
          "types": [
            "locality",
            "political"
          ]
        },
        {
          "long_name": "Missouri",
          "short_name": "MO",
          "types": [
            "administrative_area_level_1",
            "political"
          ]
        },
        {
          "long_name": "United States",
          "short_name": "US",
          "types": [
            "country",
            "political"
          ]
        }
      ],
      "formatted_address": "Joplin, MO 64804, USA",
      "geometry": {
        "bounds": {
          "northeast": {
            "lat": 37.087221,
            "lng": -94.366689
          },
          "southwest": {
            "lat": 36.9393788,
            "lng": -94.6181708
          }
        },
        "location": {
          "lat": 37.0193161,
          "lng": -94.5005808
        },
        "location_type": "APPROXIMATE",
        "viewport": {
          "northeast": {
            "lat": 37.087221,
            "lng": -94.366689
          },
          "southwest": {
            "lat": 36.9393788,
            "lng": -94.6181708
          }
        }
      },
      "place_id": "ChIJpwCne49kyIcRydb4rydGsgQ",
      "postcode_localities": [
        "Joplin",
        "Loma Linda"
      ],
      "types": [
        "postal_code"
      ]
    },
    {
      "address_components": [
        {
          "long_name": "Jasper County",
          "short_name": "Jasper County",
          "types": [
            "administrative_area_level_2",
            "political"
          ]
        },
        {
          "long_name": "Missouri",
          "short_name": "MO",
          "types": [
            "administrative_area_level_1",
            "political"
          ]
        },
        {
          "long_name": "United States",
          "short_name": "US",
          "types": [
            "country",
            "political"
          ]
        }
      ],
      "formatted_address": "Jasper County, MO, USA",
      "geometry": {
        "bounds": {
          "northeast": {
            "lat": 37.364173,
            "lng": -94.05231309999999
          },
          "southwest": {
            "lat": 37.048127,
            "lng": -94.6184579
          }
        },
        "location": {
          "lat": 37.17455650000001,
          "lng": -94.35651299999999
        },
        "location_type": "APPROXIMATE",
        "viewport": {
          "northeast": {
            "lat": 37.364173,
            "lng": -94.05231309999999
          },
          "southwest": {
            "lat": 37.048127,
            "lng": -94.6184579
          }
        }
      },
      "place_id": "ChIJQbU6TfIoxocRTrzoDWs-CLc",
      "types": [
        "administrative_area_level_2",
        "political"
      ]
    },
    {
      "address_components": [
        {
          "long_name": "Joplin",
          "short_name": "Joplin",
          "types": [
            "political"
          ]
        },
        {
          "long_name": "United States",
          "short_name": "US",
          "types": [
            "country",
            "political"
          ]
        }
      ],
      "formatted_address": "Joplin, USA",
      "geometry": {
        "bounds": {
          "northeast": {
            "lat": 37.364355,
            "lng": -94.05237199999999
          },
          "southwest": {
            "lat": 36.747867,
            "lng": -94.61865809999999
          }
        },
        "location": {
          "lat": 37.0505583,
          "lng": -94.2333355
        },
        "location_type": "APPROXIMATE",
        "viewport": {
          "northeast": {
            "lat": 37.364355,
            "lng": -94.05237199999999
          },
          "southwest": {
            "lat": 36.747867,
            "lng": -94.61865809999999
          }
        }
      },
      "place_id": "ChIJRa5ZQCOGyIcR3FvsNK6zNFI",
      "types": [
        "political"
      ]
    },
    {
      "address_components": [
        {
          "long_name": "Missouri",
          "short_name": "MO",
          "types": [
            "administrative_area_level_1",
            "political"
          ]
        },
        {
          "long_name": "United States",
          "short_name": "US",
          "types": [
            "country",
            "political"
          ]
        }
      ],
      "formatted_address": "Missouri, USA",
      "geometry": {
        "bounds": {
          "northeast": {
            "lat": 40.61364,
            "lng": -89.09949399999999
          },
          "southwest": {
            "lat": 35.9956829,
            "lng": -95.774704
          }
        },
        "location": {
          "lat": 37.9642529,
          "lng": -91.8318334
        },
        "location_type": "APPROXIMATE",
        "viewport": {
          "northeast": {
            "lat": 40.61364,
            "lng": -89.09949399999999
          },
          "southwest": {
            "lat": 35.9956829,
            "lng": -95.774704
          }
        }
      },
      "place_id": "ChIJfeMiSNXmwIcRcr1mBFnEW7U",
      "types": [
        "administrative_area_level_1",
        "political"
      ]
    },
    {
      "address_components": [
        {
          "long_name": "United States",
          "short_name": "US",
          "types": [
            "country",
            "political"
          ]
        }
      ],
      "formatted_address": "United States",
      "geometry": {
        "bounds": {
          "northeast": {
            "lat": 71.3867745,
            "lng": -66.9502861
          },
          "southwest": {
            "lat": 18.9106768,
            "lng": 172.4458955
          }
        },
        "location": {
          "lat": 37.09024,
          "lng": -95.712891
        },
        "location_type": "APPROXIMATE",
        "viewport": {
          "northeast": {
            "lat": 49.38,
            "lng": -66.94
          },
          "southwest": {
            "lat": 25.82,
            "lng": -124.39
          }
        }
      },
      "place_id": "ChIJCzYy5IS16lQRQrfeQ5K5Oxw",
      "types": [
        "country",
        "political"
      ]
    }
  ],
  "status": "OK"
}
