{
  "results": [
    {
      "address_components": [
        {
          "long_name": "108",
          "short_name": "108",
          "types": [
            "street_number"
          ]
        },
        {
          "long_name": "Church Street",
          "short_name": "Church St",
          "types": [
            "route"
          ]
        },
        {
          "long_name": "Loogootee",
          "short_name": "Loogootee",
          "types": [
            "locality",
            "political"
          ]
        },
        {
          "long_name": "Perry Township",
          "short_name": "Perry Township",
          "types": [
            "administrative_area_level_3",
            "political"
          ]
        },
        {
          "long_name": "Martin County",
          "short_name": "Martin County",
          "types": [
            "administrative_area_level_2",
            "political"
          ]
        },
        {
          "long_name": "Indiana",
          "short_name": "IN",
          "types": [
            "administrative_area_level_1",
            "political"
          ]
        },
        {
          "long_name": "United States",
          "short_name": "US",
          "types": [
            "country",
            "political"
          ]
        },
        {
          "long_name": "47553",
          "short_name": "47553",
          "types": [
            "postal_code"
          ]
        },
        {
          "long_name": "1616",
          "short_name": "1616",
          "types": [
            "postal_code_suffix"
          ]
        }
      ],
      "formatted_address": "108 Church St, Loogootee, IN 47553, USA",
      "geometry": {
        "location": {
          "lat": 38.675703,
          "lng": -86.91415490000001
        },
        "location_type": "ROOFTOP",
        "viewport": {
          "northeast": {
            "lat": 38.67705198029149,
            "lng": -86.91280591970852
          },
          "southwest": {
            "lat": 38.6743540197085,
            "lng": -86.91550388029152
          }
        }
      },
      "place_id": "ChIJjRy9cLjUbYgR5647u8n9Jpw",
      "types": [
        "street_address"
      ]
    },
    {
      "address_components": [
        {
          "long_name": "Loogootee",
          "short_name": "Loogootee",
          "types": [
            "locality",
            "political"
          ]
        },
        {
          "long_name": "Perry Township",
          "short_name": "Perry Township",
          "types": [
            "administrative_area_level_3",
            "political"
          ]
        },
        {
          "long_name": "Martin County",
          "short_name": "Martin County",
          "types": [
            "administrative_area_level_2",
            "political"
          ]
        },
        {
          "long_name": "Indiana",
          "short_name": "IN",
          "types": [
            "administrative_area_level_1",
            "political"
          ]
        },
        {
          "long_name": "United States",
          "short_name": "US",
          "types": [
            "country",
            "political"
          ]
        },
        {
          "long_name": "47553",
          "short_name": "47553",
          "types": [
            "postal_code"
          ]
        }
      ],
      "formatted_address": "Loogootee, IN 47553, USA",
      "geometry": {
        "bounds": {
          "northeast": {
            "lat": 38.68862,
            "lng": -86.9028621
          },
          "southwest": {
            "lat": 38.66406680000001,
            "lng": -86.923864
          }
        },
        "location": {
          "lat": 38.6769945,
          "lng": -86.9141695
        },
        "location_type": "APPROXIMATE",
        "viewport": {
          "northeast": {
            "lat": 38.68862,
            "lng": -86.9028621
          },
          "southwest": {
            "lat": 38.66406680000001,
            "lng": -86.923864
          }
        }
      },
      "place_id": "ChIJU2BtFLjUbYgRxXt6fueJV_A",
      "types": [
        "locality",
        "political"
      ]
    },
    {
      "address_components": [
        {
          "long_name": "Perry Township",
          "short_name": "Perry Township",
          "types": [
            "administrative_area_level_3",
            "political"
          ]
        },
        {
          "long_name": "Martin County",
          "short_name": "Martin County",
          "types": [
            "administrative_area_level_2",
            "political"
          ]
        },
        {
          "long_name": "Indiana",
          "short_name": "IN",
          "types": [
            "administrative_area_level_1",
            "political"
          ]
        },
        {
          "long_name": "United States",
          "short_name": "US",
          "types": [
            "country",
            "political"
          ]
        }
      ],
      "formatted_address": "Perry Township, IN, USA",
      "geometry": {
        "bounds": {
          "northeast": {
            "lat": 38.904367,
            "lng": -86.7944249
          },
          "southwest": {
            "lat": 38.612837,
            "lng": -86.924066
          }
        },
        "location": {
          "lat": 38.82037529999999,
          "lng": -86.86218269999999
        },
        "location_type": "APPROXIMATE",
        "viewport": {
          "northeast": {
            "lat": 38.904367,
            "lng": -86.7944249
          },
          "southwest": {
            "lat": 38.612837,
            "lng": -86.924066
          }
        }
      },
      "place_id": "ChIJ67cyZ5gtbIgRYiZYmK4W8-U",
      "types": [
        "administrative_area_level_3",
        "political"
      ]
    },
    {
      "address_components": [
        {
          "long_name": "47553",
          "short_name": "47553",
          "types": [
            "postal_code"
          ]
        },
        {
          "long_name": "Loogootee",
          "short_name": "Loogootee",
          "types": [
            "locality",
            "political"
          ]
        },
        {
          "long_name": "Indiana",
          "short_name": "IN",
          "types": [
            "administrative_area_level_1",
            "political"
          ]
        },
        {
          "long_name": "United States",
          "short_name": "US",
          "types": [
            "country",
            "political"
          ]
        }
      ],
      "formatted_address": "Loogootee, IN 47553, USA",
      "geometry": {
        "bounds": {
          "northeast": {
            "lat": 38.884425,
            "lng": -86.7949331
          },
          "southwest": {
            "lat": 38.494403,
            "lng": -87.025142
          }
        },
        "location": {
          "lat": 38.6755182,
          "lng": -86.9223432
        },
        "location_type": "APPROXIMATE",
        "viewport": {
          "northeast": {
            "lat": 38.884425,
            "lng": -86.7949331
          },
          "southwest": {
            "lat": 38.494403,
            "lng": -87.025142
          }
        }
      },
      "place_id": "ChIJMxdsy1ArbIgRBhlIzJCq99I",
      "types": [
        "postal_code"
      ]
    },
    {
      "address_components": [
        {
          "long_name": "Martin County",
          "short_name": "Martin County",
          "types": [
            "administrative_area_level_2",
            "political"
          ]
        },
        {
          "long_name": "Indiana",
          "short_name": "IN",
          "types": [
            "administrative_area_level_1",
            "political"
          ]
        },
        {
          "long_name": "United States",
          "short_name": "US",
          "types": [
            "country",
            "political"
          ]
        }
      ],
      "formatted_address": "Martin County, IN, USA",
      "geometry": {
        "bounds": {
          "northeast": {
            "lat": 38.904697,
            "lng": -86.6823529
          },
          "southwest": {
            "lat": 38.4947849,
            "lng": -86.9243599
          }
        },
        "location": {
          "lat": 38.6937856,
          "lng": -86.8220341
        },
        "location_type": "APPROXIMATE",
        "viewport": {
          "northeast": {
            "lat": 38.904697,
            "lng": -86.6823529
          },
          "southwest": {
            "lat": 38.4947849,
            "lng": -86.9243599
          }
        }
      },
      "place_id": "ChIJlVf6RNItbIgRoA6nE7btVxI",
      "types": [
        "administrative_area_level_2",
        "political"
      ]
    },
    {
      "address_components": [
        {
          "long_name": "Indiana",
          "short_name": "IN",
          "types": [
            "administrative_area_level_1",
            "political"
          ]
        },
        {
          "long_name": "United States",
          "short_name": "US",
          "types": [
            "country",
            "political"
          ]
        }
      ],
      "formatted_address": "Indiana, USA",
      "geometry": {
        "bounds": {
          "northeast": {
            "lat": 41.7606971,
            "lng": -84.784662
          },
          "southwest": {
            "lat": 37.7717419,
            "lng": -88.097892
          }
        },
        "location": {
          "lat": 40.2671941,
          "lng": -86.1349019
        },
        "location_type": "APPROXIMATE",
        "viewport": {
          "northeast": {
            "lat": 41.7606971,
            "lng": -84.784662
          },
          "southwest": {
            "lat": 37.7717419,
            "lng": -88.097892
          }
        }
      },
      "place_id": "ChIJHRv42bxQa4gRcuwyy84vEH4",
      "types": [
        "administrative_area_level_1",
        "political"
      ]
    },
    {
      "address_components": [
        {
          "long_name": "United States",
          "short_name": "US",
          "types": [
            "country",
            "political"
          ]
        }
      ],
      "formatted_address": "United States",
      "geometry": {
        "bounds": {
          "northeast": {
            "lat": 71.3867745,
            "lng": -66.9502861
          },
          "southwest": {
            "lat": 18.9106768,
            "lng": 172.4458955
          }
        },
        "location": {
          "lat": 37.09024,
          "lng": -95.712891
        },
        "location_type": "APPROXIMATE",
        "viewport": {
          "northeast": {
            "lat": 49.38,
            "lng": -66.94
          },
          "southwest": {
            "lat": 25.82,
            "lng": -124.39
          }
        }
      },
      "place_id": "ChIJCzYy5IS16lQRQrfeQ5K5Oxw",
      "types": [
        "country",
        "political"
      ]
    }
  ],
  "status": "OK"
}
