{
  "results": [
    {
      "address_components": [
        {
          "long_name": "201-405",
          "short_name": "201-405",
          "types": [
            "street_number"
          ]
        },
        {
          "long_name": "Decatur Street",
          "short_name": "Decatur St",
          "types": [
            "route"
          ]
        },
        {
          "long_name": "Saint Paul",
          "short_name": "St Paul",
          "types": [
            "locality",
            "political"
          ]
        },
        {
          "long_name": "Spring Creek",
          "short_name": "Spring Creek",
          "types": [
            "administrative_area_level_3",
            "political"
          ]
        },
        {
          "long_name": "Howard County",
          "short_name": "Howard County",
          "types": [
            "administrative_area_level_2",
            "political"
          ]
        },
        {
          "long_name": "Nebraska",
          "short_name": "NE",
          "types": [
            "administrative_area_level_1",
            "political"
          ]
        },
        {
          "long_name": "United States",
          "short_name": "US",
          "types": [
            "country",
            "political"
          ]
        },
        {
          "long_name": "68873",
          "short_name": "68873",
          "types": [
            "postal_code"
          ]
        }
      ],
      "formatted_address": "201-405 Decatur St, St Paul, NE 68873, USA",
      "geometry": {
        "bounds": {
          "northeast": {
            "lat": 41.2952469,
            "lng": -98.3685979
          },
          "southwest": {
            "lat": 41.295241,
            "lng": -98.369323
          }
        },
        "location": {
          "lat": 41.2952321,
          "lng": -98.36924979999999
        },
        "location_type": "RANGE_INTERPOLATED",
        "viewport": {
          "northeast": {
            "lat": 41.2965929302915,
            "lng": -98.36761146970848
          },
          "southwest": {
            "lat": 41.2938949697085,
            "lng": -98.3703094302915
          }
        }
      },
      "place_id": "EioyMDEtNDA1IERlY2F0dXIgU3QsIFN0IFBhdWwsIE5FIDY4ODczLCBVU0E",
      "types": [
        "street_address"
      ]
    },
    {
      "address_components": [
        {
          "long_name": "Cushing",
          "short_name": "Cushing",
          "types": [
            "locality",
            "political"
          ]
        },
        {
          "long_name": "Spring Creek",
          "short_name": "Spring Creek",
          "types": [
            "administrative_area_level_3",
            "political"
          ]
        },
        {
          "long_name": "Howard County",
          "short_name": "Howard County",
          "types": [
            "administrative_area_level_2",
            "political"
          ]
        },
        {
          "long_name": "Nebraska",
          "short_name": "NE",
          "types": [
            "administrative_area_level_1",
            "political"
          ]
        },
        {
          "long_name": "United States",
          "short_name": "US",
          "types": [
            "country",
            "political"
          ]
        },
        {
          "long_name": "68873",
          "short_name": "68873",
          "types": [
            "postal_code"
          ]
        }
      ],
      "formatted_address": "Cushing, NE 68873, USA",
      "geometry": {
        "bounds": {
          "northeast": {
            "lat": 41.299866,
            "lng": -98.3642139
          },
          "southwest": {
            "lat": 41.2885919,
            "lng": -98.3735348
          }
        },
        "location": {
          "lat": 41.29723509999999,
          "lng": -98.3684007
        },
        "location_type": "APPROXIMATE",
        "viewport": {
          "northeast": {
            "lat": 41.299866,
            "lng": -98.3642139
          },
          "southwest": {
            "lat": 41.2885919,
            "lng": -98.3735348
          }
        }
      },
      "place_id": "ChIJBXKAOic2mocRLbh__Gxr0_A",
      "types": [
        "locality",
        "political"
      ]
    },
    {
      "address_components": [
        {
          "long_name": "Spring Creek",
          "short_name": "Spring Creek",
          "types": [
            "administrative_area_level_3",
            "political"
          ]
        },
        {
          "long_name": "Howard County",
          "short_name": "Howard County",
          "types": [
            "administrative_area_level_2",
            "political"
          ]
        },
        {
          "long_name": "Nebraska",
          "short_name": "NE",
          "types": [
            "administrative_area_level_1",
            "political"
          ]
        },
        {
          "long_name": "United States",
          "short_name": "US",
          "types": [
            "country",
            "political"
          ]
        }
      ],
      "formatted_address": "Spring Creek, NE, USA",
      "geometry": {
        "bounds": {
          "northeast": {
            "lat": 41.393909,
            "lng": -98.286546
          },
          "southwest": {
            "lat": 41.2731239,
            "lng": -98.401893
          }
        },
        "location": {
          "lat": 41.33788390000001,
          "lng": -98.352656
        },
        "location_type": "APPROXIMATE",
        "viewport": {
          "northeast": {
            "lat": 41.393909,
            "lng": -98.286546
          },
          "southwest": {
            "lat": 41.2731239,
            "lng": -98.401893
          }
        }
      },
      "place_id": "ChIJh8kyK1dImocREvqNkB6qTWk",
      "types": [
        "administrative_area_level_3",
        "political"
      ]
    },
    {
      "address_components": [
        {
          "long_name": "68873",
          "short_name": "68873",
          "types": [
            "postal_code"
          ]
        },
        {
          "long_name": "Saint Paul",
          "short_name": "St Paul",
          "types": [
            "locality",
            "political"
          ]
        },
        {
          "long_name": "Nebraska",
          "short_name": "NE",
          "types": [
            "administrative_area_level_1",
            "political"
          ]
        },
        {
          "long_name": "United States",
          "short_name": "US",
          "types": [
            "country",
            "political"
          ]
        }
      ],
      "formatted_address": "St Paul, NE 68873, USA",
      "geometry": {
        "bounds": {
          "northeast": {
            "lat": 41.3999339,
            "lng": -98.286546
          },
          "southwest": {
            "lat": 41.1051068,
            "lng": -98.61355999999999
          }
        },
        "location": {
          "lat": 41.2301535,
          "lng": -98.46229869999999
        },
        "location_type": "APPROXIMATE",
        "viewport": {
          "northeast": {
            "lat": 41.3999339,
            "lng": -98.286546
          },
          "southwest": {
            "lat": 41.1051068,
            "lng": -98.61355999999999
          }
        }
      },
      "place_id": "ChIJiyDAVFY0mocR_1E8PemaS6w",
      "types": [
        "postal_code"
      ]
    },
    {
      "address_components": [
        {
          "long_name": "Howard County",
          "short_name": "Howard County",
          "types": [
            "administrative_area_level_2",
            "political"
          ]
        },
        {
          "long_name": "Nebraska",
          "short_name": "NE",
          "types": [
            "administrative_area_level_1",
            "political"
          ]
        },
        {
          "long_name": "United States",
          "short_name": "US",
          "types": [
            "country",
            "political"
          ]
        }
      ],
      "formatted_address": "Howard County, NE, USA",
      "geometry": {
        "bounds": {
          "northeast": {
            "lat": 41.3942971,
            "lng": -98.286546
          },
          "southwest": {
            "lat": 41.046097,
            "lng": -98.749167
          }
        },
        "location": {
          "lat": 41.20204349999999,
          "lng": -98.5721016
        },
        "location_type": "APPROXIMATE",
        "viewport": {
          "northeast": {
            "lat": 41.3942971,
            "lng": -98.286546
          },
          "southwest": {
            "lat": 41.046097,
            "lng": -98.749167
          }
        }
      },
      "place_id": "ChIJSW0rvNM0mocRBadObG27AyE",
      "types": [
        "administrative_area_level_2",
        "political"
      ]
    },
    {
      "address_components": [
        {
          "long_name": "Grand Island",
          "short_name": "Grand Island",
          "types": [
            "political"
          ]
        },
        {
          "long_name": "Nebraska",
          "short_name": "NE",
          "types": [
            "administrative_area_level_1",
            "political"
          ]
        },
        {
          "long_name": "United States",
          "short_name": "US",
          "types": [
            "country",
            "political"
          ]
        }
      ],
      "formatted_address": "Grand Island, NE, USA",
      "geometry": {
        "bounds": {
          "northeast": {
            "lat": 41.3951621,
            "lng": -97.59843099999999
          },
          "southwest": {
            "lat": 40.69824790000001,
            "lng": -98.7490181
          }
        },
        "location": {
          "lat": 41.05508760000001,
          "lng": -98.3964938
        },
        "location_type": "APPROXIMATE",
        "viewport": {
          "northeast": {
            "lat": 41.3951621,
            "lng": -97.59843099999999
          },
          "southwest": {
            "lat": 40.69824790000001,
            "lng": -98.7490181
          }
        }
      },
      "place_id": "ChIJDwawze8umocRuYhMKOmAE8M",
      "types": [
        "political"
      ]
    },
    {
      "address_components": [
        {
          "long_name": "Nebraska",
          "short_name": "NE",
          "types": [
            "administrative_area_level_1",
            "political"
          ]
        },
        {
          "long_name": "United States",
          "short_name": "US",
          "types": [
            "country",
            "political"
          ]
        }
      ],
      "formatted_address": "Nebraska, USA",
      "geometry": {
        "bounds": {
          "northeast": {
            "lat": 43.00170689999999,
            "lng": -95.30829000000001
          },
          "southwest": {
            "lat": 39.999932,
            "lng": -104.053514
          }
        },
        "location": {
          "lat": 41.4925374,
          "lng": -99.9018131
        },
        "location_type": "APPROXIMATE",
        "viewport": {
          "northeast": {
            "lat": 43.00170689999999,
            "lng": -95.30829000000001
          },
          "southwest": {
            "lat": 39.999932,
            "lng": -104.053514
          }
        }
      },
      "place_id": "ChIJ7fwMtciNk4cRxArzDwyQJ6E",
      "types": [
        "administrative_area_level_1",
        "political"
      ]
    },
    {
      "address_components": [
        {
          "long_name": "United States",
          "short_name": "US",
          "types": [
            "country",
            "political"
          ]
        }
      ],
      "formatted_address": "United States",
      "geometry": {
        "bounds": {
          "northeast": {
            "lat": 71.3867745,
            "lng": -66.9502861
          },
          "southwest": {
            "lat": 18.9106768,
            "lng": 172.4458955
          }
        },
        "location": {
          "lat": 37.09024,
          "lng": -95.712891
        },
        "location_type": "APPROXIMATE",
        "viewport": {
          "northeast": {
            "lat": 49.38,
            "lng": -66.94
          },
          "southwest": {
            "lat": 25.82,
            "lng": -124.39
          }
        }
      },
      "place_id": "ChIJCzYy5IS16lQRQrfeQ5K5Oxw",
      "types": [
        "country",
        "political"
      ]
    }
  ],
  "status": "OK"
}
