{
  "results": [
    {
      "address_components": [
        {
          "long_name": "8682",
          "short_name": "8682",
          "types": [
            "street_number"
          ]
        },
        {
          "long_name": "Cheviot Road",
          "short_name": "Cheviot Rd",
          "types": [
            "route"
          ]
        },
        {
          "long_name": "Cincinnati",
          "short_name": "Cincinnati",
          "types": [
            "locality",
            "political"
          ]
        },
        {
          "long_name": "Colerain Township",
          "short_name": "Colerain Township",
          "types": [
            "administrative_area_level_3",
            "political"
          ]
        },
        {
          "long_name": "Hamilton County",
          "short_name": "Hamilton County",
          "types": [
            "administrative_area_level_2",
            "political"
          ]
        },
        {
          "long_name": "Ohio",
          "short_name": "OH",
          "types": [
            "administrative_area_level_1",
            "political"
          ]
        },
        {
          "long_name": "United States",
          "short_name": "US",
          "types": [
            "country",
            "political"
          ]
        },
        {
          "long_name": "45251",
          "short_name": "45251",
          "types": [
            "postal_code"
          ]
        },
        {
          "long_name": "5900",
          "short_name": "5900",
          "types": [
            "postal_code_suffix"
          ]
        }
      ],
      "formatted_address": "8682 Cheviot Rd, Cincinnati, OH 45251, USA",
      "geometry": {
        "location": {
          "lat": 39.229357,
          "lng": -84.597594
        },
        "location_type": "ROOFTOP",
        "viewport": {
          "northeast": {
            "lat": 39.2307059802915,
            "lng": -84.5962450197085
          },
          "southwest": {
            "lat": 39.2280080197085,
            "lng": -84.59894298029151
          }
        }
      },
      "place_id": "ChIJw8sbqIVKQIgRLcLZRLYpMRY",
      "types": [
        "street_address"
      ]
    },
    {
      "address_components": [
        {
          "long_name": "Groesbeck",
          "short_name": "Groesbeck",
          "types": [
            "locality",
            "political"
          ]
        },
        {
          "long_name": "Colerain Township",
          "short_name": "Colerain Township",
          "types": [
            "administrative_area_level_3",
            "political"
          ]
        },
        {
          "long_name": "Hamilton County",
          "short_name": "Hamilton County",
          "types": [
            "administrative_area_level_2",
            "political"
          ]
        },
        {
          "long_name": "Ohio",
          "short_name": "OH",
          "types": [
            "administrative_area_level_1",
            "political"
          ]
        },
        {
          "long_name": "United States",
          "short_name": "US",
          "types": [
            "country",
            "political"
          ]
        }
      ],
      "formatted_address": "Groesbeck, OH, USA",
      "geometry": {
        "bounds": {
          "northeast": {
            "lat": 39.239799,
            "lng": -84.571889
          },
          "southwest": {
            "lat": 39.219281,
            "lng": -84.62828379999999
          }
        },
        "location": {
          "lat": 39.2231131,
          "lng": -84.5868897
        },
        "location_type": "APPROXIMATE",
        "viewport": {
          "northeast": {
            "lat": 39.239799,
            "lng": -84.571889
          },
          "southwest": {
            "lat": 39.219281,
            "lng": -84.62828379999999
          }
        }
      },
      "place_id": "ChIJfZ4TLZ41QIgRJk5iRhGIyMY",
      "types": [
        "locality",
        "political"
      ]
    },
    {
      "address_components": [
        {
          "long_name": "45251",
          "short_name": "45251",
          "types": [
            "postal_code"
          ]
        },
        {
          "long_name": "Cincinnati",
          "short_name": "Cincinnati",
          "types": [
            "locality",
            "political"
          ]
        },
        {
          "long_name": "Ohio",
          "short_name": "OH",
          "types": [
            "administrative_area_level_1",
            "political"
          ]
        },
        {
          "long_name": "United States",
          "short_name": "US",
          "types": [
            "country",
            "political"
          ]
        }
      ],
      "formatted_address": "Cincinnati, OH 45251, USA",
      "geometry": {
        "bounds": {
          "northeast": {
            "lat": 39.3119559,
            "lng": -84.5709791
          },
          "southwest": {
            "lat": 39.2238759,
            "lng": -84.6295568
          }
        },
        "location": {
          "lat": 39.2730168,
          "lng": -84.5903367
        },
        "location_type": "APPROXIMATE",
        "viewport": {
          "northeast": {
            "lat": 39.3119559,
            "lng": -84.5709791
          },
          "southwest": {
            "lat": 39.2238759,
            "lng": -84.6295568
          }
        }
      },
      "place_id": "ChIJfZ4TLZ41QIgRCcLv9vPVTNU",
      "postcode_localities": [
        "Cincinnati",
        "Groesbeck"
      ],
      "types": [
        "postal_code"
      ]
    },
    {
      "address_components": [
        {
          "long_name": "Colerain Township",
          "short_name": "Colerain Township",
          "types": [
            "administrative_area_level_3",
            "political"
          ]
        },
        {
          "long_name": "Hamilton County",
          "short_name": "Hamilton County",
          "types": [
            "administrative_area_level_2",
            "political"
          ]
        },
        {
          "long_name": "Ohio",
          "short_name": "OH",
          "types": [
            "administrative_area_level_1",
            "political"
          ]
        },
        {
          "long_name": "United States",
          "short_name": "US",
          "types": [
            "country",
            "political"
          ]
        }
      ],
      "formatted_address": "Colerain Township, OH, USA",
      "geometry": {
        "bounds": {
          "northeast": {
            "lat": 39.312056,
            "lng": -84.5623579
          },
          "southwest": {
            "lat": 39.204358,
            "lng": -84.7172849
          }
        },
        "location": {
          "lat": 39.2591765,
          "lng": -84.6269824
        },
        "location_type": "APPROXIMATE",
        "viewport": {
          "northeast": {
            "lat": 39.312056,
            "lng": -84.5623579
          },
          "southwest": {
            "lat": 39.204358,
            "lng": -84.7172849
          }
        }
      },
      "place_id": "ChIJfZ4TLZ41QIgRg9MVB1CjPWY",
      "types": [
        "administrative_area_level_3",
        "political"
      ]
    },
    {
      "address_components": [
        {
          "long_name": "Hamilton County",
          "short_name": "Hamilton County",
          "types": [
            "administrative_area_level_2",
            "political"
          ]
        },
        {
          "long_name": "Ohio",
          "short_name": "OH",
          "types": [
            "administrative_area_level_1",
            "political"
          ]
        },
        {
          "long_name": "United States",
          "short_name": "US",
          "types": [
            "country",
            "political"
          ]
        }
      ],
      "formatted_address": "Hamilton County, OH, USA",
      "geometry": {
        "bounds": {
          "northeast": {
            "lat": 39.312056,
            "lng": -84.25639090000001
          },
          "southwest": {
            "lat": 39.0216,
            "lng": -84.8203049
          }
        },
        "location": {
          "lat": 39.2355447,
          "lng": -84.56414699999999
        },
        "location_type": "APPROXIMATE",
        "viewport": {
          "northeast": {
            "lat": 39.312056,
            "lng": -84.25639090000001
          },
          "southwest": {
            "lat": 39.0216,
            "lng": -84.8203049
          }
        }
      },
      "place_id": "ChIJ1808oWhQQIgRMC9c5Ml8hMo",
      "types": [
        "administrative_area_level_2",
        "political"
      ]
    },
    {
      "address_components": [
        {
          "long_name": "Ohio",
          "short_name": "OH",
          "types": [
            "administrative_area_level_1",
            "political"
          ]
        },
        {
          "long_name": "United States",
          "short_name": "US",
          "types": [
            "country",
            "political"
          ]
        }
      ],
      "formatted_address": "Ohio, USA",
      "geometry": {
        "bounds": {
          "northeast": {
            "lat": 41.9773019,
            "lng": -80.5182
          },
          "southwest": {
            "lat": 38.4034229,
            "lng": -84.8203049
          }
        },
        "location": {
          "lat": 40.4172871,
          "lng": -82.90712300000001
        },
        "location_type": "APPROXIMATE",
        "viewport": {
          "northeast": {
            "lat": 41.9773019,
            "lng": -80.5182
          },
          "southwest": {
            "lat": 38.4034229,
            "lng": -84.8203049
          }
        }
      },
      "place_id": "ChIJwY5NtXrpNogRFtmfnDlkzeU",
      "types": [
        "administrative_area_level_1",
        "political"
      ]
    },
    {
      "address_components": [
        {
          "long_name": "United States",
          "short_name": "US",
          "types": [
            "country",
            "political"
          ]
        }
      ],
      "formatted_address": "United States",
      "geometry": {
        "bounds": {
          "northeast": {
            "lat": 71.3867745,
            "lng": -66.9502861
          },
          "southwest": {
            "lat": 18.9106768,
            "lng": 172.4458955
          }
        },
        "location": {
          "lat": 37.09024,
          "lng": -95.712891
        },
        "location_type": "APPROXIMATE",
        "viewport": {
          "northeast": {
            "lat": 49.38,
            "lng": -66.94
          },
          "southwest": {
            "lat": 25.82,
            "lng": -124.39
          }
        }
      },
      "place_id": "ChIJCzYy5IS16lQRQrfeQ5K5Oxw",
      "types": [
        "country",
        "political"
      ]
    }
  ],
  "status": "OK"
}
