{
  "results": [
    {
      "address_components": [
        {
          "long_name": "619-747",
          "short_name": "619-747",
          "types": [
            "street_number"
          ]
        },
        {
          "long_name": "Oak Street",
          "short_name": "Oak St",
          "types": [
            "route"
          ]
        },
        {
          "long_name": "Hubbard Lake",
          "short_name": "Hubbard Lake",
          "types": [
            "locality",
            "political"
          ]
        },
        {
          "long_name": "Caledonia Township",
          "short_name": "Caledonia Township",
          "types": [
            "administrative_area_level_3",
            "political"
          ]
        },
        {
          "long_name": "Alcona County",
          "short_name": "Alcona County",
          "types": [
            "administrative_area_level_2",
            "political"
          ]
        },
        {
          "long_name": "Michigan",
          "short_name": "MI",
          "types": [
            "administrative_area_level_1",
            "political"
          ]
        },
        {
          "long_name": "United States",
          "short_name": "US",
          "types": [
            "country",
            "political"
          ]
        },
        {
          "long_name": "49747",
          "short_name": "49747",
          "types": [
            "postal_code"
          ]
        }
      ],
      "formatted_address": "619-747 Oak St, Hubbard Lake, MI 49747, USA",
      "geometry": {
        "bounds": {
          "northeast": {
            "lat": 44.819612,
            "lng": -83.5511219
          },
          "southwest": {
            "lat": 44.8194841,
            "lng": -83.5558717
          }
        },
        "location": {
          "lat": 44.8195141,
          "lng": -83.55576789999999
        },
        "location_type": "RANGE_INTERPOLATED",
        "viewport": {
          "northeast": {
            "lat": 44.8208970302915,
            "lng": -83.5511219
          },
          "southwest": {
            "lat": 44.8181990697085,
            "lng": -83.5558717
          }
        }
      },
      "place_id": "Eis2MTktNzQ3IE9hayBTdCwgSHViYmFyZCBMYWtlLCBNSSA0OTc0NywgVVNB",
      "types": [
        "street_address"
      ]
    },
    {
      "address_components": [
        {
          "long_name": "Hubbard Lake",
          "short_name": "Hubbard Lake",
          "types": [
            "locality",
            "political"
          ]
        },
        {
          "long_name": "Alcona County",
          "short_name": "Alcona County",
          "types": [
            "administrative_area_level_2",
            "political"
          ]
        },
        {
          "long_name": "Michigan",
          "short_name": "MI",
          "types": [
            "administrative_area_level_1",
            "political"
          ]
        },
        {
          "long_name": "United States",
          "short_name": "US",
          "types": [
            "country",
            "political"
          ]
        }
      ],
      "formatted_address": "Hubbard Lake, MI, USA",
      "geometry": {
        "bounds": {
          "northeast": {
            "lat": 44.8592779,
            "lng": -83.51676499999999
          },
          "southwest": {
            "lat": 44.7525799,
            "lng": -83.6084838
          }
        },
        "location": {
          "lat": 44.7597341,
          "lng": -83.54442069999999
        },
        "location_type": "APPROXIMATE",
        "viewport": {
          "northeast": {
            "lat": 44.8592779,
            "lng": -83.51676499999999
          },
          "southwest": {
            "lat": 44.7525799,
            "lng": -83.6084838
          }
        }
      },
      "place_id": "ChIJIYMxZ25VJ4gReo0A34RJFe0",
      "types": [
        "locality",
        "political"
      ]
    },
    {
      "address_components": [
        {
          "long_name": "Alcona Township",
          "short_name": "Alcona Township",
          "types": [
            "administrative_area_level_3",
            "political"
          ]
        },
        {
          "long_name": "Alcona County",
          "short_name": "Alcona County",
          "types": [
            "administrative_area_level_2",
            "political"
          ]
        },
        {
          "long_name": "Michigan",
          "short_name": "MI",
          "types": [
            "administrative_area_level_1",
            "political"
          ]
        },
        {
          "long_name": "United States",
          "short_name": "US",
          "types": [
            "country",
            "political"
          ]
        }
      ],
      "formatted_address": "Alcona Township, MI, USA",
      "geometry": {
        "bounds": {
          "northeast": {
            "lat": 44.8587922,
            "lng": -83.2930449
          },
          "southwest": {
            "lat": 44.770145,
            "lng": -83.645872
          }
        },
        "location": {
          "lat": 44.793339,
          "lng": -83.4430118
        },
        "location_type": "APPROXIMATE",
        "viewport": {
          "northeast": {
            "lat": 44.8587922,
            "lng": -83.2930449
          },
          "southwest": {
            "lat": 44.770145,
            "lng": -83.645872
          }
        }
      },
      "place_id": "ChIJI8S4Dh5TM00R4TzQI-PbZjE",
      "types": [
        "administrative_area_level_3",
        "political"
      ]
    },
    {
      "address_components": [
        {
          "long_name": "49747",
          "short_name": "49747",
          "types": [
            "postal_code"
          ]
        },
        {
          "long_name": "Hubbard Lake",
          "short_name": "Hubbard Lake",
          "types": [
            "locality",
            "political"
          ]
        },
        {
          "long_name": "Michigan",
          "short_name": "MI",
          "types": [
            "administrative_area_level_1",
            "political"
          ]
        },
        {
          "long_name": "United States",
          "short_name": "US",
          "types": [
            "country",
            "political"
          ]
        }
      ],
      "formatted_address": "Hubbard Lake, MI 49747, USA",
      "geometry": {
        "bounds": {
          "northeast": {
            "lat": 44.97314189999999,
            "lng": -83.5167699
          },
          "southwest": {
            "lat": 44.76580389999999,
            "lng": -83.74627000000001
          }
        },
        "location": {
          "lat": 44.85971259999999,
          "lng": -83.6266144
        },
        "location_type": "APPROXIMATE",
        "viewport": {
          "northeast": {
            "lat": 44.97314189999999,
            "lng": -83.5167699
          },
          "southwest": {
            "lat": 44.76580389999999,
            "lng": -83.74627000000001
          }
        }
      },
      "place_id": "ChIJV45uNAWrNE0R6dqraRmmWWQ",
      "types": [
        "postal_code"
      ]
    },
    {
      "address_components": [
        {
          "long_name": "Alcona County",
          "short_name": "Alcona County",
          "types": [
            "administrative_area_level_2",
            "political"
          ]
        },
        {
          "long_name": "Michigan",
          "short_name": "MI",
          "types": [
            "administrative_area_level_1",
            "political"
          ]
        },
        {
          "long_name": "United States",
          "short_name": "US",
          "types": [
            "country",
            "political"
          ]
        }
      ],
      "formatted_address": "Alcona County, MI, USA",
      "geometry": {
        "bounds": {
          "northeast": {
            "lat": 44.859539,
            "lng": -83.26893439999999
          },
          "southwest": {
            "lat": 44.5087999,
            "lng": -83.8886419
          }
        },
        "location": {
          "lat": 44.6727944,
          "lng": -83.60223979999999
        },
        "location_type": "APPROXIMATE",
        "viewport": {
          "northeast": {
            "lat": 44.859539,
            "lng": -83.26893439999999
          },
          "southwest": {
            "lat": 44.5087999,
            "lng": -83.8886419
          }
        }
      },
      "place_id": "ChIJKzxm1NmnNE0RFTwG-1Vky98",
      "types": [
        "administrative_area_level_2",
        "political"
      ]
    },
    {
      "address_components": [
        {
          "long_name": "Michigan",
          "short_name": "MI",
          "types": [
            "administrative_area_level_1",
            "political"
          ]
        },
        {
          "long_name": "United States",
          "short_name": "US",
          "types": [
            "country",
            "political"
          ]
        }
      ],
      "formatted_address": "Michigan, USA",
      "geometry": {
        "bounds": {
          "northeast": {
            "lat": 48.1986461,
            "lng": -82.413474
          },
          "southwest": {
            "lat": 41.696118,
            "lng": -90.4181358
          }
        },
        "location": {
          "lat": 44.3148443,
          "lng": -85.60236429999999
        },
        "location_type": "APPROXIMATE",
        "viewport": {
          "northeast": {
            "lat": 48.198602,
            "lng": -82.413474
          },
          "southwest": {
            "lat": 41.696118,
            "lng": -90.4181358
          }
        }
      },
      "place_id": "ChIJEQTKxz2qTE0Rs8liellI3Zc",
      "types": [
        "administrative_area_level_1",
        "political"
      ]
    },
    {
      "address_components": [
        {
          "long_name": "United States",
          "short_name": "US",
          "types": [
            "country",
            "political"
          ]
        }
      ],
      "formatted_address": "United States",
      "geometry": {
        "bounds": {
          "northeast": {
            "lat": 71.3867745,
            "lng": -66.9502861
          },
          "southwest": {
            "lat": 18.9106768,
            "lng": 172.4458955
          }
        },
        "location": {
          "lat": 37.09024,
          "lng": -95.712891
        },
        "location_type": "APPROXIMATE",
        "viewport": {
          "northeast": {
            "lat": 49.38,
            "lng": -66.94
          },
          "southwest": {
            "lat": 25.82,
            "lng": -124.39
          }
        }
      },
      "place_id": "ChIJCzYy5IS16lQRQrfeQ5K5Oxw",
      "types": [
        "country",
        "political"
      ]
    }
  ],
  "status": "OK"
}
