{
  "results": [
    {
      "address_components": [
        {
          "long_name": "4th Street",
          "short_name": "4th St",
          "types": [
            "route"
          ]
        },
        {
          "long_name": "Owendale",
          "short_name": "Owendale",
          "types": [
            "locality",
            "political"
          ]
        },
        {
          "long_name": "Brookfield Township",
          "short_name": "Brookfield Township",
          "types": [
            "administrative_area_level_3",
            "political"
          ]
        },
        {
          "long_name": "Huron County",
          "short_name": "Huron County",
          "types": [
            "administrative_area_level_2",
            "political"
          ]
        },
        {
          "long_name": "Michigan",
          "short_name": "MI",
          "types": [
            "administrative_area_level_1",
            "political"
          ]
        },
        {
          "long_name": "United States",
          "short_name": "US",
          "types": [
            "country",
            "political"
          ]
        },
        {
          "long_name": "48754",
          "short_name": "48754",
          "types": [
            "postal_code"
          ]
        }
      ],
      "formatted_address": "4th St, Owendale, MI 48754, USA",
      "geometry": {
        "bounds": {
          "northeast": {
            "lat": 43.7274277,
            "lng": -83.26716990000001
          },
          "southwest": {
            "lat": 43.7266135,
            "lng": -83.2671817
          }
        },
        "location": {
          "lat": 43.7270206,
          "lng": -83.26717579999999
        },
        "location_type": "GEOMETRIC_CENTER",
        "viewport": {
          "northeast": {
            "lat": 43.7283695802915,
            "lng": -83.26582681970851
          },
          "southwest": {
            "lat": 43.7256716197085,
            "lng": -83.26852478029151
          }
        }
      },
      "place_id": "ChIJv3AOBb6iJogRV_Gg4SsZgA4",
      "types": [
        "route"
      ]
    },
    {
      "address_components": [
        {
          "long_name": "Owendale",
          "short_name": "Owendale",
          "types": [
            "locality",
            "political"
          ]
        },
        {
          "long_name": "Brookfield Township",
          "short_name": "Brookfield Township",
          "types": [
            "administrative_area_level_3",
            "political"
          ]
        },
        {
          "long_name": "Huron County",
          "short_name": "Huron County",
          "types": [
            "administrative_area_level_2",
            "political"
          ]
        },
        {
          "long_name": "Michigan",
          "short_name": "MI",
          "types": [
            "administrative_area_level_1",
            "political"
          ]
        },
        {
          "long_name": "United States",
          "short_name": "US",
          "types": [
            "country",
            "political"
          ]
        },
        {
          "long_name": "48754",
          "short_name": "48754",
          "types": [
            "postal_code"
          ]
        }
      ],
      "formatted_address": "Owendale, MI 48754, USA",
      "geometry": {
        "bounds": {
          "northeast": {
            "lat": 43.73291100000001,
            "lng": -83.2570369
          },
          "southwest": {
            "lat": 43.721827,
            "lng": -83.27721
          }
        },
        "location": {
          "lat": 43.7291829,
          "lng": -83.2680084
        },
        "location_type": "APPROXIMATE",
        "viewport": {
          "northeast": {
            "lat": 43.73291100000001,
            "lng": -83.2570369
          },
          "southwest": {
            "lat": 43.721827,
            "lng": -83.27721
          }
        }
      },
      "place_id": "ChIJHc30Dr6iJogRgVlQCy7WFcM",
      "types": [
        "locality",
        "political"
      ]
    },
    {
      "address_components": [
        {
          "long_name": "Brookfield Township",
          "short_name": "Brookfield Township",
          "types": [
            "administrative_area_level_3",
            "political"
          ]
        },
        {
          "long_name": "Huron County",
          "short_name": "Huron County",
          "types": [
            "administrative_area_level_2",
            "political"
          ]
        },
        {
          "long_name": "Michigan",
          "short_name": "MI",
          "types": [
            "administrative_area_level_1",
            "political"
          ]
        },
        {
          "long_name": "United States",
          "short_name": "US",
          "types": [
            "country",
            "political"
          ]
        }
      ],
      "formatted_address": "Brookfield Township, MI, USA",
      "geometry": {
        "bounds": {
          "northeast": {
            "lat": 43.7585939,
            "lng": -83.2355471
          },
          "southwest": {
            "lat": 43.6697219,
            "lng": -83.356617
          }
        },
        "location": {
          "lat": 43.729316,
          "lng": -83.3148018
        },
        "location_type": "APPROXIMATE",
        "viewport": {
          "northeast": {
            "lat": 43.7585939,
            "lng": -83.2355471
          },
          "southwest": {
            "lat": 43.6697219,
            "lng": -83.356617
          }
        }
      },
      "place_id": "ChIJD8pMKwKjJogRTHm8nRknORg",
      "types": [
        "administrative_area_level_3",
        "political"
      ]
    },
    {
      "address_components": [
        {
          "long_name": "48754",
          "short_name": "48754",
          "types": [
            "postal_code"
          ]
        },
        {
          "long_name": "Owendale",
          "short_name": "Owendale",
          "types": [
            "locality",
            "political"
          ]
        },
        {
          "long_name": "Huron County",
          "short_name": "Huron County",
          "types": [
            "administrative_area_level_2",
            "political"
          ]
        },
        {
          "long_name": "Michigan",
          "short_name": "MI",
          "types": [
            "administrative_area_level_1",
            "political"
          ]
        },
        {
          "long_name": "United States",
          "short_name": "US",
          "types": [
            "country",
            "political"
          ]
        }
      ],
      "formatted_address": "Owendale, MI 48754, USA",
      "geometry": {
        "bounds": {
          "northeast": {
            "lat": 43.77219789999999,
            "lng": -83.11904290000001
          },
          "southwest": {
            "lat": 43.68498,
            "lng": -83.3369719
          }
        },
        "location": {
          "lat": 43.73317249999999,
          "lng": -83.2184763
        },
        "location_type": "APPROXIMATE",
        "viewport": {
          "northeast": {
            "lat": 43.77219789999999,
            "lng": -83.11904290000001
          },
          "southwest": {
            "lat": 43.68498,
            "lng": -83.3369719
          }
        }
      },
      "place_id": "ChIJHTeSlBmYJogRIynDy6woK5w",
      "types": [
        "postal_code"
      ]
    },
    {
      "address_components": [
        {
          "long_name": "Huron County",
          "short_name": "Huron County",
          "types": [
            "administrative_area_level_2",
            "political"
          ]
        },
        {
          "long_name": "Michigan",
          "short_name": "MI",
          "types": [
            "administrative_area_level_1",
            "political"
          ]
        },
        {
          "long_name": "United States",
          "short_name": "US",
          "types": [
            "country",
            "political"
          ]
        }
      ],
      "formatted_address": "Huron County, MI, USA",
      "geometry": {
        "bounds": {
          "northeast": {
            "lat": 44.0707686,
            "lng": -82.6049014
          },
          "southwest": {
            "lat": 43.6676209,
            "lng": -83.4962147
          }
        },
        "location": {
          "lat": 43.9466791,
          "lng": -82.82097399999999
        },
        "location_type": "APPROXIMATE",
        "viewport": {
          "northeast": {
            "lat": 44.0707686,
            "lng": -82.6049014
          },
          "southwest": {
            "lat": 43.6676209,
            "lng": -83.4962147
          }
        }
      },
      "place_id": "ChIJF3UQ3Br7JogRYRLmLfk3pfI",
      "types": [
        "administrative_area_level_2",
        "political"
      ]
    },
    {
      "address_components": [
        {
          "long_name": "Michigan",
          "short_name": "MI",
          "types": [
            "administrative_area_level_1",
            "political"
          ]
        },
        {
          "long_name": "United States",
          "short_name": "US",
          "types": [
            "country",
            "political"
          ]
        }
      ],
      "formatted_address": "Michigan, USA",
      "geometry": {
        "bounds": {
          "northeast": {
            "lat": 48.1986461,
            "lng": -82.413474
          },
          "southwest": {
            "lat": 41.696118,
            "lng": -90.4181358
          }
        },
        "location": {
          "lat": 44.3148443,
          "lng": -85.60236429999999
        },
        "location_type": "APPROXIMATE",
        "viewport": {
          "northeast": {
            "lat": 48.198602,
            "lng": -82.413474
          },
          "southwest": {
            "lat": 41.696118,
            "lng": -90.4181358
          }
        }
      },
      "place_id": "ChIJEQTKxz2qTE0Rs8liellI3Zc",
      "types": [
        "administrative_area_level_1",
        "political"
      ]
    },
    {
      "address_components": [
        {
          "long_name": "United States",
          "short_name": "US",
          "types": [
            "country",
            "political"
          ]
        }
      ],
      "formatted_address": "United States",
      "geometry": {
        "bounds": {
          "northeast": {
            "lat": 71.3867745,
            "lng": -66.9502861
          },
          "southwest": {
            "lat": 18.9106768,
            "lng": 172.4458955
          }
        },
        "location": {
          "lat": 37.09024,
          "lng": -95.712891
        },
        "location_type": "APPROXIMATE",
        "viewport": {
          "northeast": {
            "lat": 49.38,
            "lng": -66.94
          },
          "southwest": {
            "lat": 25.82,
            "lng": -124.39
          }
        }
      },
      "place_id": "ChIJCzYy5IS16lQRQrfeQ5K5Oxw",
      "types": [
        "country",
        "political"
      ]
    }
  ],
  "status": "OK"
}
