{
  "results": [
    {
      "address_components": [
        {
          "long_name": "Old Schoolhouse Drive",
          "short_name": "Old Schoolhouse Dr",
          "types": [
            "route"
          ]
        },
        {
          "long_name": "Preston",
          "short_name": "Preston",
          "types": [
            "locality",
            "political"
          ]
        },
        {
          "long_name": "Stark Township",
          "short_name": "Stark Township",
          "types": [
            "administrative_area_level_3",
            "political"
          ]
        },
        {
          "long_name": "Hickory County",
          "short_name": "Hickory County",
          "types": [
            "administrative_area_level_2",
            "political"
          ]
        },
        {
          "long_name": "Missouri",
          "short_name": "MO",
          "types": [
            "administrative_area_level_1",
            "political"
          ]
        },
        {
          "long_name": "United States",
          "short_name": "US",
          "types": [
            "country",
            "political"
          ]
        },
        {
          "long_name": "65732",
          "short_name": "65732",
          "types": [
            "postal_code"
          ]
        }
      ],
      "formatted_address": "Old Schoolhouse Dr, Preston, MO 65732, USA",
      "geometry": {
        "bounds": {
          "northeast": {
            "lat": 37.94106379999999,
            "lng": -93.2126378
          },
          "southwest": {
            "lat": 37.9400226,
            "lng": -93.21272130000001
          }
        },
        "location": {
          "lat": 37.9405438,
          "lng": -93.21269439999999
        },
        "location_type": "GEOMETRIC_CENTER",
        "viewport": {
          "northeast": {
            "lat": 37.9418921802915,
            "lng": -93.2113305697085
          },
          "southwest": {
            "lat": 37.9391942197085,
            "lng": -93.2140285302915
          }
        }
      },
      "place_id": "ChIJye34ri5TxIcRbpObc_DLFN4",
      "types": [
        "route"
      ]
    },
    {
      "address_components": [
        {
          "long_name": "Preston",
          "short_name": "Preston",
          "types": [
            "locality",
            "political"
          ]
        },
        {
          "long_name": "Stark Township",
          "short_name": "Stark Township",
          "types": [
            "administrative_area_level_3",
            "political"
          ]
        },
        {
          "long_name": "Hickory County",
          "short_name": "Hickory County",
          "types": [
            "administrative_area_level_2",
            "political"
          ]
        },
        {
          "long_name": "Missouri",
          "short_name": "MO",
          "types": [
            "administrative_area_level_1",
            "political"
          ]
        },
        {
          "long_name": "United States",
          "short_name": "US",
          "types": [
            "country",
            "political"
          ]
        },
        {
          "long_name": "65732",
          "short_name": "65732",
          "types": [
            "postal_code"
          ]
        }
      ],
      "formatted_address": "Preston, MO 65732, USA",
      "geometry": {
        "bounds": {
          "northeast": {
            "lat": 37.943484,
            "lng": -93.20331990000001
          },
          "southwest": {
            "lat": 37.9391479,
            "lng": -93.2218079
          }
        },
        "location": {
          "lat": 37.9408663,
          "lng": -93.20769530000001
        },
        "location_type": "APPROXIMATE",
        "viewport": {
          "northeast": {
            "lat": 37.943484,
            "lng": -93.20331990000001
          },
          "southwest": {
            "lat": 37.9391479,
            "lng": -93.2218079
          }
        }
      },
      "place_id": "ChIJN4cZ-dZSxIcRbc_0QPgSf7o",
      "types": [
        "locality",
        "political"
      ]
    },
    {
      "address_components": [
        {
          "long_name": "65732",
          "short_name": "65732",
          "types": [
            "postal_code"
          ]
        },
        {
          "long_name": "Preston",
          "short_name": "Preston",
          "types": [
            "locality",
            "political"
          ]
        },
        {
          "long_name": "Missouri",
          "short_name": "MO",
          "types": [
            "administrative_area_level_1",
            "political"
          ]
        },
        {
          "long_name": "United States",
          "short_name": "US",
          "types": [
            "country",
            "political"
          ]
        }
      ],
      "formatted_address": "Preston, MO 65732, USA",
      "geometry": {
        "bounds": {
          "northeast": {
            "lat": 38.006497,
            "lng": -93.0705389
          },
          "southwest": {
            "lat": 37.8999879,
            "lng": -93.2560829
          }
        },
        "location": {
          "lat": 37.9574069,
          "lng": -93.1578875
        },
        "location_type": "APPROXIMATE",
        "viewport": {
          "northeast": {
            "lat": 38.006497,
            "lng": -93.0705389
          },
          "southwest": {
            "lat": 37.8999879,
            "lng": -93.2560829
          }
        }
      },
      "place_id": "ChIJJZN0MaxUxIcRDWILmurykMU",
      "types": [
        "postal_code"
      ]
    },
    {
      "address_components": [
        {
          "long_name": "Stark Township",
          "short_name": "Stark Township",
          "types": [
            "administrative_area_level_3",
            "political"
          ]
        },
        {
          "long_name": "Hickory County",
          "short_name": "Hickory County",
          "types": [
            "administrative_area_level_2",
            "political"
          ]
        },
        {
          "long_name": "Missouri",
          "short_name": "MO",
          "types": [
            "administrative_area_level_1",
            "political"
          ]
        },
        {
          "long_name": "United States",
          "short_name": "US",
          "types": [
            "country",
            "political"
          ]
        }
      ],
      "formatted_address": "Stark Township, MO, USA",
      "geometry": {
        "bounds": {
          "northeast": {
            "lat": 37.992032,
            "lng": -93.06888699999999
          },
          "southwest": {
            "lat": 37.889899,
            "lng": -93.257712
          }
        },
        "location": {
          "lat": 37.9574069,
          "lng": -93.1578875
        },
        "location_type": "APPROXIMATE",
        "viewport": {
          "northeast": {
            "lat": 37.992032,
            "lng": -93.06888699999999
          },
          "southwest": {
            "lat": 37.889899,
            "lng": -93.257712
          }
        }
      },
      "place_id": "ChIJS4Ty28pUxIcRtSa2TZtfdl0",
      "types": [
        "administrative_area_level_3",
        "political"
      ]
    },
    {
      "address_components": [
        {
          "long_name": "Hickory County",
          "short_name": "Hickory County",
          "types": [
            "administrative_area_level_2",
            "political"
          ]
        },
        {
          "long_name": "Missouri",
          "short_name": "MO",
          "types": [
            "administrative_area_level_1",
            "political"
          ]
        },
        {
          "long_name": "United States",
          "short_name": "US",
          "types": [
            "country",
            "political"
          ]
        }
      ],
      "formatted_address": "Hickory County, MO, USA",
      "geometry": {
        "bounds": {
          "northeast": {
            "lat": 38.072575,
            "lng": -93.0651989
          },
          "southwest": {
            "lat": 37.8027369,
            "lng": -93.574103
          }
        },
        "location": {
          "lat": 37.9747242,
          "lng": -93.29861059999999
        },
        "location_type": "APPROXIMATE",
        "viewport": {
          "northeast": {
            "lat": 38.072575,
            "lng": -93.0651989
          },
          "southwest": {
            "lat": 37.8027369,
            "lng": -93.574103
          }
        }
      },
      "place_id": "ChIJGQVhCyc1xIcRGLmTbKZGAME",
      "types": [
        "administrative_area_level_2",
        "political"
      ]
    },
    {
      "address_components": [
        {
          "long_name": "Missouri",
          "short_name": "MO",
          "types": [
            "administrative_area_level_1",
            "political"
          ]
        },
        {
          "long_name": "United States",
          "short_name": "US",
          "types": [
            "country",
            "political"
          ]
        }
      ],
      "formatted_address": "Missouri, USA",
      "geometry": {
        "bounds": {
          "northeast": {
            "lat": 40.61364,
            "lng": -89.09949399999999
          },
          "southwest": {
            "lat": 35.9956829,
            "lng": -95.774704
          }
        },
        "location": {
          "lat": 37.9642529,
          "lng": -91.8318334
        },
        "location_type": "APPROXIMATE",
        "viewport": {
          "northeast": {
            "lat": 40.61364,
            "lng": -89.09949399999999
          },
          "southwest": {
            "lat": 35.9956829,
            "lng": -95.774704
          }
        }
      },
      "place_id": "ChIJfeMiSNXmwIcRcr1mBFnEW7U",
      "types": [
        "administrative_area_level_1",
        "political"
      ]
    },
    {
      "address_components": [
        {
          "long_name": "United States",
          "short_name": "US",
          "types": [
            "country",
            "political"
          ]
        }
      ],
      "formatted_address": "United States",
      "geometry": {
        "bounds": {
          "northeast": {
            "lat": 71.3867745,
            "lng": -66.9502861
          },
          "southwest": {
            "lat": 18.9106768,
            "lng": 172.4458955
          }
        },
        "location": {
          "lat": 37.09024,
          "lng": -95.712891
        },
        "location_type": "APPROXIMATE",
        "viewport": {
          "northeast": {
            "lat": 49.38,
            "lng": -66.94
          },
          "southwest": {
            "lat": 25.82,
            "lng": -124.39
          }
        }
      },
      "place_id": "ChIJCzYy5IS16lQRQrfeQ5K5Oxw",
      "types": [
        "country",
        "political"
      ]
    }
  ],
  "status": "OK"
}
