{
  "results": [
    {
      "address_components": [
        {
          "long_name": "11603",
          "short_name": "11603",
          "types": [
            "street_number"
          ]
        },
        {
          "long_name": "Ridge Road Northeast",
          "short_name": "Ridge Rd NE",
          "types": [
            "route"
          ]
        },
        {
          "long_name": "East Sparta",
          "short_name": "East Sparta",
          "types": [
            "locality",
            "political"
          ]
        },
        {
          "long_name": "Sandy Township",
          "short_name": "Sandy Township",
          "types": [
            "administrative_area_level_3",
            "political"
          ]
        },
        {
          "long_name": "Tuscarawas County",
          "short_name": "Tuscarawas County",
          "types": [
            "administrative_area_level_2",
            "political"
          ]
        },
        {
          "long_name": "Ohio",
          "short_name": "OH",
          "types": [
            "administrative_area_level_1",
            "political"
          ]
        },
        {
          "long_name": "United States",
          "short_name": "US",
          "types": [
            "country",
            "political"
          ]
        },
        {
          "long_name": "44626",
          "short_name": "44626",
          "types": [
            "postal_code"
          ]
        }
      ],
      "formatted_address": "11603 Ridge Rd NE, East Sparta, OH 44626, USA",
      "geometry": {
        "location": {
          "lat": 40.646926,
          "lng": -81.36763599999999
        },
        "location_type": "ROOFTOP",
        "viewport": {
          "northeast": {
            "lat": 40.6482749802915,
            "lng": -81.3662870197085
          },
          "southwest": {
            "lat": 40.6455770197085,
            "lng": -81.3689849802915
          }
        }
      },
      "place_id": "ChIJj8yjS2_dNogRlOai-liOsmo",
      "types": [
        "street_address"
      ]
    },
    {
      "address_components": [
        {
          "long_name": "Sandy Township",
          "short_name": "Sandy Township",
          "types": [
            "administrative_area_level_3",
            "political"
          ]
        },
        {
          "long_name": "Tuscarawas County",
          "short_name": "Tuscarawas County",
          "types": [
            "administrative_area_level_2",
            "political"
          ]
        },
        {
          "long_name": "Ohio",
          "short_name": "OH",
          "types": [
            "administrative_area_level_1",
            "political"
          ]
        },
        {
          "long_name": "United States",
          "short_name": "US",
          "types": [
            "country",
            "political"
          ]
        }
      ],
      "formatted_address": "Sandy Township, OH, USA",
      "geometry": {
        "bounds": {
          "northeast": {
            "lat": 40.6530981,
            "lng": -81.317739
          },
          "southwest": {
            "lat": 40.5791678,
            "lng": -81.4137949
          }
        },
        "location": {
          "lat": 40.6152229,
          "lng": -81.36194019999999
        },
        "location_type": "APPROXIMATE",
        "viewport": {
          "northeast": {
            "lat": 40.6530981,
            "lng": -81.317739
          },
          "southwest": {
            "lat": 40.5791678,
            "lng": -81.4137949
          }
        }
      },
      "place_id": "ChIJic0LkpXnNogRQGiKyGHXFeY",
      "types": [
        "administrative_area_level_3",
        "political"
      ]
    },
    {
      "address_components": [
        {
          "long_name": "44626",
          "short_name": "44626",
          "types": [
            "postal_code"
          ]
        },
        {
          "long_name": "East Sparta",
          "short_name": "East Sparta",
          "types": [
            "locality",
            "political"
          ]
        },
        {
          "long_name": "Ohio",
          "short_name": "OH",
          "types": [
            "administrative_area_level_1",
            "political"
          ]
        },
        {
          "long_name": "United States",
          "short_name": "US",
          "types": [
            "country",
            "political"
          ]
        }
      ],
      "formatted_address": "East Sparta, OH 44626, USA",
      "geometry": {
        "bounds": {
          "northeast": {
            "lat": 40.734198,
            "lng": -81.303023
          },
          "southwest": {
            "lat": 40.63357999999999,
            "lng": -81.4548539
          }
        },
        "location": {
          "lat": 40.6882348,
          "lng": -81.3949264
        },
        "location_type": "APPROXIMATE",
        "viewport": {
          "northeast": {
            "lat": 40.734198,
            "lng": -81.303023
          },
          "southwest": {
            "lat": 40.63357999999999,
            "lng": -81.4548539
          }
        }
      },
      "place_id": "ChIJv8NhqVncNogRgQ8BRg45gzE",
      "types": [
        "postal_code"
      ]
    },
    {
      "address_components": [
        {
          "long_name": "Tuscarawas County",
          "short_name": "Tuscarawas County",
          "types": [
            "administrative_area_level_2",
            "political"
          ]
        },
        {
          "long_name": "Ohio",
          "short_name": "OH",
          "types": [
            "administrative_area_level_1",
            "political"
          ]
        },
        {
          "long_name": "United States",
          "short_name": "US",
          "types": [
            "country",
            "political"
          ]
        }
      ],
      "formatted_address": "Tuscarawas County, OH, USA",
      "geometry": {
        "bounds": {
          "northeast": {
            "lat": 40.66656,
            "lng": -81.264744
          },
          "southwest": {
            "lat": 40.2142529,
            "lng": -81.71228789999999
          }
        },
        "location": {
          "lat": 40.3978972,
          "lng": -81.42789839999999
        },
        "location_type": "APPROXIMATE",
        "viewport": {
          "northeast": {
            "lat": 40.66656,
            "lng": -81.264744
          },
          "southwest": {
            "lat": 40.2142529,
            "lng": -81.71228789999999
          }
        }
      },
      "place_id": "ChIJX75qi5EFN4gRDg7GQPSxw1U",
      "types": [
        "administrative_area_level_2",
        "political"
      ]
    },
    {
      "address_components": [
        {
          "long_name": "Ohio",
          "short_name": "OH",
          "types": [
            "administrative_area_level_1",
            "political"
          ]
        },
        {
          "long_name": "United States",
          "short_name": "US",
          "types": [
            "country",
            "political"
          ]
        }
      ],
      "formatted_address": "Ohio, USA",
      "geometry": {
        "bounds": {
          "northeast": {
            "lat": 41.9773019,
            "lng": -80.5182
          },
          "southwest": {
            "lat": 38.4034229,
            "lng": -84.8203049
          }
        },
        "location": {
          "lat": 40.4172871,
          "lng": -82.90712300000001
        },
        "location_type": "APPROXIMATE",
        "viewport": {
          "northeast": {
            "lat": 41.9773019,
            "lng": -80.5182
          },
          "southwest": {
            "lat": 38.4034229,
            "lng": -84.8203049
          }
        }
      },
      "place_id": "ChIJwY5NtXrpNogRFtmfnDlkzeU",
      "types": [
        "administrative_area_level_1",
        "political"
      ]
    },
    {
      "address_components": [
        {
          "long_name": "United States",
          "short_name": "US",
          "types": [
            "country",
            "political"
          ]
        }
      ],
      "formatted_address": "United States",
      "geometry": {
        "bounds": {
          "northeast": {
            "lat": 71.3867745,
            "lng": -66.9502861
          },
          "southwest": {
            "lat": 18.9106768,
            "lng": 172.4458955
          }
        },
        "location": {
          "lat": 37.09024,
          "lng": -95.712891
        },
        "location_type": "APPROXIMATE",
        "viewport": {
          "northeast": {
            "lat": 49.38,
            "lng": -66.94
          },
          "southwest": {
            "lat": 25.82,
            "lng": -124.39
          }
        }
      },
      "place_id": "ChIJCzYy5IS16lQRQrfeQ5K5Oxw",
      "types": [
        "country",
        "political"
      ]
    }
  ],
  "status": "OK"
}
