{
  "results": [
    {
      "address_components": [
        {
          "long_name": "Mc Kay Street",
          "short_name": "Mc Kay St",
          "types": [
            "route"
          ]
        },
        {
          "long_name": "Essex",
          "short_name": "Essex",
          "types": [
            "locality",
            "political"
          ]
        },
        {
          "long_name": "Richland Township",
          "short_name": "Richland Township",
          "types": [
            "administrative_area_level_3",
            "political"
          ]
        },
        {
          "long_name": "Stoddard County",
          "short_name": "Stoddard County",
          "types": [
            "administrative_area_level_2",
            "political"
          ]
        },
        {
          "long_name": "Missouri",
          "short_name": "MO",
          "types": [
            "administrative_area_level_1",
            "political"
          ]
        },
        {
          "long_name": "United States",
          "short_name": "US",
          "types": [
            "country",
            "political"
          ]
        },
        {
          "long_name": "63846",
          "short_name": "63846",
          "types": [
            "postal_code"
          ]
        }
      ],
      "formatted_address": "Mc Kay St, Essex, MO 63846, USA",
      "geometry": {
        "bounds": {
          "northeast": {
            "lat": 36.7903677,
            "lng": -89.8271439
          },
          "southwest": {
            "lat": 36.7903639,
            "lng": -89.827606
          }
        },
        "location": {
          "lat": 36.7903658,
          "lng": -89.82737499999999
        },
        "location_type": "GEOMETRIC_CENTER",
        "viewport": {
          "northeast": {
            "lat": 36.7917147802915,
            "lng": -89.8260259697085
          },
          "southwest": {
            "lat": 36.7890168197085,
            "lng": -89.8287239302915
          }
        }
      },
      "place_id": "ChIJbXvN1o1veIgRKjiNp6TJJ5g",
      "types": [
        "route"
      ]
    },
    {
      "address_components": [
        {
          "long_name": "Penermon",
          "short_name": "Penermon",
          "types": [
            "locality",
            "political"
          ]
        },
        {
          "long_name": "Richland Township",
          "short_name": "Richland Township",
          "types": [
            "administrative_area_level_3",
            "political"
          ]
        },
        {
          "long_name": "Stoddard County",
          "short_name": "Stoddard County",
          "types": [
            "administrative_area_level_2",
            "political"
          ]
        },
        {
          "long_name": "Missouri",
          "short_name": "MO",
          "types": [
            "administrative_area_level_1",
            "political"
          ]
        },
        {
          "long_name": "United States",
          "short_name": "US",
          "types": [
            "country",
            "political"
          ]
        },
        {
          "long_name": "63846",
          "short_name": "63846",
          "types": [
            "postal_code"
          ]
        }
      ],
      "formatted_address": "Penermon, MO 63846, USA",
      "geometry": {
        "bounds": {
          "northeast": {
            "lat": 36.795904,
            "lng": -89.8260471
          },
          "southwest": {
            "lat": 36.785249,
            "lng": -89.8351589
          }
        },
        "location": {
          "lat": 36.7900535,
          "lng": -89.829253
        },
        "location_type": "APPROXIMATE",
        "viewport": {
          "northeast": {
            "lat": 36.795904,
            "lng": -89.8260471
          },
          "southwest": {
            "lat": 36.785249,
            "lng": -89.8351589
          }
        }
      },
      "place_id": "ChIJZzGqIo1veIgRQtUlaezH4Ig",
      "types": [
        "locality",
        "political"
      ]
    },
    {
      "address_components": [
        {
          "long_name": "Richland Township",
          "short_name": "Richland Township",
          "types": [
            "administrative_area_level_3",
            "political"
          ]
        },
        {
          "long_name": "Stoddard County",
          "short_name": "Stoddard County",
          "types": [
            "administrative_area_level_2",
            "political"
          ]
        },
        {
          "long_name": "Missouri",
          "short_name": "MO",
          "types": [
            "administrative_area_level_1",
            "political"
          ]
        },
        {
          "long_name": "United States",
          "short_name": "US",
          "types": [
            "country",
            "political"
          ]
        }
      ],
      "formatted_address": "Richland Township, MO, USA",
      "geometry": {
        "bounds": {
          "northeast": {
            "lat": 36.9361988,
            "lng": -89.68467
          },
          "southwest": {
            "lat": 36.75734,
            "lng": -89.9168629
          }
        },
        "location": {
          "lat": 36.8463087,
          "lng": -89.7567693
        },
        "location_type": "APPROXIMATE",
        "viewport": {
          "northeast": {
            "lat": 36.9361988,
            "lng": -89.68467
          },
          "southwest": {
            "lat": 36.75734,
            "lng": -89.9168629
          }
        }
      },
      "place_id": "ChIJj7UaLpNueIgRZ7xJsZ4-q9A",
      "types": [
        "administrative_area_level_3",
        "political"
      ]
    },
    {
      "address_components": [
        {
          "long_name": "63846",
          "short_name": "63846",
          "types": [
            "postal_code"
          ]
        },
        {
          "long_name": "Essex",
          "short_name": "Essex",
          "types": [
            "locality",
            "political"
          ]
        },
        {
          "long_name": "Missouri",
          "short_name": "MO",
          "types": [
            "administrative_area_level_1",
            "political"
          ]
        },
        {
          "long_name": "United States",
          "short_name": "US",
          "types": [
            "country",
            "political"
          ]
        }
      ],
      "formatted_address": "Essex, MO 63846, USA",
      "geometry": {
        "bounds": {
          "northeast": {
            "lat": 36.952838,
            "lng": -89.70014479999999
          },
          "southwest": {
            "lat": 36.7005709,
            "lng": -89.89717
          }
        },
        "location": {
          "lat": 36.8033736,
          "lng": -89.83177289999999
        },
        "location_type": "APPROXIMATE",
        "viewport": {
          "northeast": {
            "lat": 36.952838,
            "lng": -89.70014479999999
          },
          "southwest": {
            "lat": 36.7005709,
            "lng": -89.89717
          }
        }
      },
      "place_id": "ChIJlzqYsRFveIgR1NORyQ2iS7g",
      "types": [
        "postal_code"
      ]
    },
    {
      "address_components": [
        {
          "long_name": "Stoddard County",
          "short_name": "Stoddard County",
          "types": [
            "administrative_area_level_2",
            "political"
          ]
        },
        {
          "long_name": "Missouri",
          "short_name": "MO",
          "types": [
            "administrative_area_level_1",
            "political"
          ]
        },
        {
          "long_name": "United States",
          "short_name": "US",
          "types": [
            "country",
            "political"
          ]
        }
      ],
      "formatted_address": "Stoddard County, MO, USA",
      "geometry": {
        "bounds": {
          "northeast": {
            "lat": 37.1273699,
            "lng": -89.68467
          },
          "southwest": {
            "lat": 36.627375,
            "lng": -90.259918
          }
        },
        "location": {
          "lat": 36.8680558,
          "lng": -89.9253233
        },
        "location_type": "APPROXIMATE",
        "viewport": {
          "northeast": {
            "lat": 37.1273699,
            "lng": -89.68467
          },
          "southwest": {
            "lat": 36.627375,
            "lng": -90.259918
          }
        }
      },
      "place_id": "ChIJkwsEpPdzeIgRwPs8LT1k6wA",
      "types": [
        "administrative_area_level_2",
        "political"
      ]
    },
    {
      "address_components": [
        {
          "long_name": "Missouri",
          "short_name": "MO",
          "types": [
            "administrative_area_level_1",
            "political"
          ]
        },
        {
          "long_name": "United States",
          "short_name": "US",
          "types": [
            "country",
            "political"
          ]
        }
      ],
      "formatted_address": "Missouri, USA",
      "geometry": {
        "bounds": {
          "northeast": {
            "lat": 40.61364,
            "lng": -89.09949399999999
          },
          "southwest": {
            "lat": 35.9956829,
            "lng": -95.774704
          }
        },
        "location": {
          "lat": 37.9642529,
          "lng": -91.8318334
        },
        "location_type": "APPROXIMATE",
        "viewport": {
          "northeast": {
            "lat": 40.61364,
            "lng": -89.09949399999999
          },
          "southwest": {
            "lat": 35.9956829,
            "lng": -95.774704
          }
        }
      },
      "place_id": "ChIJfeMiSNXmwIcRcr1mBFnEW7U",
      "types": [
        "administrative_area_level_1",
        "political"
      ]
    },
    {
      "address_components": [
        {
          "long_name": "United States",
          "short_name": "US",
          "types": [
            "country",
            "political"
          ]
        }
      ],
      "formatted_address": "United States",
      "geometry": {
        "bounds": {
          "northeast": {
            "lat": 71.3867745,
            "lng": -66.9502861
          },
          "southwest": {
            "lat": 18.9106768,
            "lng": 172.4458955
          }
        },
        "location": {
          "lat": 37.09024,
          "lng": -95.712891
        },
        "location_type": "APPROXIMATE",
        "viewport": {
          "northeast": {
            "lat": 49.38,
            "lng": -66.94
          },
          "southwest": {
            "lat": 25.82,
            "lng": -124.39
          }
        }
      },
      "place_id": "ChIJCzYy5IS16lQRQrfeQ5K5Oxw",
      "types": [
        "country",
        "political"
      ]
    }
  ],
  "status": "OK"
}
