{
  "results": [
    {
      "address_components": [
        {
          "long_name": "601-699",
          "short_name": "601-699",
          "types": [
            "street_number"
          ]
        },
        {
          "long_name": "Fisher Street",
          "short_name": "Fisher St",
          "types": [
            "route"
          ]
        },
        {
          "long_name": "Waverly",
          "short_name": "Waverly",
          "types": [
            "locality",
            "political"
          ]
        },
        {
          "long_name": "Rock Creek",
          "short_name": "Rock Creek",
          "types": [
            "administrative_area_level_3",
            "political"
          ]
        },
        {
          "long_name": "Coffey County",
          "short_name": "Coffey County",
          "types": [
            "administrative_area_level_2",
            "political"
          ]
        },
        {
          "long_name": "Kansas",
          "short_name": "KS",
          "types": [
            "administrative_area_level_1",
            "political"
          ]
        },
        {
          "long_name": "United States",
          "short_name": "US",
          "types": [
            "country",
            "political"
          ]
        },
        {
          "long_name": "66871",
          "short_name": "66871",
          "types": [
            "postal_code"
          ]
        },
        {
          "long_name": "9523",
          "short_name": "9523",
          "types": [
            "postal_code_suffix"
          ]
        }
      ],
      "formatted_address": "601-699 Fisher St, Waverly, KS 66871, USA",
      "geometry": {
        "bounds": {
          "northeast": {
            "lat": 38.396375,
            "lng": -95.604377
          },
          "southwest": {
            "lat": 38.395235,
            "lng": -95.604394
          }
        },
        "location": {
          "lat": 38.3961325,
          "lng": -95.60440229999999
        },
        "location_type": "RANGE_INTERPOLATED",
        "viewport": {
          "northeast": {
            "lat": 38.3971539802915,
            "lng": -95.6030365197085
          },
          "southwest": {
            "lat": 38.3944560197085,
            "lng": -95.60573448029152
          }
        }
      },
      "place_id": "Eik2MDEtNjk5IEZpc2hlciBTdCwgV2F2ZXJseSwgS1MgNjY4NzEsIFVTQQ",
      "types": [
        "street_address"
      ]
    },
    {
      "address_components": [
        {
          "long_name": "Waverly",
          "short_name": "Waverly",
          "types": [
            "locality",
            "political"
          ]
        },
        {
          "long_name": "Rock Creek",
          "short_name": "Rock Creek",
          "types": [
            "administrative_area_level_3",
            "political"
          ]
        },
        {
          "long_name": "Coffey County",
          "short_name": "Coffey County",
          "types": [
            "administrative_area_level_2",
            "political"
          ]
        },
        {
          "long_name": "Kansas",
          "short_name": "KS",
          "types": [
            "administrative_area_level_1",
            "political"
          ]
        },
        {
          "long_name": "United States",
          "short_name": "US",
          "types": [
            "country",
            "political"
          ]
        },
        {
          "long_name": "66871",
          "short_name": "66871",
          "types": [
            "postal_code"
          ]
        }
      ],
      "formatted_address": "Waverly, KS 66871, USA",
      "geometry": {
        "bounds": {
          "northeast": {
            "lat": 38.404883,
            "lng": -95.59039190000001
          },
          "southwest": {
            "lat": 38.387105,
            "lng": -95.61268600000001
          }
        },
        "location": {
          "lat": 38.3939053,
          "lng": -95.6030394
        },
        "location_type": "APPROXIMATE",
        "viewport": {
          "northeast": {
            "lat": 38.404883,
            "lng": -95.5952779
          },
          "southwest": {
            "lat": 38.387105,
            "lng": -95.61268600000001
          }
        }
      },
      "place_id": "ChIJB6L65pvQuIcRhJXaSG_cZ-s",
      "types": [
        "locality",
        "political"
      ]
    },
    {
      "address_components": [
        {
          "long_name": "Rock Creek",
          "short_name": "Rock Creek",
          "types": [
            "administrative_area_level_3",
            "political"
          ]
        },
        {
          "long_name": "Coffey County",
          "short_name": "Coffey County",
          "types": [
            "administrative_area_level_2",
            "political"
          ]
        },
        {
          "long_name": "Kansas",
          "short_name": "KS",
          "types": [
            "administrative_area_level_1",
            "political"
          ]
        },
        {
          "long_name": "United States",
          "short_name": "US",
          "types": [
            "country",
            "political"
          ]
        }
      ],
      "formatted_address": "Rock Creek, KS, USA",
      "geometry": {
        "bounds": {
          "northeast": {
            "lat": 38.4345321,
            "lng": -95.5079069
          },
          "southwest": {
            "lat": 38.3465829,
            "lng": -95.6743829
          }
        },
        "location": {
          "lat": 38.3733636,
          "lng": -95.5827334
        },
        "location_type": "APPROXIMATE",
        "viewport": {
          "northeast": {
            "lat": 38.4345321,
            "lng": -95.5079069
          },
          "southwest": {
            "lat": 38.3465829,
            "lng": -95.6743829
          }
        }
      },
      "place_id": "ChIJVyBFsE3QuIcRQmoUOy6pnSs",
      "types": [
        "administrative_area_level_3",
        "political"
      ]
    },
    {
      "address_components": [
        {
          "long_name": "66871",
          "short_name": "66871",
          "types": [
            "postal_code"
          ]
        },
        {
          "long_name": "Waverly",
          "short_name": "Waverly",
          "types": [
            "locality",
            "political"
          ]
        },
        {
          "long_name": "Kansas",
          "short_name": "KS",
          "types": [
            "administrative_area_level_1",
            "political"
          ]
        },
        {
          "long_name": "United States",
          "short_name": "US",
          "types": [
            "country",
            "political"
          ]
        }
      ],
      "formatted_address": "Waverly, KS 66871, USA",
      "geometry": {
        "bounds": {
          "northeast": {
            "lat": 38.4631259,
            "lng": -95.50790099999999
          },
          "southwest": {
            "lat": 38.2422911,
            "lng": -95.7294988
          }
        },
        "location": {
          "lat": 38.3713564,
          "lng": -95.62476699999999
        },
        "location_type": "APPROXIMATE",
        "viewport": {
          "northeast": {
            "lat": 38.4631259,
            "lng": -95.50790099999999
          },
          "southwest": {
            "lat": 38.2422911,
            "lng": -95.7294988
          }
        }
      },
      "place_id": "ChIJi1yNGJHQuIcR2X-cWw1F9lQ",
      "types": [
        "postal_code"
      ]
    },
    {
      "address_components": [
        {
          "long_name": "Coffey County",
          "short_name": "Coffey County",
          "types": [
            "administrative_area_level_2",
            "political"
          ]
        },
        {
          "long_name": "Kansas",
          "short_name": "KS",
          "types": [
            "administrative_area_level_1",
            "political"
          ]
        },
        {
          "long_name": "United States",
          "short_name": "US",
          "types": [
            "country",
            "political"
          ]
        }
      ],
      "formatted_address": "Coffey County, KS, USA",
      "geometry": {
        "bounds": {
          "northeast": {
            "lat": 38.4345321,
            "lng": -95.507474
          },
          "southwest": {
            "lat": 38.0379379,
            "lng": -95.9593019
          }
        },
        "location": {
          "lat": 38.2570639,
          "lng": -95.81428849999999
        },
        "location_type": "APPROXIMATE",
        "viewport": {
          "northeast": {
            "lat": 38.4345321,
            "lng": -95.507474
          },
          "southwest": {
            "lat": 38.0379379,
            "lng": -95.9593019
          }
        }
      },
      "place_id": "ChIJvWrBkjEnuYcRLpVsKGCxdMo",
      "types": [
        "administrative_area_level_2",
        "political"
      ]
    },
    {
      "address_components": [
        {
          "long_name": "Kansas",
          "short_name": "KS",
          "types": [
            "administrative_area_level_1",
            "political"
          ]
        },
        {
          "long_name": "United States",
          "short_name": "US",
          "types": [
            "country",
            "political"
          ]
        }
      ],
      "formatted_address": "Kansas, USA",
      "geometry": {
        "bounds": {
          "northeast": {
            "lat": 40.0045419,
            "lng": -94.588387
          },
          "southwest": {
            "lat": 36.9930159,
            "lng": -102.0517688
          }
        },
        "location": {
          "lat": 39.011902,
          "lng": -98.4842465
        },
        "location_type": "APPROXIMATE",
        "viewport": {
          "northeast": {
            "lat": 40.0045419,
            "lng": -94.588387
          },
          "southwest": {
            "lat": 36.9930159,
            "lng": -102.0517688
          }
        }
      },
      "place_id": "ChIJawF8cXEXo4cRXwk-S6m0wmg",
      "types": [
        "administrative_area_level_1",
        "political"
      ]
    },
    {
      "address_components": [
        {
          "long_name": "United States",
          "short_name": "US",
          "types": [
            "country",
            "political"
          ]
        }
      ],
      "formatted_address": "United States",
      "geometry": {
        "bounds": {
          "northeast": {
            "lat": 71.3867745,
            "lng": -66.9502861
          },
          "southwest": {
            "lat": 18.9106768,
            "lng": 172.4458955
          }
        },
        "location": {
          "lat": 37.09024,
          "lng": -95.712891
        },
        "location_type": "APPROXIMATE",
        "viewport": {
          "northeast": {
            "lat": 49.38,
            "lng": -66.94
          },
          "southwest": {
            "lat": 25.82,
            "lng": -124.39
          }
        }
      },
      "place_id": "ChIJCzYy5IS16lQRQrfeQ5K5Oxw",
      "types": [
        "country",
        "political"
      ]
    }
  ],
  "status": "OK"
}
