{
  "results": [
    {
      "address_components": [
        {
          "long_name": "140th Road",
          "short_name": "140th Rd",
          "types": [
            "route"
          ]
        },
        {
          "long_name": "Piqua",
          "short_name": "Piqua",
          "types": [
            "locality",
            "political"
          ]
        },
        {
          "long_name": "Neosho Falls",
          "short_name": "Neosho Falls",
          "types": [
            "administrative_area_level_3",
            "political"
          ]
        },
        {
          "long_name": "Woodson County",
          "short_name": "Woodson County",
          "types": [
            "administrative_area_level_2",
            "political"
          ]
        },
        {
          "long_name": "Kansas",
          "short_name": "KS",
          "types": [
            "administrative_area_level_1",
            "political"
          ]
        },
        {
          "long_name": "United States",
          "short_name": "US",
          "types": [
            "country",
            "political"
          ]
        },
        {
          "long_name": "66761",
          "short_name": "66761",
          "types": [
            "postal_code"
          ]
        }
      ],
      "formatted_address": "140th Rd, Piqua, KS 66761, USA",
      "geometry": {
        "bounds": {
          "northeast": {
            "lat": 37.9220111,
            "lng": -95.53746869999999
          },
          "southwest": {
            "lat": 37.9220056,
            "lng": -95.5378635
          }
        },
        "location": {
          "lat": 37.9220084,
          "lng": -95.5376661
        },
        "location_type": "GEOMETRIC_CENTER",
        "viewport": {
          "northeast": {
            "lat": 37.9233573302915,
            "lng": -95.53631711970849
          },
          "southwest": {
            "lat": 37.9206593697085,
            "lng": -95.53901508029149
          }
        }
      },
      "place_id": "ChIJKSm70Tn3uIcRM6QbneJGlN4",
      "types": [
        "route"
      ]
    },
    {
      "address_components": [
        {
          "long_name": "Piqua",
          "short_name": "Piqua",
          "types": [
            "locality",
            "political"
          ]
        },
        {
          "long_name": "Neosho Falls",
          "short_name": "Neosho Falls",
          "types": [
            "administrative_area_level_3",
            "political"
          ]
        },
        {
          "long_name": "Woodson County",
          "short_name": "Woodson County",
          "types": [
            "administrative_area_level_2",
            "political"
          ]
        },
        {
          "long_name": "Kansas",
          "short_name": "KS",
          "types": [
            "administrative_area_level_1",
            "political"
          ]
        },
        {
          "long_name": "United States",
          "short_name": "US",
          "types": [
            "country",
            "political"
          ]
        },
        {
          "long_name": "66761",
          "short_name": "66761",
          "types": [
            "postal_code"
          ]
        }
      ],
      "formatted_address": "Piqua, KS 66761, USA",
      "geometry": {
        "bounds": {
          "northeast": {
            "lat": 37.936547,
            "lng": -95.51912879999999
          },
          "southwest": {
            "lat": 37.9074449,
            "lng": -95.5558581
          }
        },
        "location": {
          "lat": 37.9220374,
          "lng": -95.5374629
        },
        "location_type": "APPROXIMATE",
        "viewport": {
          "northeast": {
            "lat": 37.936547,
            "lng": -95.51912879999999
          },
          "southwest": {
            "lat": 37.9074449,
            "lng": -95.5558581
          }
        }
      },
      "place_id": "ChIJKytvmTP3uIcRsQPYQRp974s",
      "types": [
        "locality",
        "political"
      ]
    },
    {
      "address_components": [
        {
          "long_name": "66761",
          "short_name": "66761",
          "types": [
            "postal_code"
          ]
        },
        {
          "long_name": "Piqua",
          "short_name": "Piqua",
          "types": [
            "locality",
            "political"
          ]
        },
        {
          "long_name": "Kansas",
          "short_name": "KS",
          "types": [
            "administrative_area_level_1",
            "political"
          ]
        },
        {
          "long_name": "United States",
          "short_name": "US",
          "types": [
            "country",
            "political"
          ]
        }
      ],
      "formatted_address": "Piqua, KS 66761, USA",
      "geometry": {
        "bounds": {
          "northeast": {
            "lat": 38.00917700000001,
            "lng": -95.51597
          },
          "southwest": {
            "lat": 37.820259,
            "lng": -95.628956
          }
        },
        "location": {
          "lat": 37.9098504,
          "lng": -95.5827334
        },
        "location_type": "APPROXIMATE",
        "viewport": {
          "northeast": {
            "lat": 38.00917700000001,
            "lng": -95.51597
          },
          "southwest": {
            "lat": 37.820259,
            "lng": -95.628956
          }
        }
      },
      "place_id": "ChIJC3Rex7r5uIcRP75pmGoziKQ",
      "types": [
        "postal_code"
      ]
    },
    {
      "address_components": [
        {
          "long_name": "Neosho Falls",
          "short_name": "Neosho Falls",
          "types": [
            "administrative_area_level_3",
            "political"
          ]
        },
        {
          "long_name": "Woodson County",
          "short_name": "Woodson County",
          "types": [
            "administrative_area_level_2",
            "political"
          ]
        },
        {
          "long_name": "Kansas",
          "short_name": "KS",
          "types": [
            "administrative_area_level_1",
            "political"
          ]
        },
        {
          "long_name": "United States",
          "short_name": "US",
          "types": [
            "country",
            "political"
          ]
        }
      ],
      "formatted_address": "Neosho Falls, KS, USA",
      "geometry": {
        "bounds": {
          "northeast": {
            "lat": 38.0388948,
            "lng": -95.518951
          },
          "southwest": {
            "lat": 37.83464499999999,
            "lng": -95.629278
          }
        },
        "location": {
          "lat": 37.95211889999999,
          "lng": -95.5827334
        },
        "location_type": "APPROXIMATE",
        "viewport": {
          "northeast": {
            "lat": 38.0388948,
            "lng": -95.518951
          },
          "southwest": {
            "lat": 37.83464499999999,
            "lng": -95.629278
          }
        }
      },
      "place_id": "ChIJ-Z9Eexv6uIcR8WONYwJVtNI",
      "types": [
        "administrative_area_level_3",
        "political"
      ]
    },
    {
      "address_components": [
        {
          "long_name": "Woodson County",
          "short_name": "Woodson County",
          "types": [
            "administrative_area_level_2",
            "political"
          ]
        },
        {
          "long_name": "Kansas",
          "short_name": "KS",
          "types": [
            "administrative_area_level_1",
            "political"
          ]
        },
        {
          "long_name": "United States",
          "short_name": "US",
          "types": [
            "country",
            "political"
          ]
        }
      ],
      "formatted_address": "Woodson County, KS, USA",
      "geometry": {
        "bounds": {
          "northeast": {
            "lat": 38.04020089999999,
            "lng": -95.518951
          },
          "southwest": {
            "lat": 37.7327268,
            "lng": -95.961576
          }
        },
        "location": {
          "lat": 37.9197853,
          "lng": -95.81428849999999
        },
        "location_type": "APPROXIMATE",
        "viewport": {
          "northeast": {
            "lat": 38.04020089999999,
            "lng": -95.518951
          },
          "southwest": {
            "lat": 37.7327268,
            "lng": -95.961576
          }
        }
      },
      "place_id": "ChIJPW4aCygBuYcR_7ALhEWT9iw",
      "types": [
        "administrative_area_level_2",
        "political"
      ]
    },
    {
      "address_components": [
        {
          "long_name": "Kansas",
          "short_name": "KS",
          "types": [
            "administrative_area_level_1",
            "political"
          ]
        },
        {
          "long_name": "United States",
          "short_name": "US",
          "types": [
            "country",
            "political"
          ]
        }
      ],
      "formatted_address": "Kansas, USA",
      "geometry": {
        "bounds": {
          "northeast": {
            "lat": 40.0045419,
            "lng": -94.588387
          },
          "southwest": {
            "lat": 36.9930159,
            "lng": -102.0517688
          }
        },
        "location": {
          "lat": 39.011902,
          "lng": -98.4842465
        },
        "location_type": "APPROXIMATE",
        "viewport": {
          "northeast": {
            "lat": 40.0045419,
            "lng": -94.588387
          },
          "southwest": {
            "lat": 36.9930159,
            "lng": -102.0517688
          }
        }
      },
      "place_id": "ChIJawF8cXEXo4cRXwk-S6m0wmg",
      "types": [
        "administrative_area_level_1",
        "political"
      ]
    },
    {
      "address_components": [
        {
          "long_name": "United States",
          "short_name": "US",
          "types": [
            "country",
            "political"
          ]
        }
      ],
      "formatted_address": "United States",
      "geometry": {
        "bounds": {
          "northeast": {
            "lat": 71.3867745,
            "lng": -66.9502861
          },
          "southwest": {
            "lat": 18.9106768,
            "lng": 172.4458955
          }
        },
        "location": {
          "lat": 37.09024,
          "lng": -95.712891
        },
        "location_type": "APPROXIMATE",
        "viewport": {
          "northeast": {
            "lat": 49.38,
            "lng": -66.94
          },
          "southwest": {
            "lat": 25.82,
            "lng": -124.39
          }
        }
      },
      "place_id": "ChIJCzYy5IS16lQRQrfeQ5K5Oxw",
      "types": [
        "country",
        "political"
      ]
    }
  ],
  "status": "OK"
}
