{
  "results": [
    {
      "address_components": [
        {
          "long_name": "108",
          "short_name": "108",
          "types": [
            "street_number"
          ]
        },
        {
          "long_name": "4th Street",
          "short_name": "4th St",
          "types": [
            "route"
          ]
        },
        {
          "long_name": "Gordon",
          "short_name": "Gordon",
          "types": [
            "locality",
            "political"
          ]
        },
        {
          "long_name": "North Rushville",
          "short_name": "North Rushville",
          "types": [
            "administrative_area_level_3",
            "political"
          ]
        },
        {
          "long_name": "Sheridan County",
          "short_name": "Sheridan County",
          "types": [
            "administrative_area_level_2",
            "political"
          ]
        },
        {
          "long_name": "Nebraska",
          "short_name": "NE",
          "types": [
            "administrative_area_level_1",
            "political"
          ]
        },
        {
          "long_name": "United States",
          "short_name": "US",
          "types": [
            "country",
            "political"
          ]
        },
        {
          "long_name": "69343",
          "short_name": "69343",
          "types": [
            "postal_code"
          ]
        }
      ],
      "formatted_address": "108 4th St, Gordon, NE 69343, USA",
      "geometry": {
        "location": {
          "lat": 42.7597521,
          "lng": -102.3481294
        },
        "location_type": "ROOFTOP",
        "viewport": {
          "northeast": {
            "lat": 42.7611010802915,
            "lng": -102.3467804197085
          },
          "southwest": {
            "lat": 42.7584031197085,
            "lng": -102.3494783802915
          }
        }
      },
      "place_id": "ChIJk5DatmHBe4cRgJ27gItieVQ",
      "types": [
        "street_address"
      ]
    },
    {
      "address_components": [
        {
          "long_name": "Clinton",
          "short_name": "Clinton",
          "types": [
            "locality",
            "political"
          ]
        },
        {
          "long_name": "North Rushville",
          "short_name": "North Rushville",
          "types": [
            "administrative_area_level_3",
            "political"
          ]
        },
        {
          "long_name": "Sheridan County",
          "short_name": "Sheridan County",
          "types": [
            "administrative_area_level_2",
            "political"
          ]
        },
        {
          "long_name": "Nebraska",
          "short_name": "NE",
          "types": [
            "administrative_area_level_1",
            "political"
          ]
        },
        {
          "long_name": "United States",
          "short_name": "US",
          "types": [
            "country",
            "political"
          ]
        },
        {
          "long_name": "69343",
          "short_name": "69343",
          "types": [
            "postal_code"
          ]
        }
      ],
      "formatted_address": "Clinton, NE 69343, USA",
      "geometry": {
        "bounds": {
          "northeast": {
            "lat": 42.76212810000001,
            "lng": -102.3415539
          },
          "southwest": {
            "lat": 42.756585,
            "lng": -102.3512831
          }
        },
        "location": {
          "lat": 42.7599927,
          "lng": -102.3493352
        },
        "location_type": "APPROXIMATE",
        "viewport": {
          "northeast": {
            "lat": 42.76212810000001,
            "lng": -102.3415539
          },
          "southwest": {
            "lat": 42.756585,
            "lng": -102.3512831
          }
        }
      },
      "place_id": "ChIJSzJDs2HBe4cRSuQBra_4vIQ",
      "types": [
        "locality",
        "political"
      ]
    },
    {
      "address_components": [
        {
          "long_name": "North Rushville",
          "short_name": "North Rushville",
          "types": [
            "administrative_area_level_3",
            "political"
          ]
        },
        {
          "long_name": "Sheridan County",
          "short_name": "Sheridan County",
          "types": [
            "administrative_area_level_2",
            "political"
          ]
        },
        {
          "long_name": "Nebraska",
          "short_name": "NE",
          "types": [
            "administrative_area_level_1",
            "political"
          ]
        },
        {
          "long_name": "United States",
          "short_name": "US",
          "types": [
            "country",
            "political"
          ]
        }
      ],
      "formatted_address": "North Rushville, NE, USA",
      "geometry": {
        "bounds": {
          "northeast": {
            "lat": 42.9999849,
            "lng": -102.302256
          },
          "southwest": {
            "lat": 42.715833,
            "lng": -102.6945719
          }
        },
        "location": {
          "lat": 42.8381641,
          "lng": -102.4839212
        },
        "location_type": "APPROXIMATE",
        "viewport": {
          "northeast": {
            "lat": 42.9999849,
            "lng": -102.302256
          },
          "southwest": {
            "lat": 42.715833,
            "lng": -102.6945719
          }
        }
      },
      "place_id": "ChIJyaxwq2mUe4cRYK64sG8hVJA",
      "types": [
        "administrative_area_level_3",
        "political"
      ]
    },
    {
      "address_components": [
        {
          "long_name": "69343",
          "short_name": "69343",
          "types": [
            "postal_code"
          ]
        },
        {
          "long_name": "Gordon",
          "short_name": "Gordon",
          "types": [
            "locality",
            "political"
          ]
        },
        {
          "long_name": "Nebraska",
          "short_name": "NE",
          "types": [
            "administrative_area_level_1",
            "political"
          ]
        },
        {
          "long_name": "United States",
          "short_name": "US",
          "types": [
            "country",
            "political"
          ]
        }
      ],
      "formatted_address": "Gordon, NE 69343, USA",
      "geometry": {
        "bounds": {
          "northeast": {
            "lat": 42.9997451,
            "lng": -101.277234
          },
          "southwest": {
            "lat": 42.36428979999999,
            "lng": -102.47448
          }
        },
        "location": {
          "lat": 42.7576923,
          "lng": -102.1632718
        },
        "location_type": "APPROXIMATE",
        "viewport": {
          "northeast": {
            "lat": 42.9997451,
            "lng": -101.277234
          },
          "southwest": {
            "lat": 42.36428979999999,
            "lng": -102.47448
          }
        }
      },
      "place_id": "ChIJMW8I2M-ceYcRaR5OxruNf54",
      "types": [
        "postal_code"
      ]
    },
    {
      "address_components": [
        {
          "long_name": "Sheridan County",
          "short_name": "Sheridan County",
          "types": [
            "administrative_area_level_2",
            "political"
          ]
        },
        {
          "long_name": "Nebraska",
          "short_name": "NE",
          "types": [
            "administrative_area_level_1",
            "political"
          ]
        },
        {
          "long_name": "United States",
          "short_name": "US",
          "types": [
            "country",
            "political"
          ]
        }
      ],
      "formatted_address": "Sheridan County, NE, USA",
      "geometry": {
        "bounds": {
          "northeast": {
            "lat": 42.9999849,
            "lng": -102.0062039
          },
          "southwest": {
            "lat": 42.004843,
            "lng": -102.7932
          }
        },
        "location": {
          "lat": 42.3613076,
          "lng": -102.2547919
        },
        "location_type": "APPROXIMATE",
        "viewport": {
          "northeast": {
            "lat": 42.9999854,
            "lng": -102.0062039
          },
          "southwest": {
            "lat": 42.004843,
            "lng": -102.7932
          }
        }
      },
      "place_id": "ChIJhdGJOzYkeocRPyzL7-pDNiU",
      "types": [
        "administrative_area_level_2",
        "political"
      ]
    },
    {
      "address_components": [
        {
          "long_name": "Nebraska",
          "short_name": "NE",
          "types": [
            "administrative_area_level_1",
            "political"
          ]
        },
        {
          "long_name": "United States",
          "short_name": "US",
          "types": [
            "country",
            "political"
          ]
        }
      ],
      "formatted_address": "Nebraska, USA",
      "geometry": {
        "bounds": {
          "northeast": {
            "lat": 43.00170689999999,
            "lng": -95.30829000000001
          },
          "southwest": {
            "lat": 39.999932,
            "lng": -104.053514
          }
        },
        "location": {
          "lat": 41.4925374,
          "lng": -99.9018131
        },
        "location_type": "APPROXIMATE",
        "viewport": {
          "northeast": {
            "lat": 43.00170689999999,
            "lng": -95.30829000000001
          },
          "southwest": {
            "lat": 39.999932,
            "lng": -104.053514
          }
        }
      },
      "place_id": "ChIJ7fwMtciNk4cRxArzDwyQJ6E",
      "types": [
        "administrative_area_level_1",
        "political"
      ]
    },
    {
      "address_components": [
        {
          "long_name": "United States",
          "short_name": "US",
          "types": [
            "country",
            "political"
          ]
        }
      ],
      "formatted_address": "United States",
      "geometry": {
        "bounds": {
          "northeast": {
            "lat": 71.3867745,
            "lng": -66.9502861
          },
          "southwest": {
            "lat": 18.9106768,
            "lng": 172.4458955
          }
        },
        "location": {
          "lat": 37.09024,
          "lng": -95.712891
        },
        "location_type": "APPROXIMATE",
        "viewport": {
          "northeast": {
            "lat": 49.38,
            "lng": -66.94
          },
          "southwest": {
            "lat": 25.82,
            "lng": -124.39
          }
        }
      },
      "place_id": "ChIJCzYy5IS16lQRQrfeQ5K5Oxw",
      "types": [
        "country",
        "political"
      ]
    }
  ],
  "status": "OK"
}
