{
  "results": [
    {
      "address_components": [
        {
          "long_name": "24-40",
          "short_name": "24-40",
          "types": [
            "street_number"
          ]
        },
        {
          "long_name": "Center Street",
          "short_name": "Center St",
          "types": [
            "route"
          ]
        },
        {
          "long_name": "Charleston",
          "short_name": "Charleston",
          "types": [
            "locality",
            "political"
          ]
        },
        {
          "long_name": "Ohio Township",
          "short_name": "Ohio Township",
          "types": [
            "administrative_area_level_3",
            "political"
          ]
        },
        {
          "long_name": "Mississippi County",
          "short_name": "Mississippi County",
          "types": [
            "administrative_area_level_2",
            "political"
          ]
        },
        {
          "long_name": "Missouri",
          "short_name": "MO",
          "types": [
            "administrative_area_level_1",
            "political"
          ]
        },
        {
          "long_name": "United States",
          "short_name": "US",
          "types": [
            "country",
            "political"
          ]
        },
        {
          "long_name": "63834",
          "short_name": "63834",
          "types": [
            "postal_code"
          ]
        }
      ],
      "formatted_address": "24-40 Center St, Charleston, MO 63834, USA",
      "geometry": {
        "bounds": {
          "northeast": {
            "lat": 36.9237572,
            "lng": -89.22166999999999
          },
          "southwest": {
            "lat": 36.9237524,
            "lng": -89.224221
          }
        },
        "location": {
          "lat": 36.9237685,
          "lng": -89.2230151
        },
        "location_type": "RANGE_INTERPOLATED",
        "viewport": {
          "northeast": {
            "lat": 36.9251037802915,
            "lng": -89.22159651970848
          },
          "southwest": {
            "lat": 36.9224058197085,
            "lng": -89.22429448029149
          }
        }
      },
      "place_id": "EioyNC00MCBDZW50ZXIgU3QsIENoYXJsZXN0b24sIE1PIDYzODM0LCBVU0E",
      "types": [
        "street_address"
      ]
    },
    {
      "address_components": [
        {
          "long_name": "Wilson City",
          "short_name": "Wilson City",
          "types": [
            "locality",
            "political"
          ]
        },
        {
          "long_name": "Ohio Township",
          "short_name": "Ohio Township",
          "types": [
            "administrative_area_level_3",
            "political"
          ]
        },
        {
          "long_name": "Mississippi County",
          "short_name": "Mississippi County",
          "types": [
            "administrative_area_level_2",
            "political"
          ]
        },
        {
          "long_name": "Missouri",
          "short_name": "MO",
          "types": [
            "administrative_area_level_1",
            "political"
          ]
        },
        {
          "long_name": "United States",
          "short_name": "US",
          "types": [
            "country",
            "political"
          ]
        },
        {
          "long_name": "63834",
          "short_name": "63834",
          "types": [
            "postal_code"
          ]
        }
      ],
      "formatted_address": "Wilson City, MO 63834, USA",
      "geometry": {
        "bounds": {
          "northeast": {
            "lat": 36.925746,
            "lng": -89.220708
          },
          "southwest": {
            "lat": 36.921425,
            "lng": -89.22532
          }
        },
        "location": {
          "lat": 36.9225528,
          "lng": -89.2239613
        },
        "location_type": "APPROXIMATE",
        "viewport": {
          "northeast": {
            "lat": 36.925746,
            "lng": -89.220708
          },
          "southwest": {
            "lat": 36.921425,
            "lng": -89.22532
          }
        }
      },
      "place_id": "ChIJDa8vJ0S4eYgRK54dp_TJTac",
      "types": [
        "locality",
        "political"
      ]
    },
    {
      "address_components": [
        {
          "long_name": "Ohio Township",
          "short_name": "Ohio Township",
          "types": [
            "administrative_area_level_3",
            "political"
          ]
        },
        {
          "long_name": "Mississippi County",
          "short_name": "Mississippi County",
          "types": [
            "administrative_area_level_2",
            "political"
          ]
        },
        {
          "long_name": "Missouri",
          "short_name": "MO",
          "types": [
            "administrative_area_level_1",
            "political"
          ]
        },
        {
          "long_name": "United States",
          "short_name": "US",
          "types": [
            "country",
            "political"
          ]
        }
      ],
      "formatted_address": "Ohio Township, MO, USA",
      "geometry": {
        "bounds": {
          "northeast": {
            "lat": 37.0095861,
            "lng": -89.09949399999999
          },
          "southwest": {
            "lat": 36.87774510000001,
            "lng": -89.2664971
          }
        },
        "location": {
          "lat": 36.929857,
          "lng": -89.18964299999999
        },
        "location_type": "APPROXIMATE",
        "viewport": {
          "northeast": {
            "lat": 37.0095861,
            "lng": -89.09949399999999
          },
          "southwest": {
            "lat": 36.87774510000001,
            "lng": -89.2664971
          }
        }
      },
      "place_id": "ChIJEwDDUKS4eYgRssJuphz8X0U",
      "types": [
        "administrative_area_level_3",
        "political"
      ]
    },
    {
      "address_components": [
        {
          "long_name": "63834",
          "short_name": "63834",
          "types": [
            "postal_code"
          ]
        },
        {
          "long_name": "Charleston",
          "short_name": "Charleston",
          "types": [
            "locality",
            "political"
          ]
        },
        {
          "long_name": "Missouri",
          "short_name": "MO",
          "types": [
            "administrative_area_level_1",
            "political"
          ]
        },
        {
          "long_name": "United States",
          "short_name": "US",
          "types": [
            "country",
            "political"
          ]
        }
      ],
      "formatted_address": "Charleston, MO 63834, USA",
      "geometry": {
        "bounds": {
          "northeast": {
            "lat": 37.1551019,
            "lng": -89.098968
          },
          "southwest": {
            "lat": 36.751777,
            "lng": -89.466596
          }
        },
        "location": {
          "lat": 36.9089617,
          "lng": -89.28472510000002
        },
        "location_type": "APPROXIMATE",
        "viewport": {
          "northeast": {
            "lat": 37.1551019,
            "lng": -89.098968
          },
          "southwest": {
            "lat": 36.751777,
            "lng": -89.466596
          }
        }
      },
      "place_id": "ChIJ6QA1_Eq2eYgR2USANjnPKhs",
      "types": [
        "postal_code"
      ]
    },
    {
      "address_components": [
        {
          "long_name": "Mississippi County",
          "short_name": "Mississippi County",
          "types": [
            "administrative_area_level_2",
            "political"
          ]
        },
        {
          "long_name": "Missouri",
          "short_name": "MO",
          "types": [
            "administrative_area_level_1",
            "political"
          ]
        },
        {
          "long_name": "United States",
          "short_name": "US",
          "types": [
            "country",
            "political"
          ]
        }
      ],
      "formatted_address": "Mississippi County, MO, USA",
      "geometry": {
        "bounds": {
          "northeast": {
            "lat": 37.0720139,
            "lng": -89.09949399999999
          },
          "southwest": {
            "lat": 36.564032,
            "lng": -89.519932
          }
        },
        "location": {
          "lat": 36.8661576,
          "lng": -89.3226954
        },
        "location_type": "APPROXIMATE",
        "viewport": {
          "northeast": {
            "lat": 37.0720139,
            "lng": -89.09949399999999
          },
          "southwest": {
            "lat": 36.564032,
            "lng": -89.519932
          }
        }
      },
      "place_id": "ChIJA8yVBmmweYgRUuJG5q-bCZg",
      "types": [
        "administrative_area_level_2",
        "political"
      ]
    },
    {
      "address_components": [
        {
          "long_name": "Missouri",
          "short_name": "MO",
          "types": [
            "administrative_area_level_1",
            "political"
          ]
        },
        {
          "long_name": "United States",
          "short_name": "US",
          "types": [
            "country",
            "political"
          ]
        }
      ],
      "formatted_address": "Missouri, USA",
      "geometry": {
        "bounds": {
          "northeast": {
            "lat": 40.61364,
            "lng": -89.09949399999999
          },
          "southwest": {
            "lat": 35.9956829,
            "lng": -95.774704
          }
        },
        "location": {
          "lat": 37.9642529,
          "lng": -91.8318334
        },
        "location_type": "APPROXIMATE",
        "viewport": {
          "northeast": {
            "lat": 40.61364,
            "lng": -89.09949399999999
          },
          "southwest": {
            "lat": 35.9956829,
            "lng": -95.774704
          }
        }
      },
      "place_id": "ChIJfeMiSNXmwIcRcr1mBFnEW7U",
      "types": [
        "administrative_area_level_1",
        "political"
      ]
    },
    {
      "address_components": [
        {
          "long_name": "United States",
          "short_name": "US",
          "types": [
            "country",
            "political"
          ]
        }
      ],
      "formatted_address": "United States",
      "geometry": {
        "bounds": {
          "northeast": {
            "lat": 71.3867745,
            "lng": -66.9502861
          },
          "southwest": {
            "lat": 18.9106768,
            "lng": 172.4458955
          }
        },
        "location": {
          "lat": 37.09024,
          "lng": -95.712891
        },
        "location_type": "APPROXIMATE",
        "viewport": {
          "northeast": {
            "lat": 49.38,
            "lng": -66.94
          },
          "southwest": {
            "lat": 25.82,
            "lng": -124.39
          }
        }
      },
      "place_id": "ChIJCzYy5IS16lQRQrfeQ5K5Oxw",
      "types": [
        "country",
        "political"
      ]
    }
  ],
  "status": "OK"
}
