{
  "results": [
    {
      "address_components": [
        {
          "long_name": "1670",
          "short_name": "1670",
          "types": [
            "street_number"
          ]
        },
        {
          "long_name": "Wells Avenue",
          "short_name": "Wells Ave",
          "types": [
            "route"
          ]
        },
        {
          "long_name": "Southold",
          "short_name": "Southold",
          "types": [
            "locality",
            "political"
          ]
        },
        {
          "long_name": "Southold",
          "short_name": "Southold",
          "types": [
            "administrative_area_level_3",
            "political"
          ]
        },
        {
          "long_name": "Suffolk County",
          "short_name": "Suffolk County",
          "types": [
            "administrative_area_level_2",
            "political"
          ]
        },
        {
          "long_name": "New York",
          "short_name": "NY",
          "types": [
            "administrative_area_level_1",
            "political"
          ]
        },
        {
          "long_name": "United States",
          "short_name": "US",
          "types": [
            "country",
            "political"
          ]
        },
        {
          "long_name": "11971",
          "short_name": "11971",
          "types": [
            "postal_code"
          ]
        },
        {
          "long_name": "1761",
          "short_name": "1761",
          "types": [
            "postal_code_suffix"
          ]
        }
      ],
      "formatted_address": "1670 Wells Ave, Southold, NY 11971, USA",
      "geometry": {
        "location": {
          "lat": 41.060033,
          "lng": -72.42662399999999
        },
        "location_type": "ROOFTOP",
        "viewport": {
          "northeast": {
            "lat": 41.0613819802915,
            "lng": -72.4252750197085
          },
          "southwest": {
            "lat": 41.0586840197085,
            "lng": -72.4279729802915
          }
        }
      },
      "place_id": "ChIJFc3obyea6IkRzIbDPSB9bRo",
      "types": [
        "street_address"
      ]
    },
    {
      "address_components": [
        {
          "long_name": "Southold",
          "short_name": "Southold",
          "types": [
            "locality",
            "political"
          ]
        },
        {
          "long_name": "Southold",
          "short_name": "Southold",
          "types": [
            "administrative_area_level_3",
            "political"
          ]
        },
        {
          "long_name": "Suffolk County",
          "short_name": "Suffolk County",
          "types": [
            "administrative_area_level_2",
            "political"
          ]
        },
        {
          "long_name": "New York",
          "short_name": "NY",
          "types": [
            "administrative_area_level_1",
            "political"
          ]
        },
        {
          "long_name": "United States",
          "short_name": "US",
          "types": [
            "country",
            "political"
          ]
        }
      ],
      "formatted_address": "Southold, NY, USA",
      "geometry": {
        "bounds": {
          "northeast": {
            "lat": 41.0977424,
            "lng": -72.3833819
          },
          "southwest": {
            "lat": 41.0294381,
            "lng": -72.4745679
          }
        },
        "location": {
          "lat": 41.06482219999999,
          "lng": -72.42619619999999
        },
        "location_type": "APPROXIMATE",
        "viewport": {
          "northeast": {
            "lat": 41.0977424,
            "lng": -72.3833819
          },
          "southwest": {
            "lat": 41.0294381,
            "lng": -72.4745679
          }
        }
      },
      "place_id": "ChIJ3TAaTCOa6IkRlp9bmL_-5qQ",
      "types": [
        "locality",
        "political"
      ]
    },
    {
      "address_components": [
        {
          "long_name": "11971",
          "short_name": "11971",
          "types": [
            "postal_code"
          ]
        },
        {
          "long_name": "Southold",
          "short_name": "Southold",
          "types": [
            "locality",
            "political"
          ]
        },
        {
          "long_name": "Suffolk County",
          "short_name": "Suffolk County",
          "types": [
            "administrative_area_level_2",
            "political"
          ]
        },
        {
          "long_name": "New York",
          "short_name": "NY",
          "types": [
            "administrative_area_level_1",
            "political"
          ]
        },
        {
          "long_name": "United States",
          "short_name": "US",
          "types": [
            "country",
            "political"
          ]
        }
      ],
      "formatted_address": "Southold, NY 11971, USA",
      "geometry": {
        "bounds": {
          "northeast": {
            "lat": 41.105508,
            "lng": -72.3700388
          },
          "southwest": {
            "lat": 41.029382,
            "lng": -72.4833381
          }
        },
        "location": {
          "lat": 41.0648622,
          "lng": -72.4376499
        },
        "location_type": "APPROXIMATE",
        "viewport": {
          "northeast": {
            "lat": 41.105508,
            "lng": -72.3700388
          },
          "southwest": {
            "lat": 41.029382,
            "lng": -72.4833381
          }
        }
      },
      "place_id": "ChIJKS5TEyea6IkRMQIq82hsDGg",
      "types": [
        "postal_code"
      ]
    },
    {
      "address_components": [
        {
          "long_name": "Southold",
          "short_name": "Southold",
          "types": [
            "administrative_area_level_3",
            "political"
          ]
        },
        {
          "long_name": "Suffolk County",
          "short_name": "Suffolk County",
          "types": [
            "administrative_area_level_2",
            "political"
          ]
        },
        {
          "long_name": "New York",
          "short_name": "NY",
          "types": [
            "administrative_area_level_1",
            "political"
          ]
        },
        {
          "long_name": "United States",
          "short_name": "US",
          "types": [
            "country",
            "political"
          ]
        }
      ],
      "formatted_address": "Southold, NY, USA",
      "geometry": {
        "bounds": {
          "northeast": {
            "lat": 41.2923797,
            "lng": -71.9221507
          },
          "southwest": {
            "lat": 40.9521959,
            "lng": -72.5914717
          }
        },
        "location": {
          "lat": 41.0801973,
          "lng": -72.4731529
        },
        "location_type": "APPROXIMATE",
        "viewport": {
          "northeast": {
            "lat": 41.2071765,
            "lng": -72.1057369
          },
          "southwest": {
            "lat": 40.9521959,
            "lng": -72.5914717
          }
        }
      },
      "place_id": "ChIJ8YG9JySh6IkRW6lVj4g7NUw",
      "types": [
        "administrative_area_level_3",
        "political"
      ]
    },
    {
      "address_components": [
        {
          "long_name": "Suffolk County",
          "short_name": "Suffolk County",
          "types": [
            "administrative_area_level_2",
            "political"
          ]
        },
        {
          "long_name": "New York",
          "short_name": "NY",
          "types": [
            "administrative_area_level_1",
            "political"
          ]
        },
        {
          "long_name": "United States",
          "short_name": "US",
          "types": [
            "country",
            "political"
          ]
        }
      ],
      "formatted_address": "Suffolk County, NY, USA",
      "geometry": {
        "bounds": {
          "northeast": {
            "lat": 41.2923797,
            "lng": -71.8562082
          },
          "southwest": {
            "lat": 40.6094203,
            "lng": -73.497125
          }
        },
        "location": {
          "lat": 40.9848784,
          "lng": -72.61511689999999
        },
        "location_type": "APPROXIMATE",
        "viewport": {
          "northeast": {
            "lat": 41.2923194,
            "lng": -71.8562082
          },
          "southwest": {
            "lat": 40.6094203,
            "lng": -73.497125
          }
        }
      },
      "place_id": "ChIJ1_mbyICu4IkRU18dDUkMxJU",
      "types": [
        "administrative_area_level_2",
        "political"
      ]
    },
    {
      "address_components": [
        {
          "long_name": "New York",
          "short_name": "NY",
          "types": [
            "administrative_area_level_1",
            "political"
          ]
        },
        {
          "long_name": "United States",
          "short_name": "US",
          "types": [
            "country",
            "political"
          ]
        }
      ],
      "formatted_address": "New York, USA",
      "geometry": {
        "bounds": {
          "northeast": {
            "lat": 45.015865,
            "lng": -71.85620639999999
          },
          "southwest": {
            "lat": 40.496091,
            "lng": -79.76214379999999
          }
        },
        "location": {
          "lat": 43.2994285,
          "lng": -74.21793260000001
        },
        "location_type": "APPROXIMATE",
        "viewport": {
          "northeast": {
            "lat": 45.015859,
            "lng": -71.85620639999999
          },
          "southwest": {
            "lat": 40.496091,
            "lng": -79.76214379999999
          }
        }
      },
      "place_id": "ChIJqaUj8fBLzEwRZ5UY3sHGz90",
      "types": [
        "administrative_area_level_1",
        "political"
      ]
    },
    {
      "address_components": [
        {
          "long_name": "United States",
          "short_name": "US",
          "types": [
            "country",
            "political"
          ]
        }
      ],
      "formatted_address": "United States",
      "geometry": {
        "bounds": {
          "northeast": {
            "lat": 71.3867745,
            "lng": -66.9502861
          },
          "southwest": {
            "lat": 18.9106768,
            "lng": 172.4458955
          }
        },
        "location": {
          "lat": 37.09024,
          "lng": -95.712891
        },
        "location_type": "APPROXIMATE",
        "viewport": {
          "northeast": {
            "lat": 49.38,
            "lng": -66.94
          },
          "southwest": {
            "lat": 25.82,
            "lng": -124.39
          }
        }
      },
      "place_id": "ChIJCzYy5IS16lQRQrfeQ5K5Oxw",
      "types": [
        "country",
        "political"
      ]
    }
  ],
  "status": "OK"
}
