{
  "results": [
    {
      "address_components": [
        {
          "long_name": "201",
          "short_name": "201",
          "types": [
            "street_number"
          ]
        },
        {
          "long_name": "Madrid Street",
          "short_name": "Madrid St",
          "types": [
            "route"
          ]
        },
        {
          "long_name": "Elsie",
          "short_name": "Elsie",
          "types": [
            "locality",
            "political"
          ]
        },
        {
          "long_name": "Elsie",
          "short_name": "Elsie",
          "types": [
            "administrative_area_level_3",
            "political"
          ]
        },
        {
          "long_name": "Perkins County",
          "short_name": "Perkins County",
          "types": [
            "administrative_area_level_2",
            "political"
          ]
        },
        {
          "long_name": "Nebraska",
          "short_name": "NE",
          "types": [
            "administrative_area_level_1",
            "political"
          ]
        },
        {
          "long_name": "United States",
          "short_name": "US",
          "types": [
            "country",
            "political"
          ]
        },
        {
          "long_name": "69134",
          "short_name": "69134",
          "types": [
            "postal_code"
          ]
        }
      ],
      "formatted_address": "201 Madrid St, Elsie, NE 69134, USA",
      "geometry": {
        "location": {
          "lat": 40.847241,
          "lng": -101.3904656
        },
        "location_type": "ROOFTOP",
        "viewport": {
          "northeast": {
            "lat": 40.84858998029149,
            "lng": -101.3891166197085
          },
          "southwest": {
            "lat": 40.8458920197085,
            "lng": -101.3918145802915
          }
        }
      },
      "place_id": "ChIJiWKfb02GdocR-bLxOcKxeTk",
      "types": [
        "street_address"
      ]
    },
    {
      "address_components": [
        {
          "long_name": "Elsie",
          "short_name": "Elsie",
          "types": [
            "locality",
            "political"
          ]
        },
        {
          "long_name": "Elsie",
          "short_name": "Elsie",
          "types": [
            "administrative_area_level_3",
            "political"
          ]
        },
        {
          "long_name": "Perkins County",
          "short_name": "Perkins County",
          "types": [
            "administrative_area_level_2",
            "political"
          ]
        },
        {
          "long_name": "Nebraska",
          "short_name": "NE",
          "types": [
            "administrative_area_level_1",
            "political"
          ]
        },
        {
          "long_name": "United States",
          "short_name": "US",
          "types": [
            "country",
            "political"
          ]
        },
        {
          "long_name": "69134",
          "short_name": "69134",
          "types": [
            "postal_code"
          ]
        }
      ],
      "formatted_address": "Elsie, NE 69134, USA",
      "geometry": {
        "bounds": {
          "northeast": {
            "lat": 40.8504409,
            "lng": -101.383583
          },
          "southwest": {
            "lat": 40.84271589999999,
            "lng": -101.3943351
          }
        },
        "location": {
          "lat": 40.8475929,
          "lng": -101.3896601
        },
        "location_type": "APPROXIMATE",
        "viewport": {
          "northeast": {
            "lat": 40.8504409,
            "lng": -101.383583
          },
          "southwest": {
            "lat": 40.84271589999999,
            "lng": -101.3943351
          }
        }
      },
      "place_id": "ChIJY35y402GdocRUCfnCPGG8h4",
      "types": [
        "locality",
        "political"
      ]
    },
    {
      "address_components": [
        {
          "long_name": "69134",
          "short_name": "69134",
          "types": [
            "postal_code"
          ]
        },
        {
          "long_name": "Elsie",
          "short_name": "Elsie",
          "types": [
            "locality",
            "political"
          ]
        },
        {
          "long_name": "Nebraska",
          "short_name": "NE",
          "types": [
            "administrative_area_level_1",
            "political"
          ]
        },
        {
          "long_name": "United States",
          "short_name": "US",
          "types": [
            "country",
            "political"
          ]
        }
      ],
      "formatted_address": "Elsie, NE 69134, USA",
      "geometry": {
        "bounds": {
          "northeast": {
            "lat": 41.003175,
            "lng": -101.200165
          },
          "southwest": {
            "lat": 40.610447,
            "lng": -101.498639
          }
        },
        "location": {
          "lat": 40.8367451,
          "lng": -101.3885001
        },
        "location_type": "APPROXIMATE",
        "viewport": {
          "northeast": {
            "lat": 41.003175,
            "lng": -101.200165
          },
          "southwest": {
            "lat": 40.610447,
            "lng": -101.498639
          }
        }
      },
      "place_id": "ChIJ76ejHw99docRRaYn6_Sxw8E",
      "types": [
        "postal_code"
      ]
    },
    {
      "address_components": [
        {
          "long_name": "Elsie",
          "short_name": "Elsie",
          "types": [
            "administrative_area_level_3",
            "political"
          ]
        },
        {
          "long_name": "Perkins County",
          "short_name": "Perkins County",
          "types": [
            "administrative_area_level_2",
            "political"
          ]
        },
        {
          "long_name": "Nebraska",
          "short_name": "NE",
          "types": [
            "administrative_area_level_1",
            "political"
          ]
        },
        {
          "long_name": "United States",
          "short_name": "US",
          "types": [
            "country",
            "political"
          ]
        }
      ],
      "formatted_address": "Elsie, NE, USA",
      "geometry": {
        "bounds": {
          "northeast": {
            "lat": 41.004005,
            "lng": -101.24656
          },
          "southwest": {
            "lat": 40.69765779999999,
            "lng": -101.4789529
          }
        },
        "location": {
          "lat": 40.8367451,
          "lng": -101.3885001
        },
        "location_type": "APPROXIMATE",
        "viewport": {
          "northeast": {
            "lat": 41.004005,
            "lng": -101.24656
          },
          "southwest": {
            "lat": 40.69765779999999,
            "lng": -101.4789529
          }
        }
      },
      "place_id": "ChIJg_gI8o-HdocRcZTriVHu474",
      "types": [
        "administrative_area_level_3",
        "political"
      ]
    },
    {
      "address_components": [
        {
          "long_name": "Perkins County",
          "short_name": "Perkins County",
          "types": [
            "administrative_area_level_2",
            "political"
          ]
        },
        {
          "long_name": "Nebraska",
          "short_name": "NE",
          "types": [
            "administrative_area_level_1",
            "political"
          ]
        },
        {
          "long_name": "United States",
          "short_name": "US",
          "types": [
            "country",
            "political"
          ]
        }
      ],
      "formatted_address": "Perkins County, NE, USA",
      "geometry": {
        "bounds": {
          "northeast": {
            "lat": 41.004005,
            "lng": -101.24656
          },
          "southwest": {
            "lat": 40.697539,
            "lng": -102.051761
          }
        },
        "location": {
          "lat": 40.7922353,
          "lng": -101.4339148
        },
        "location_type": "APPROXIMATE",
        "viewport": {
          "northeast": {
            "lat": 41.004005,
            "lng": -101.24656
          },
          "southwest": {
            "lat": 40.697539,
            "lng": -102.051761
          }
        }
      },
      "place_id": "ChIJt_RAHZyWdocR21SQAsm4p5k",
      "types": [
        "administrative_area_level_2",
        "political"
      ]
    },
    {
      "address_components": [
        {
          "long_name": "Nebraska",
          "short_name": "NE",
          "types": [
            "administrative_area_level_1",
            "political"
          ]
        },
        {
          "long_name": "United States",
          "short_name": "US",
          "types": [
            "country",
            "political"
          ]
        }
      ],
      "formatted_address": "Nebraska, USA",
      "geometry": {
        "bounds": {
          "northeast": {
            "lat": 43.00170689999999,
            "lng": -95.30829000000001
          },
          "southwest": {
            "lat": 39.999932,
            "lng": -104.053514
          }
        },
        "location": {
          "lat": 41.4925374,
          "lng": -99.9018131
        },
        "location_type": "APPROXIMATE",
        "viewport": {
          "northeast": {
            "lat": 43.00170689999999,
            "lng": -95.30829000000001
          },
          "southwest": {
            "lat": 39.999932,
            "lng": -104.053514
          }
        }
      },
      "place_id": "ChIJ7fwMtciNk4cRxArzDwyQJ6E",
      "types": [
        "administrative_area_level_1",
        "political"
      ]
    },
    {
      "address_components": [
        {
          "long_name": "United States",
          "short_name": "US",
          "types": [
            "country",
            "political"
          ]
        }
      ],
      "formatted_address": "United States",
      "geometry": {
        "bounds": {
          "northeast": {
            "lat": 71.3867745,
            "lng": -66.9502861
          },
          "southwest": {
            "lat": 18.9106768,
            "lng": 172.4458955
          }
        },
        "location": {
          "lat": 37.09024,
          "lng": -95.712891
        },
        "location_type": "APPROXIMATE",
        "viewport": {
          "northeast": {
            "lat": 49.38,
            "lng": -66.94
          },
          "southwest": {
            "lat": 25.82,
            "lng": -124.39
          }
        }
      },
      "place_id": "ChIJCzYy5IS16lQRQrfeQ5K5Oxw",
      "types": [
        "country",
        "political"
      ]
    }
  ],
  "status": "OK"
}
