{
  "results": [
    {
      "address_components": [
        {
          "long_name": "Vo-Tech Road",
          "short_name": "Vo-Tech Rd",
          "types": [
            "route"
          ]
        },
        {
          "long_name": "Louisburg",
          "short_name": "Louisburg",
          "types": [
            "locality",
            "political"
          ]
        },
        {
          "long_name": "Grant Township",
          "short_name": "Grant Township",
          "types": [
            "administrative_area_level_3",
            "political"
          ]
        },
        {
          "long_name": "Dallas County",
          "short_name": "Dallas County",
          "types": [
            "administrative_area_level_2",
            "political"
          ]
        },
        {
          "long_name": "Missouri",
          "short_name": "MO",
          "types": [
            "administrative_area_level_1",
            "political"
          ]
        },
        {
          "long_name": "United States",
          "short_name": "US",
          "types": [
            "country",
            "political"
          ]
        },
        {
          "long_name": "65685",
          "short_name": "65685",
          "types": [
            "postal_code"
          ]
        }
      ],
      "formatted_address": "Vo-Tech Rd, Louisburg, MO 65685, USA",
      "geometry": {
        "bounds": {
          "northeast": {
            "lat": 37.7574687,
            "lng": -93.14074719999999
          },
          "southwest": {
            "lat": 37.7558567,
            "lng": -93.14083149999999
          }
        },
        "location": {
          "lat": 37.7566631,
          "lng": -93.1408024
        },
        "location_type": "GEOMETRIC_CENTER",
        "viewport": {
          "northeast": {
            "lat": 37.7580116802915,
            "lng": -93.13944036970848
          },
          "southwest": {
            "lat": 37.7553137197085,
            "lng": -93.1421383302915
          }
        }
      },
      "place_id": "ChIJq3lYhi2mxYcRkthuDVYkYAI",
      "types": [
        "route"
      ]
    },
    {
      "address_components": [
        {
          "long_name": "Louisburg",
          "short_name": "Louisburg",
          "types": [
            "locality",
            "political"
          ]
        },
        {
          "long_name": "Grant Township",
          "short_name": "Grant Township",
          "types": [
            "administrative_area_level_3",
            "political"
          ]
        },
        {
          "long_name": "Dallas County",
          "short_name": "Dallas County",
          "types": [
            "administrative_area_level_2",
            "political"
          ]
        },
        {
          "long_name": "Missouri",
          "short_name": "MO",
          "types": [
            "administrative_area_level_1",
            "political"
          ]
        },
        {
          "long_name": "United States",
          "short_name": "US",
          "types": [
            "country",
            "political"
          ]
        },
        {
          "long_name": "65685",
          "short_name": "65685",
          "types": [
            "postal_code"
          ]
        }
      ],
      "formatted_address": "Louisburg, MO 65685, USA",
      "geometry": {
        "bounds": {
          "northeast": {
            "lat": 37.761326,
            "lng": -93.1318129
          },
          "southwest": {
            "lat": 37.7529369,
            "lng": -93.15084689999999
          }
        },
        "location": {
          "lat": 37.7578154,
          "lng": -93.139357
        },
        "location_type": "APPROXIMATE",
        "viewport": {
          "northeast": {
            "lat": 37.761326,
            "lng": -93.1318129
          },
          "southwest": {
            "lat": 37.7529369,
            "lng": -93.15084689999999
          }
        }
      },
      "place_id": "ChIJ-RTljS2mxYcR6aAYyP4u1pA",
      "types": [
        "locality",
        "political"
      ]
    },
    {
      "address_components": [
        {
          "long_name": "65685",
          "short_name": "65685",
          "types": [
            "postal_code"
          ]
        },
        {
          "long_name": "Louisburg",
          "short_name": "Louisburg",
          "types": [
            "locality",
            "political"
          ]
        },
        {
          "long_name": "Missouri",
          "short_name": "MO",
          "types": [
            "administrative_area_level_1",
            "political"
          ]
        },
        {
          "long_name": "United States",
          "short_name": "US",
          "types": [
            "country",
            "political"
          ]
        }
      ],
      "formatted_address": "Louisburg, MO 65685, USA",
      "geometry": {
        "bounds": {
          "northeast": {
            "lat": 37.8166048,
            "lng": -93.061352
          },
          "southwest": {
            "lat": 37.6966199,
            "lng": -93.23049689999999
          }
        },
        "location": {
          "lat": 37.7453749,
          "lng": -93.1578875
        },
        "location_type": "APPROXIMATE",
        "viewport": {
          "northeast": {
            "lat": 37.8166048,
            "lng": -93.061352
          },
          "southwest": {
            "lat": 37.6966199,
            "lng": -93.23049689999999
          }
        }
      },
      "place_id": "ChIJyTGpPhimxYcRE8ikJRLtSRE",
      "types": [
        "postal_code"
      ]
    },
    {
      "address_components": [
        {
          "long_name": "Grant Township",
          "short_name": "Grant Township",
          "types": [
            "administrative_area_level_3",
            "political"
          ]
        },
        {
          "long_name": "Dallas County",
          "short_name": "Dallas County",
          "types": [
            "administrative_area_level_2",
            "political"
          ]
        },
        {
          "long_name": "Missouri",
          "short_name": "MO",
          "types": [
            "administrative_area_level_1",
            "political"
          ]
        },
        {
          "long_name": "United States",
          "short_name": "US",
          "types": [
            "country",
            "political"
          ]
        }
      ],
      "formatted_address": "Grant Township, MO, USA",
      "geometry": {
        "bounds": {
          "northeast": {
            "lat": 37.817272,
            "lng": -93.022218
          },
          "southwest": {
            "lat": 37.725278,
            "lng": -93.1913799
          }
        },
        "location": {
          "lat": 37.7888989,
          "lng": -93.1177555
        },
        "location_type": "APPROXIMATE",
        "viewport": {
          "northeast": {
            "lat": 37.817272,
            "lng": -93.022218
          },
          "southwest": {
            "lat": 37.725278,
            "lng": -93.1913799
          }
        }
      },
      "place_id": "ChIJO_j9EfgHxYcRDwksIs1FqWI",
      "types": [
        "administrative_area_level_3",
        "political"
      ]
    },
    {
      "address_components": [
        {
          "long_name": "Dallas County",
          "short_name": "Dallas County",
          "types": [
            "administrative_area_level_2",
            "political"
          ]
        },
        {
          "long_name": "Missouri",
          "short_name": "MO",
          "types": [
            "administrative_area_level_1",
            "political"
          ]
        },
        {
          "long_name": "United States",
          "short_name": "US",
          "types": [
            "country",
            "political"
          ]
        }
      ],
      "formatted_address": "Dallas County, MO, USA",
      "geometry": {
        "bounds": {
          "northeast": {
            "lat": 37.9042321,
            "lng": -92.8462809
          },
          "southwest": {
            "lat": 37.4148479,
            "lng": -93.1913799
          }
        },
        "location": {
          "lat": 37.6853001,
          "lng": -93.0175712
        },
        "location_type": "APPROXIMATE",
        "viewport": {
          "northeast": {
            "lat": 37.9042321,
            "lng": -92.8462809
          },
          "southwest": {
            "lat": 37.4148479,
            "lng": -93.1913799
          }
        }
      },
      "place_id": "ChIJnwMsTfMLxYcR5drL3Ztt7qA",
      "types": [
        "administrative_area_level_2",
        "political"
      ]
    },
    {
      "address_components": [
        {
          "long_name": "Springfield",
          "short_name": "Springfield",
          "types": [
            "political"
          ]
        },
        {
          "long_name": "Missouri",
          "short_name": "MO",
          "types": [
            "administrative_area_level_1",
            "political"
          ]
        },
        {
          "long_name": "United States",
          "short_name": "US",
          "types": [
            "country",
            "political"
          ]
        }
      ],
      "formatted_address": "Springfield, MO, USA",
      "geometry": {
        "bounds": {
          "northeast": {
            "lat": 37.904331,
            "lng": -92.67896999999999
          },
          "southwest": {
            "lat": 36.8092689,
            "lng": -93.632442
          }
        },
        "location": {
          "lat": 37.4233917,
          "lng": -93.2583626
        },
        "location_type": "APPROXIMATE",
        "viewport": {
          "northeast": {
            "lat": 37.904331,
            "lng": -92.67896999999999
          },
          "southwest": {
            "lat": 36.8092689,
            "lng": -93.632442
          }
        }
      },
      "place_id": "ChIJfYYZRvWDxYcRH5IUa2Gi5hM",
      "types": [
        "political"
      ]
    },
    {
      "address_components": [
        {
          "long_name": "Missouri",
          "short_name": "MO",
          "types": [
            "administrative_area_level_1",
            "political"
          ]
        },
        {
          "long_name": "United States",
          "short_name": "US",
          "types": [
            "country",
            "political"
          ]
        }
      ],
      "formatted_address": "Missouri, USA",
      "geometry": {
        "bounds": {
          "northeast": {
            "lat": 40.61364,
            "lng": -89.09949399999999
          },
          "southwest": {
            "lat": 35.9956829,
            "lng": -95.774704
          }
        },
        "location": {
          "lat": 37.9642529,
          "lng": -91.8318334
        },
        "location_type": "APPROXIMATE",
        "viewport": {
          "northeast": {
            "lat": 40.61364,
            "lng": -89.09949399999999
          },
          "southwest": {
            "lat": 35.9956829,
            "lng": -95.774704
          }
        }
      },
      "place_id": "ChIJfeMiSNXmwIcRcr1mBFnEW7U",
      "types": [
        "administrative_area_level_1",
        "political"
      ]
    },
    {
      "address_components": [
        {
          "long_name": "United States",
          "short_name": "US",
          "types": [
            "country",
            "political"
          ]
        }
      ],
      "formatted_address": "United States",
      "geometry": {
        "bounds": {
          "northeast": {
            "lat": 71.3867745,
            "lng": -66.9502861
          },
          "southwest": {
            "lat": 18.9106768,
            "lng": 172.4458955
          }
        },
        "location": {
          "lat": 37.09024,
          "lng": -95.712891
        },
        "location_type": "APPROXIMATE",
        "viewport": {
          "northeast": {
            "lat": 49.38,
            "lng": -66.94
          },
          "southwest": {
            "lat": 25.82,
            "lng": -124.39
          }
        }
      },
      "place_id": "ChIJCzYy5IS16lQRQrfeQ5K5Oxw",
      "types": [
        "country",
        "political"
      ]
    }
  ],
  "status": "OK"
}
