{
  "results": [
    {
      "address_components": [
        {
          "long_name": "15",
          "short_name": "15",
          "types": [
            "street_number"
          ]
        },
        {
          "long_name": "School Street",
          "short_name": "School St",
          "types": [
            "route"
          ]
        },
        {
          "long_name": "West Burke",
          "short_name": "West Burke",
          "types": [
            "neighborhood",
            "political"
          ]
        },
        {
          "long_name": "Burke",
          "short_name": "Burke",
          "types": [
            "locality",
            "political"
          ]
        },
        {
          "long_name": "Caledonia County",
          "short_name": "Caledonia County",
          "types": [
            "administrative_area_level_2",
            "political"
          ]
        },
        {
          "long_name": "Vermont",
          "short_name": "VT",
          "types": [
            "administrative_area_level_1",
            "political"
          ]
        },
        {
          "long_name": "United States",
          "short_name": "US",
          "types": [
            "country",
            "political"
          ]
        },
        {
          "long_name": "05871",
          "short_name": "05871",
          "types": [
            "postal_code"
          ]
        },
        {
          "long_name": "8908",
          "short_name": "8908",
          "types": [
            "postal_code_suffix"
          ]
        }
      ],
      "formatted_address": "15 School St, West Burke, VT 05871, USA",
      "geometry": {
        "location": {
          "lat": 44.642839,
          "lng": -71.978785
        },
        "location_type": "ROOFTOP",
        "viewport": {
          "northeast": {
            "lat": 44.64418798029149,
            "lng": -71.9774360197085
          },
          "southwest": {
            "lat": 44.6414900197085,
            "lng": -71.98013398029151
          }
        }
      },
      "place_id": "ChIJRUf88nAutEwRVpAVenWd0iM",
      "types": [
        "street_address"
      ]
    },
    {
      "address_components": [
        {
          "long_name": "West Burke",
          "short_name": "West Burke",
          "types": [
            "neighborhood",
            "political"
          ]
        },
        {
          "long_name": "Burke",
          "short_name": "Burke",
          "types": [
            "locality",
            "political"
          ]
        },
        {
          "long_name": "Caledonia County",
          "short_name": "Caledonia County",
          "types": [
            "administrative_area_level_2",
            "political"
          ]
        },
        {
          "long_name": "Vermont",
          "short_name": "VT",
          "types": [
            "administrative_area_level_1",
            "political"
          ]
        },
        {
          "long_name": "United States",
          "short_name": "US",
          "types": [
            "country",
            "political"
          ]
        }
      ],
      "formatted_address": "West Burke, Burke, VT, USA",
      "geometry": {
        "bounds": {
          "northeast": {
            "lat": 44.655235,
            "lng": -71.972168
          },
          "southwest": {
            "lat": 44.634758,
            "lng": -71.9853141
          }
        },
        "location": {
          "lat": 44.64144170000001,
          "lng": -71.978707
        },
        "location_type": "APPROXIMATE",
        "viewport": {
          "northeast": {
            "lat": 44.655235,
            "lng": -71.972168
          },
          "southwest": {
            "lat": 44.634758,
            "lng": -71.9853141
          }
        }
      },
      "place_id": "ChIJrSHcsXAutEwRv15LwyY6sOY",
      "types": [
        "neighborhood",
        "political"
      ]
    },
    {
      "address_components": [
        {
          "long_name": "Burke",
          "short_name": "Burke",
          "types": [
            "locality",
            "political"
          ]
        },
        {
          "long_name": "Caledonia County",
          "short_name": "Caledonia County",
          "types": [
            "administrative_area_level_2",
            "political"
          ]
        },
        {
          "long_name": "Vermont",
          "short_name": "VT",
          "types": [
            "administrative_area_level_1",
            "political"
          ]
        },
        {
          "long_name": "United States",
          "short_name": "US",
          "types": [
            "country",
            "political"
          ]
        }
      ],
      "formatted_address": "Burke, VT, USA",
      "geometry": {
        "bounds": {
          "northeast": {
            "lat": 44.67875,
            "lng": -71.842732
          },
          "southwest": {
            "lat": 44.557857,
            "lng": -72.0006722
          }
        },
        "location": {
          "lat": 44.618233,
          "lng": -71.9368346
        },
        "location_type": "APPROXIMATE",
        "viewport": {
          "northeast": {
            "lat": 44.67875,
            "lng": -71.842732
          },
          "southwest": {
            "lat": 44.557857,
            "lng": -72.0006722
          }
        }
      },
      "place_id": "ChIJaTIXNOIvtEwRu3DCxLNW2R8",
      "types": [
        "locality",
        "political"
      ]
    },
    {
      "address_components": [
        {
          "long_name": "05871",
          "short_name": "05871",
          "types": [
            "postal_code"
          ]
        },
        {
          "long_name": "West Burke",
          "short_name": "West Burke",
          "types": [
            "neighborhood",
            "political"
          ]
        },
        {
          "long_name": "Vermont",
          "short_name": "VT",
          "types": [
            "administrative_area_level_1",
            "political"
          ]
        },
        {
          "long_name": "United States",
          "short_name": "US",
          "types": [
            "country",
            "political"
          ]
        }
      ],
      "formatted_address": "West Burke, VT 05871, USA",
      "geometry": {
        "bounds": {
          "northeast": {
            "lat": 44.7657039,
            "lng": -71.8629239
          },
          "southwest": {
            "lat": 44.5869188,
            "lng": -72.01332099999999
          }
        },
        "location": {
          "lat": 44.6673605,
          "lng": -71.9452905
        },
        "location_type": "APPROXIMATE",
        "viewport": {
          "northeast": {
            "lat": 44.7657039,
            "lng": -71.8629239
          },
          "southwest": {
            "lat": 44.5869188,
            "lng": -72.01332099999999
          }
        }
      },
      "place_id": "ChIJK1AtDksptEwRZ0wSBE0nbkA",
      "types": [
        "postal_code"
      ]
    },
    {
      "address_components": [
        {
          "long_name": "Caledonia County",
          "short_name": "Caledonia County",
          "types": [
            "administrative_area_level_2",
            "political"
          ]
        },
        {
          "long_name": "Vermont",
          "short_name": "VT",
          "types": [
            "administrative_area_level_1",
            "political"
          ]
        },
        {
          "long_name": "United States",
          "short_name": "US",
          "types": [
            "country",
            "political"
          ]
        }
      ],
      "formatted_address": "Caledonia County, VT, USA",
      "geometry": {
        "bounds": {
          "northeast": {
            "lat": 44.76903189999999,
            "lng": -71.837294
          },
          "southwest": {
            "lat": 44.1554189,
            "lng": -72.43431489999999
          }
        },
        "location": {
          "lat": 44.55051,
          "lng": -72.04819069999999
        },
        "location_type": "APPROXIMATE",
        "viewport": {
          "northeast": {
            "lat": 44.76903189999999,
            "lng": -71.837294
          },
          "southwest": {
            "lat": 44.1554189,
            "lng": -72.43431489999999
          }
        }
      },
      "place_id": "ChIJI7HSVUZKtEwRgpS9-vOmbhI",
      "types": [
        "administrative_area_level_2",
        "political"
      ]
    },
    {
      "address_components": [
        {
          "long_name": "Vermont",
          "short_name": "VT",
          "types": [
            "administrative_area_level_1",
            "political"
          ]
        },
        {
          "long_name": "United States",
          "short_name": "US",
          "types": [
            "country",
            "political"
          ]
        }
      ],
      "formatted_address": "Vermont, USA",
      "geometry": {
        "bounds": {
          "northeast": {
            "lat": 45.0166591,
            "lng": -71.46503899999999
          },
          "southwest": {
            "lat": 42.7268499,
            "lng": -73.43055980000001
          }
        },
        "location": {
          "lat": 44.5588028,
          "lng": -72.57784149999999
        },
        "location_type": "APPROXIMATE",
        "viewport": {
          "northeast": {
            "lat": 45.0166591,
            "lng": -71.46503899999999
          },
          "southwest": {
            "lat": 42.7268499,
            "lng": -73.43055980000001
          }
        }
      },
      "place_id": "ChIJ_87aSGzctEwRtGtUNnSJTSY",
      "types": [
        "administrative_area_level_1",
        "political"
      ]
    },
    {
      "address_components": [
        {
          "long_name": "United States",
          "short_name": "US",
          "types": [
            "country",
            "political"
          ]
        }
      ],
      "formatted_address": "United States",
      "geometry": {
        "bounds": {
          "northeast": {
            "lat": 71.3867745,
            "lng": -66.9502861
          },
          "southwest": {
            "lat": 18.9106768,
            "lng": 172.4458955
          }
        },
        "location": {
          "lat": 37.09024,
          "lng": -95.712891
        },
        "location_type": "APPROXIMATE",
        "viewport": {
          "northeast": {
            "lat": 49.38,
            "lng": -66.94
          },
          "southwest": {
            "lat": 25.82,
            "lng": -124.39
          }
        }
      },
      "place_id": "ChIJCzYy5IS16lQRQrfeQ5K5Oxw",
      "types": [
        "country",
        "political"
      ]
    }
  ],
  "status": "OK"
}
