{
  "results": [
    {
      "address_components": [
        {
          "long_name": "106",
          "short_name": "106",
          "types": [
            "street_number"
          ]
        },
        {
          "long_name": "West Elm Street",
          "short_name": "W Elm St",
          "types": [
            "route"
          ]
        },
        {
          "long_name": "Gaston",
          "short_name": "Gaston",
          "types": [
            "locality",
            "political"
          ]
        },
        {
          "long_name": "Washington Township",
          "short_name": "Washington Township",
          "types": [
            "administrative_area_level_3",
            "political"
          ]
        },
        {
          "long_name": "Delaware County",
          "short_name": "Delaware County",
          "types": [
            "administrative_area_level_2",
            "political"
          ]
        },
        {
          "long_name": "Indiana",
          "short_name": "IN",
          "types": [
            "administrative_area_level_1",
            "political"
          ]
        },
        {
          "long_name": "United States",
          "short_name": "US",
          "types": [
            "country",
            "political"
          ]
        },
        {
          "long_name": "47342",
          "short_name": "47342",
          "types": [
            "postal_code"
          ]
        }
      ],
      "formatted_address": "106 W Elm St, Gaston, IN 47342, USA",
      "geometry": {
        "location": {
          "lat": 40.313925,
          "lng": -85.501119
        },
        "location_type": "ROOFTOP",
        "viewport": {
          "northeast": {
            "lat": 40.31527398029149,
            "lng": -85.4997700197085
          },
          "southwest": {
            "lat": 40.3125760197085,
            "lng": -85.50246798029151
          }
        }
      },
      "place_id": "ChIJ0VSgcegbFYgR1z2vQGVfWOg",
      "types": [
        "street_address"
      ]
    },
    {
      "address_components": [
        {
          "long_name": "Gaston",
          "short_name": "Gaston",
          "types": [
            "locality",
            "political"
          ]
        },
        {
          "long_name": "Washington Township",
          "short_name": "Washington Township",
          "types": [
            "administrative_area_level_3",
            "political"
          ]
        },
        {
          "long_name": "Delaware County",
          "short_name": "Delaware County",
          "types": [
            "administrative_area_level_2",
            "political"
          ]
        },
        {
          "long_name": "Indiana",
          "short_name": "IN",
          "types": [
            "administrative_area_level_1",
            "political"
          ]
        },
        {
          "long_name": "United States",
          "short_name": "US",
          "types": [
            "country",
            "political"
          ]
        },
        {
          "long_name": "47342",
          "short_name": "47342",
          "types": [
            "postal_code"
          ]
        }
      ],
      "formatted_address": "Gaston, IN 47342, USA",
      "geometry": {
        "bounds": {
          "northeast": {
            "lat": 40.3190969,
            "lng": -85.4936689
          },
          "southwest": {
            "lat": 40.3064099,
            "lng": -85.5087349
          }
        },
        "location": {
          "lat": 40.3139311,
          "lng": -85.5005278
        },
        "location_type": "APPROXIMATE",
        "viewport": {
          "northeast": {
            "lat": 40.3190969,
            "lng": -85.4936689
          },
          "southwest": {
            "lat": 40.3064099,
            "lng": -85.5087349
          }
        }
      },
      "place_id": "ChIJN6Jv2-cbFYgROmh2xm4dELw",
      "types": [
        "locality",
        "political"
      ]
    },
    {
      "address_components": [
        {
          "long_name": "Washington Township",
          "short_name": "Washington Township",
          "types": [
            "administrative_area_level_3",
            "political"
          ]
        },
        {
          "long_name": "Delaware County",
          "short_name": "Delaware County",
          "types": [
            "administrative_area_level_2",
            "political"
          ]
        },
        {
          "long_name": "Indiana",
          "short_name": "IN",
          "types": [
            "administrative_area_level_1",
            "political"
          ]
        },
        {
          "long_name": "United States",
          "short_name": "US",
          "types": [
            "country",
            "political"
          ]
        }
      ],
      "formatted_address": "Washington Township, IN, USA",
      "geometry": {
        "bounds": {
          "northeast": {
            "lat": 40.379524,
            "lng": -85.443479
          },
          "southwest": {
            "lat": 40.3062619,
            "lng": -85.578919
          }
        },
        "location": {
          "lat": 40.3341463,
          "lng": -85.50972259999999
        },
        "location_type": "APPROXIMATE",
        "viewport": {
          "northeast": {
            "lat": 40.379524,
            "lng": -85.443479
          },
          "southwest": {
            "lat": 40.3062619,
            "lng": -85.578919
          }
        }
      },
      "place_id": "ChIJjS5g34QbFYgRGhRaNjgeD9U",
      "types": [
        "administrative_area_level_3",
        "political"
      ]
    },
    {
      "address_components": [
        {
          "long_name": "47342",
          "short_name": "47342",
          "types": [
            "postal_code"
          ]
        },
        {
          "long_name": "Gaston",
          "short_name": "Gaston",
          "types": [
            "locality",
            "political"
          ]
        },
        {
          "long_name": "Indiana",
          "short_name": "IN",
          "types": [
            "administrative_area_level_1",
            "political"
          ]
        },
        {
          "long_name": "United States",
          "short_name": "US",
          "types": [
            "country",
            "political"
          ]
        }
      ],
      "formatted_address": "Gaston, IN 47342, USA",
      "geometry": {
        "bounds": {
          "northeast": {
            "lat": 40.389859,
            "lng": -85.4242409
          },
          "southwest": {
            "lat": 40.237829,
            "lng": -85.58837700000001
          }
        },
        "location": {
          "lat": 40.32356,
          "lng": -85.49941919999999
        },
        "location_type": "APPROXIMATE",
        "viewport": {
          "northeast": {
            "lat": 40.389859,
            "lng": -85.4242409
          },
          "southwest": {
            "lat": 40.237829,
            "lng": -85.58837700000001
          }
        }
      },
      "place_id": "ChIJT9lZQPAbFYgRoKBfOjtkzZ0",
      "types": [
        "postal_code"
      ]
    },
    {
      "address_components": [
        {
          "long_name": "Muncie",
          "short_name": "Muncie",
          "types": [
            "political"
          ]
        },
        {
          "long_name": "Indiana",
          "short_name": "IN",
          "types": [
            "administrative_area_level_1",
            "political"
          ]
        },
        {
          "long_name": "United States",
          "short_name": "US",
          "types": [
            "country",
            "political"
          ]
        }
      ],
      "formatted_address": "Muncie, IN, USA",
      "geometry": {
        "bounds": {
          "northeast": {
            "lat": 40.3795119,
            "lng": -85.2143871
          },
          "southwest": {
            "lat": 40.076445,
            "lng": -85.57898399999999
          }
        },
        "location": {
          "lat": 40.2583533,
          "lng": -85.39627689999999
        },
        "location_type": "APPROXIMATE",
        "viewport": {
          "northeast": {
            "lat": 40.3795119,
            "lng": -85.2143871
          },
          "southwest": {
            "lat": 40.076445,
            "lng": -85.57898399999999
          }
        }
      },
      "place_id": "ChIJvVQHptIXFYgRS4Up14fVpRU",
      "types": [
        "political"
      ]
    },
    {
      "address_components": [
        {
          "long_name": "Delaware County",
          "short_name": "Delaware County",
          "types": [
            "administrative_area_level_2",
            "political"
          ]
        },
        {
          "long_name": "Indiana",
          "short_name": "IN",
          "types": [
            "administrative_area_level_1",
            "political"
          ]
        },
        {
          "long_name": "United States",
          "short_name": "US",
          "types": [
            "country",
            "political"
          ]
        }
      ],
      "formatted_address": "Delaware County, IN, USA",
      "geometry": {
        "bounds": {
          "northeast": {
            "lat": 40.379524,
            "lng": -85.21438599999999
          },
          "southwest": {
            "lat": 40.07636189999999,
            "lng": -85.578919
          }
        },
        "location": {
          "lat": 40.2583533,
          "lng": -85.39627689999999
        },
        "location_type": "APPROXIMATE",
        "viewport": {
          "northeast": {
            "lat": 40.379524,
            "lng": -85.21438599999999
          },
          "southwest": {
            "lat": 40.07636189999999,
            "lng": -85.578919
          }
        }
      },
      "place_id": "ChIJ6xQPZS0WFYgRbDEilmvtxbc",
      "types": [
        "administrative_area_level_2",
        "political"
      ]
    },
    {
      "address_components": [
        {
          "long_name": "Indiana",
          "short_name": "IN",
          "types": [
            "administrative_area_level_1",
            "political"
          ]
        },
        {
          "long_name": "United States",
          "short_name": "US",
          "types": [
            "country",
            "political"
          ]
        }
      ],
      "formatted_address": "Indiana, USA",
      "geometry": {
        "bounds": {
          "northeast": {
            "lat": 41.7606971,
            "lng": -84.784662
          },
          "southwest": {
            "lat": 37.7717419,
            "lng": -88.097892
          }
        },
        "location": {
          "lat": 40.2671941,
          "lng": -86.1349019
        },
        "location_type": "APPROXIMATE",
        "viewport": {
          "northeast": {
            "lat": 41.7606971,
            "lng": -84.784662
          },
          "southwest": {
            "lat": 37.7717419,
            "lng": -88.097892
          }
        }
      },
      "place_id": "ChIJHRv42bxQa4gRcuwyy84vEH4",
      "types": [
        "administrative_area_level_1",
        "political"
      ]
    },
    {
      "address_components": [
        {
          "long_name": "United States",
          "short_name": "US",
          "types": [
            "country",
            "political"
          ]
        }
      ],
      "formatted_address": "United States",
      "geometry": {
        "bounds": {
          "northeast": {
            "lat": 71.3867745,
            "lng": -66.9502861
          },
          "southwest": {
            "lat": 18.9106768,
            "lng": 172.4458955
          }
        },
        "location": {
          "lat": 37.09024,
          "lng": -95.712891
        },
        "location_type": "APPROXIMATE",
        "viewport": {
          "northeast": {
            "lat": 49.38,
            "lng": -66.94
          },
          "southwest": {
            "lat": 25.82,
            "lng": -124.39
          }
        }
      },
      "place_id": "ChIJCzYy5IS16lQRQrfeQ5K5Oxw",
      "types": [
        "country",
        "political"
      ]
    }
  ],
  "status": "OK"
}
