{
  "results": [
    {
      "address_components": [
        {
          "long_name": "101",
          "short_name": "101",
          "types": [
            "street_number"
          ]
        },
        {
          "long_name": "West North Street",
          "short_name": "W North St",
          "types": [
            "route"
          ]
        },
        {
          "long_name": "Arcanum",
          "short_name": "Arcanum",
          "types": [
            "locality",
            "political"
          ]
        },
        {
          "long_name": "Twin Township",
          "short_name": "Twin Township",
          "types": [
            "administrative_area_level_3",
            "political"
          ]
        },
        {
          "long_name": "Darke County",
          "short_name": "Darke County",
          "types": [
            "administrative_area_level_2",
            "political"
          ]
        },
        {
          "long_name": "Ohio",
          "short_name": "OH",
          "types": [
            "administrative_area_level_1",
            "political"
          ]
        },
        {
          "long_name": "United States",
          "short_name": "US",
          "types": [
            "country",
            "political"
          ]
        },
        {
          "long_name": "45304",
          "short_name": "45304",
          "types": [
            "postal_code"
          ]
        },
        {
          "long_name": "1185",
          "short_name": "1185",
          "types": [
            "postal_code_suffix"
          ]
        }
      ],
      "formatted_address": "101 W North St, Arcanum, OH 45304, USA",
      "geometry": {
        "location": {
          "lat": 39.992418,
          "lng": -84.554378
        },
        "location_type": "ROOFTOP",
        "viewport": {
          "northeast": {
            "lat": 39.9937669802915,
            "lng": -84.5530290197085
          },
          "southwest": {
            "lat": 39.9910690197085,
            "lng": -84.55572698029151
          }
        }
      },
      "place_id": "ChIJ7_VsWqONP4gRZPkH9b2x9LE",
      "types": [
        "street_address"
      ]
    },
    {
      "address_components": [
        {
          "long_name": "Arcanum",
          "short_name": "Arcanum",
          "types": [
            "locality",
            "political"
          ]
        },
        {
          "long_name": "Twin Township",
          "short_name": "Twin Township",
          "types": [
            "administrative_area_level_3",
            "political"
          ]
        },
        {
          "long_name": "Darke County",
          "short_name": "Darke County",
          "types": [
            "administrative_area_level_2",
            "political"
          ]
        },
        {
          "long_name": "Ohio",
          "short_name": "OH",
          "types": [
            "administrative_area_level_1",
            "political"
          ]
        },
        {
          "long_name": "United States",
          "short_name": "US",
          "types": [
            "country",
            "political"
          ]
        },
        {
          "long_name": "45304",
          "short_name": "45304",
          "types": [
            "postal_code"
          ]
        }
      ],
      "formatted_address": "Arcanum, OH 45304, USA",
      "geometry": {
        "bounds": {
          "northeast": {
            "lat": 40.005278,
            "lng": -84.54388
          },
          "southwest": {
            "lat": 39.97948,
            "lng": -84.565651
          }
        },
        "location": {
          "lat": 39.9900504,
          "lng": -84.553286
        },
        "location_type": "APPROXIMATE",
        "viewport": {
          "northeast": {
            "lat": 40.005278,
            "lng": -84.54388
          },
          "southwest": {
            "lat": 39.97948,
            "lng": -84.565651
          }
        }
      },
      "place_id": "ChIJ86z3rKSNP4gRQLF4VY5LuYQ",
      "types": [
        "locality",
        "political"
      ]
    },
    {
      "address_components": [
        {
          "long_name": "Twin Township",
          "short_name": "Twin Township",
          "types": [
            "administrative_area_level_3",
            "political"
          ]
        },
        {
          "long_name": "Darke County",
          "short_name": "Darke County",
          "types": [
            "administrative_area_level_2",
            "political"
          ]
        },
        {
          "long_name": "Ohio",
          "short_name": "OH",
          "types": [
            "administrative_area_level_1",
            "political"
          ]
        },
        {
          "long_name": "United States",
          "short_name": "US",
          "types": [
            "country",
            "political"
          ]
        }
      ],
      "formatted_address": "Twin Township, OH, USA",
      "geometry": {
        "bounds": {
          "northeast": {
            "lat": 40.00593689999999,
            "lng": -84.5054859
          },
          "southwest": {
            "lat": 39.9167429,
            "lng": -84.59814109999999
          }
        },
        "location": {
          "lat": 39.9556501,
          "lng": -84.54318669999999
        },
        "location_type": "APPROXIMATE",
        "viewport": {
          "northeast": {
            "lat": 40.00593689999999,
            "lng": -84.5054859
          },
          "southwest": {
            "lat": 39.9167429,
            "lng": -84.59814109999999
          }
        }
      },
      "place_id": "ChIJ92binESMP4gRCAeI4IWHgJ4",
      "types": [
        "administrative_area_level_3",
        "political"
      ]
    },
    {
      "address_components": [
        {
          "long_name": "45304",
          "short_name": "45304",
          "types": [
            "postal_code"
          ]
        },
        {
          "long_name": "Arcanum",
          "short_name": "Arcanum",
          "types": [
            "locality",
            "political"
          ]
        },
        {
          "long_name": "Ohio",
          "short_name": "OH",
          "types": [
            "administrative_area_level_1",
            "political"
          ]
        },
        {
          "long_name": "United States",
          "short_name": "US",
          "types": [
            "country",
            "political"
          ]
        }
      ],
      "formatted_address": "Arcanum, OH 45304, USA",
      "geometry": {
        "bounds": {
          "northeast": {
            "lat": 40.066364,
            "lng": -84.417559
          },
          "southwest": {
            "lat": 39.906509,
            "lng": -84.65295800000001
          }
        },
        "location": {
          "lat": 39.9965997,
          "lng": -84.54318669999999
        },
        "location_type": "APPROXIMATE",
        "viewport": {
          "northeast": {
            "lat": 40.066364,
            "lng": -84.417559
          },
          "southwest": {
            "lat": 39.906509,
            "lng": -84.65295800000001
          }
        }
      },
      "place_id": "ChIJs2lzH7qNP4gRZnaeDTmO4QY",
      "postcode_localities": [
        "Arcanum",
        "Castine",
        "Gordon",
        "Ithaca"
      ],
      "types": [
        "postal_code"
      ]
    },
    {
      "address_components": [
        {
          "long_name": "Darke County",
          "short_name": "Darke County",
          "types": [
            "administrative_area_level_2",
            "political"
          ]
        },
        {
          "long_name": "Ohio",
          "short_name": "OH",
          "types": [
            "administrative_area_level_1",
            "political"
          ]
        },
        {
          "long_name": "United States",
          "short_name": "US",
          "types": [
            "country",
            "political"
          ]
        }
      ],
      "formatted_address": "Darke County, OH, USA",
      "geometry": {
        "bounds": {
          "northeast": {
            "lat": 40.354259,
            "lng": -84.426141
          },
          "southwest": {
            "lat": 39.916481,
            "lng": -84.81244009999999
          }
        },
        "location": {
          "lat": 40.1056572,
          "lng": -84.68974949999999
        },
        "location_type": "APPROXIMATE",
        "viewport": {
          "northeast": {
            "lat": 40.354259,
            "lng": -84.426141
          },
          "southwest": {
            "lat": 39.916481,
            "lng": -84.81244009999999
          }
        }
      },
      "place_id": "ChIJV1_qdteMP4gRRvePHnv11SA",
      "types": [
        "administrative_area_level_2",
        "political"
      ]
    },
    {
      "address_components": [
        {
          "long_name": "Greenville",
          "short_name": "Greenville",
          "types": [
            "political"
          ]
        },
        {
          "long_name": "United States",
          "short_name": "US",
          "types": [
            "country",
            "political"
          ]
        }
      ],
      "formatted_address": "Greenville, USA",
      "geometry": {
        "bounds": {
          "northeast": {
            "lat": 40.3543469,
            "lng": -84.425848
          },
          "southwest": {
            "lat": 39.9165621,
            "lng": -84.81241090000002
          }
        },
        "location": {
          "lat": 40.1056572,
          "lng": -84.68974949999999
        },
        "location_type": "APPROXIMATE",
        "viewport": {
          "northeast": {
            "lat": 40.3543469,
            "lng": -84.425848
          },
          "southwest": {
            "lat": 39.9165621,
            "lng": -84.81241090000002
          }
        }
      },
      "place_id": "ChIJGf_E1CTrP4gRy_6o7cmW8vA",
      "types": [
        "political"
      ]
    },
    {
      "address_components": [
        {
          "long_name": "Ohio",
          "short_name": "OH",
          "types": [
            "administrative_area_level_1",
            "political"
          ]
        },
        {
          "long_name": "United States",
          "short_name": "US",
          "types": [
            "country",
            "political"
          ]
        }
      ],
      "formatted_address": "Ohio, USA",
      "geometry": {
        "bounds": {
          "northeast": {
            "lat": 41.9773019,
            "lng": -80.5182
          },
          "southwest": {
            "lat": 38.4034229,
            "lng": -84.8203049
          }
        },
        "location": {
          "lat": 40.4172871,
          "lng": -82.90712300000001
        },
        "location_type": "APPROXIMATE",
        "viewport": {
          "northeast": {
            "lat": 41.9773019,
            "lng": -80.5182
          },
          "southwest": {
            "lat": 38.4034229,
            "lng": -84.8203049
          }
        }
      },
      "place_id": "ChIJwY5NtXrpNogRFtmfnDlkzeU",
      "types": [
        "administrative_area_level_1",
        "political"
      ]
    },
    {
      "address_components": [
        {
          "long_name": "United States",
          "short_name": "US",
          "types": [
            "country",
            "political"
          ]
        }
      ],
      "formatted_address": "United States",
      "geometry": {
        "bounds": {
          "northeast": {
            "lat": 71.3867745,
            "lng": -66.9502861
          },
          "southwest": {
            "lat": 18.9106768,
            "lng": 172.4458955
          }
        },
        "location": {
          "lat": 37.09024,
          "lng": -95.712891
        },
        "location_type": "APPROXIMATE",
        "viewport": {
          "northeast": {
            "lat": 49.38,
            "lng": -66.94
          },
          "southwest": {
            "lat": 25.82,
            "lng": -124.39
          }
        }
      },
      "place_id": "ChIJCzYy5IS16lQRQrfeQ5K5Oxw",
      "types": [
        "country",
        "political"
      ]
    }
  ],
  "status": "OK"
}
