{
  "results": [
    {
      "address_components": [
        {
          "long_name": "109",
          "short_name": "109",
          "types": [
            "street_number"
          ]
        },
        {
          "long_name": "West Locust Street",
          "short_name": "W Locust St",
          "types": [
            "route"
          ]
        },
        {
          "long_name": "Tyro",
          "short_name": "Tyro",
          "types": [
            "locality",
            "political"
          ]
        },
        {
          "long_name": "Montgomery County",
          "short_name": "Montgomery County",
          "types": [
            "administrative_area_level_2",
            "political"
          ]
        },
        {
          "long_name": "Kansas",
          "short_name": "KS",
          "types": [
            "administrative_area_level_1",
            "political"
          ]
        },
        {
          "long_name": "United States",
          "short_name": "US",
          "types": [
            "country",
            "political"
          ]
        },
        {
          "long_name": "67364",
          "short_name": "67364",
          "types": [
            "postal_code"
          ]
        }
      ],
      "formatted_address": "109 W Locust St, Tyro, KS 67364, USA",
      "geometry": {
        "bounds": {
          "northeast": {
            "lat": 37.0371432,
            "lng": -95.8197122
          },
          "southwest": {
            "lat": 37.0369817,
            "lng": -95.82097979999999
          }
        },
        "location": {
          "lat": 37.0371283,
          "lng": -95.82098169999999
        },
        "location_type": "RANGE_INTERPOLATED",
        "viewport": {
          "northeast": {
            "lat": 37.0384114302915,
            "lng": -95.81899701970848
          },
          "southwest": {
            "lat": 37.0357134697085,
            "lng": -95.8216949802915
          }
        }
      },
      "place_id": "EiQxMDkgVyBMb2N1c3QgU3QsIFR5cm8sIEtTIDY3MzY0LCBVU0E",
      "types": [
        "street_address"
      ]
    },
    {
      "address_components": [
        {
          "long_name": "Tyro",
          "short_name": "Tyro",
          "types": [
            "locality",
            "political"
          ]
        },
        {
          "long_name": "Montgomery County",
          "short_name": "Montgomery County",
          "types": [
            "administrative_area_level_2",
            "political"
          ]
        },
        {
          "long_name": "Kansas",
          "short_name": "KS",
          "types": [
            "administrative_area_level_1",
            "political"
          ]
        },
        {
          "long_name": "United States",
          "short_name": "US",
          "types": [
            "country",
            "political"
          ]
        }
      ],
      "formatted_address": "Tyro, KS, USA",
      "geometry": {
        "bounds": {
          "northeast": {
            "lat": 37.044371,
            "lng": -95.81252599999999
          },
          "southwest": {
            "lat": 37.0318691,
            "lng": -95.8289099
          }
        },
        "location": {
          "lat": 37.0378531,
          "lng": -95.8213686
        },
        "location_type": "APPROXIMATE",
        "viewport": {
          "northeast": {
            "lat": 37.044371,
            "lng": -95.81252599999999
          },
          "southwest": {
            "lat": 37.0318691,
            "lng": -95.8289099
          }
        }
      },
      "place_id": "ChIJWR7wnNB7t4cRuM2NY71ufM0",
      "types": [
        "locality",
        "political"
      ]
    },
    {
      "address_components": [
        {
          "long_name": "67364",
          "short_name": "67364",
          "types": [
            "postal_code"
          ]
        },
        {
          "long_name": "Tyro",
          "short_name": "Tyro",
          "types": [
            "locality",
            "political"
          ]
        },
        {
          "long_name": "Montgomery County",
          "short_name": "Montgomery County",
          "types": [
            "administrative_area_level_2",
            "political"
          ]
        },
        {
          "long_name": "Kansas",
          "short_name": "KS",
          "types": [
            "administrative_area_level_1",
            "political"
          ]
        },
        {
          "long_name": "United States",
          "short_name": "US",
          "types": [
            "country",
            "political"
          ]
        }
      ],
      "formatted_address": "Tyro, KS 67364, USA",
      "geometry": {
        "bounds": {
          "northeast": {
            "lat": 37.110331,
            "lng": -95.800145
          },
          "southwest": {
            "lat": 37.028935,
            "lng": -95.8739269
          }
        },
        "location": {
          "lat": 37.0581371,
          "lng": -95.8248352
        },
        "location_type": "APPROXIMATE",
        "viewport": {
          "northeast": {
            "lat": 37.110331,
            "lng": -95.800145
          },
          "southwest": {
            "lat": 37.028935,
            "lng": -95.8739269
          }
        }
      },
      "place_id": "ChIJiYt_D9B7t4cRZ423dtzaWeU",
      "types": [
        "postal_code"
      ]
    },
    {
      "address_components": [
        {
          "long_name": "Caney",
          "short_name": "Caney",
          "types": [
            "administrative_area_level_3",
            "political"
          ]
        },
        {
          "long_name": "Montgomery County",
          "short_name": "Montgomery County",
          "types": [
            "administrative_area_level_2",
            "political"
          ]
        },
        {
          "long_name": "Kansas",
          "short_name": "KS",
          "types": [
            "administrative_area_level_1",
            "political"
          ]
        },
        {
          "long_name": "United States",
          "short_name": "US",
          "types": [
            "country",
            "political"
          ]
        }
      ],
      "formatted_address": "Caney, KS, USA",
      "geometry": {
        "bounds": {
          "northeast": {
            "lat": 37.125511,
            "lng": -95.8189809
          },
          "southwest": {
            "lat": 36.99907400000001,
            "lng": -95.964748
          }
        },
        "location": {
          "lat": 37.0876159,
          "lng": -95.8775964
        },
        "location_type": "APPROXIMATE",
        "viewport": {
          "northeast": {
            "lat": 37.125511,
            "lng": -95.8189809
          },
          "southwest": {
            "lat": 36.99907400000001,
            "lng": -95.964748
          }
        }
      },
      "place_id": "ChIJR_KHOVR7t4cR_4Xa2Ml_IUg",
      "types": [
        "administrative_area_level_3",
        "political"
      ]
    },
    {
      "address_components": [
        {
          "long_name": "Coffeyville",
          "short_name": "Coffeyville",
          "types": [
            "political"
          ]
        },
        {
          "long_name": "United States",
          "short_name": "US",
          "types": [
            "country",
            "political"
          ]
        }
      ],
      "formatted_address": "Coffeyville, USA",
      "geometry": {
        "bounds": {
          "northeast": {
            "lat": 37.3866679,
            "lng": -95.5180069
          },
          "southwest": {
            "lat": 36.99909359999999,
            "lng": -95.964744
          }
        },
        "location": {
          "lat": 37.240253,
          "lng": -95.81428849999999
        },
        "location_type": "APPROXIMATE",
        "viewport": {
          "northeast": {
            "lat": 37.3866679,
            "lng": -95.5180069
          },
          "southwest": {
            "lat": 36.99909359999999,
            "lng": -95.964744
          }
        }
      },
      "place_id": "ChIJk6lqAyXVuYcR9tQx5C9phZU",
      "types": [
        "political"
      ]
    },
    {
      "address_components": [
        {
          "long_name": "Montgomery County",
          "short_name": "Montgomery County",
          "types": [
            "administrative_area_level_2",
            "political"
          ]
        },
        {
          "long_name": "Kansas",
          "short_name": "KS",
          "types": [
            "administrative_area_level_1",
            "political"
          ]
        },
        {
          "long_name": "United States",
          "short_name": "US",
          "types": [
            "country",
            "political"
          ]
        }
      ],
      "formatted_address": "Montgomery County, KS, USA",
      "geometry": {
        "bounds": {
          "northeast": {
            "lat": 37.3866679,
            "lng": -95.51796709999999
          },
          "southwest": {
            "lat": 36.99907400000001,
            "lng": -95.964748
          }
        },
        "location": {
          "lat": 37.240253,
          "lng": -95.81428849999999
        },
        "location_type": "APPROXIMATE",
        "viewport": {
          "northeast": {
            "lat": 37.3866679,
            "lng": -95.51796709999999
          },
          "southwest": {
            "lat": 36.99907400000001,
            "lng": -95.964748
          }
        }
      },
      "place_id": "ChIJdRuxnD7WuYcRj4OeRtXCC1Q",
      "types": [
        "administrative_area_level_2",
        "political"
      ]
    },
    {
      "address_components": [
        {
          "long_name": "Kansas",
          "short_name": "KS",
          "types": [
            "administrative_area_level_1",
            "political"
          ]
        },
        {
          "long_name": "United States",
          "short_name": "US",
          "types": [
            "country",
            "political"
          ]
        }
      ],
      "formatted_address": "Kansas, USA",
      "geometry": {
        "bounds": {
          "northeast": {
            "lat": 40.0045419,
            "lng": -94.588387
          },
          "southwest": {
            "lat": 36.9930159,
            "lng": -102.0517688
          }
        },
        "location": {
          "lat": 39.011902,
          "lng": -98.4842465
        },
        "location_type": "APPROXIMATE",
        "viewport": {
          "northeast": {
            "lat": 40.0045419,
            "lng": -94.588387
          },
          "southwest": {
            "lat": 36.9930159,
            "lng": -102.0517688
          }
        }
      },
      "place_id": "ChIJawF8cXEXo4cRXwk-S6m0wmg",
      "types": [
        "administrative_area_level_1",
        "political"
      ]
    },
    {
      "address_components": [
        {
          "long_name": "United States",
          "short_name": "US",
          "types": [
            "country",
            "political"
          ]
        }
      ],
      "formatted_address": "United States",
      "geometry": {
        "bounds": {
          "northeast": {
            "lat": 71.3867745,
            "lng": -66.9502861
          },
          "southwest": {
            "lat": 18.9106768,
            "lng": 172.4458955
          }
        },
        "location": {
          "lat": 37.09024,
          "lng": -95.712891
        },
        "location_type": "APPROXIMATE",
        "viewport": {
          "northeast": {
            "lat": 49.38,
            "lng": -66.94
          },
          "southwest": {
            "lat": 25.82,
            "lng": -124.39
          }
        }
      },
      "place_id": "ChIJCzYy5IS16lQRQrfeQ5K5Oxw",
      "types": [
        "country",
        "political"
      ]
    }
  ],
  "status": "OK"
}
