{
  "results": [
    {
      "address_components": [
        {
          "long_name": "2718",
          "short_name": "2718",
          "types": [
            "street_number"
          ]
        },
        {
          "long_name": "Main Street",
          "short_name": "Main St",
          "types": [
            "route"
          ]
        },
        {
          "long_name": "Piffard",
          "short_name": "Piffard",
          "types": [
            "locality",
            "political"
          ]
        },
        {
          "long_name": "York",
          "short_name": "York",
          "types": [
            "administrative_area_level_3",
            "political"
          ]
        },
        {
          "long_name": "Livingston County",
          "short_name": "Livingston County",
          "types": [
            "administrative_area_level_2",
            "political"
          ]
        },
        {
          "long_name": "New York",
          "short_name": "NY",
          "types": [
            "administrative_area_level_1",
            "political"
          ]
        },
        {
          "long_name": "United States",
          "short_name": "US",
          "types": [
            "country",
            "political"
          ]
        },
        {
          "long_name": "14533",
          "short_name": "14533",
          "types": [
            "postal_code"
          ]
        }
      ],
      "formatted_address": "2718 Main St, Piffard, NY 14533, USA",
      "geometry": {
        "location": {
          "lat": 42.869713,
          "lng": -77.886534
        },
        "location_type": "ROOFTOP",
        "viewport": {
          "northeast": {
            "lat": 42.87106198029149,
            "lng": -77.88518501970849
          },
          "southwest": {
            "lat": 42.86836401970849,
            "lng": -77.88788298029151
          }
        }
      },
      "place_id": "ChIJU_WGk61f0YkRJ7nKV0LMn40",
      "types": [
        "street_address"
      ]
    },
    {
      "address_components": [
        {
          "long_name": "York",
          "short_name": "York",
          "types": [
            "locality",
            "political"
          ]
        },
        {
          "long_name": "York",
          "short_name": "York",
          "types": [
            "administrative_area_level_3",
            "political"
          ]
        },
        {
          "long_name": "Livingston County",
          "short_name": "Livingston County",
          "types": [
            "administrative_area_level_2",
            "political"
          ]
        },
        {
          "long_name": "New York",
          "short_name": "NY",
          "types": [
            "administrative_area_level_1",
            "political"
          ]
        },
        {
          "long_name": "United States",
          "short_name": "US",
          "types": [
            "country",
            "political"
          ]
        }
      ],
      "formatted_address": "York, NY, USA",
      "geometry": {
        "bounds": {
          "northeast": {
            "lat": 42.882148,
            "lng": -77.86850299999999
          },
          "southwest": {
            "lat": 42.849942,
            "lng": -77.906983
          }
        },
        "location": {
          "lat": 42.8710697,
          "lng": -77.8856212
        },
        "location_type": "APPROXIMATE",
        "viewport": {
          "northeast": {
            "lat": 42.882148,
            "lng": -77.86850299999999
          },
          "southwest": {
            "lat": 42.849942,
            "lng": -77.906983
          }
        }
      },
      "place_id": "ChIJoWXB0LNf0YkRu50qqAOem7k",
      "types": [
        "locality",
        "political"
      ]
    },
    {
      "address_components": [
        {
          "long_name": "14592",
          "short_name": "14592",
          "types": [
            "postal_code"
          ]
        },
        {
          "long_name": "York",
          "short_name": "York",
          "types": [
            "locality",
            "political"
          ]
        },
        {
          "long_name": "York",
          "short_name": "York",
          "types": [
            "administrative_area_level_3",
            "political"
          ]
        },
        {
          "long_name": "Livingston County",
          "short_name": "Livingston County",
          "types": [
            "administrative_area_level_2",
            "political"
          ]
        },
        {
          "long_name": "New York",
          "short_name": "NY",
          "types": [
            "administrative_area_level_1",
            "political"
          ]
        },
        {
          "long_name": "United States",
          "short_name": "US",
          "types": [
            "country",
            "political"
          ]
        }
      ],
      "formatted_address": "York, NY 14592, USA",
      "geometry": {
        "bounds": {
          "northeast": {
            "lat": 42.8713109,
            "lng": -77.885581
          },
          "southwest": {
            "lat": 42.860071,
            "lng": -77.899959
          }
        },
        "location": {
          "lat": 42.8669056,
          "lng": -77.8910321
        },
        "location_type": "APPROXIMATE",
        "viewport": {
          "northeast": {
            "lat": 42.8713109,
            "lng": -77.885581
          },
          "southwest": {
            "lat": 42.860071,
            "lng": -77.899959
          }
        }
      },
      "place_id": "ChIJs8VmVKxf0YkR0T4OfK2X9NM",
      "types": [
        "postal_code"
      ]
    },
    {
      "address_components": [
        {
          "long_name": "York",
          "short_name": "York",
          "types": [
            "administrative_area_level_3",
            "political"
          ]
        },
        {
          "long_name": "Livingston County",
          "short_name": "Livingston County",
          "types": [
            "administrative_area_level_2",
            "political"
          ]
        },
        {
          "long_name": "New York",
          "short_name": "NY",
          "types": [
            "administrative_area_level_1",
            "political"
          ]
        },
        {
          "long_name": "United States",
          "short_name": "US",
          "types": [
            "country",
            "political"
          ]
        }
      ],
      "formatted_address": "York, NY, USA",
      "geometry": {
        "bounds": {
          "northeast": {
            "lat": 42.919092,
            "lng": -77.7797909
          },
          "southwest": {
            "lat": 42.8045769,
            "lng": -77.95553
          }
        },
        "location": {
          "lat": 42.8612262,
          "lng": -77.9053182
        },
        "location_type": "APPROXIMATE",
        "viewport": {
          "northeast": {
            "lat": 42.919092,
            "lng": -77.7797909
          },
          "southwest": {
            "lat": 42.8045769,
            "lng": -77.95553
          }
        }
      },
      "place_id": "ChIJYxCsg0Ze0YkR_rJLotPK9tE",
      "types": [
        "administrative_area_level_3",
        "political"
      ]
    },
    {
      "address_components": [
        {
          "long_name": "Livingston County",
          "short_name": "Livingston County",
          "types": [
            "administrative_area_level_2",
            "political"
          ]
        },
        {
          "long_name": "New York",
          "short_name": "NY",
          "types": [
            "administrative_area_level_1",
            "political"
          ]
        },
        {
          "long_name": "United States",
          "short_name": "US",
          "types": [
            "country",
            "political"
          ]
        }
      ],
      "formatted_address": "Livingston County, NY, USA",
      "geometry": {
        "bounds": {
          "northeast": {
            "lat": 42.9884628,
            "lng": -77.486875
          },
          "southwest": {
            "lat": 42.471216,
            "lng": -78.06096300000002
          }
        },
        "location": {
          "lat": 42.7576923,
          "lng": -77.8367282
        },
        "location_type": "APPROXIMATE",
        "viewport": {
          "northeast": {
            "lat": 42.9884628,
            "lng": -77.486875
          },
          "southwest": {
            "lat": 42.471216,
            "lng": -78.06096300000002
          }
        }
      },
      "place_id": "ChIJ6yynZsJk0YkR63qYbR_jxtU",
      "types": [
        "administrative_area_level_2",
        "political"
      ]
    },
    {
      "address_components": [
        {
          "long_name": "Rochester",
          "short_name": "Rochester",
          "types": [
            "political"
          ]
        },
        {
          "long_name": "New York",
          "short_name": "NY",
          "types": [
            "administrative_area_level_1",
            "political"
          ]
        },
        {
          "long_name": "United States",
          "short_name": "US",
          "types": [
            "country",
            "political"
          ]
        }
      ],
      "formatted_address": "Rochester, NY, USA",
      "geometry": {
        "bounds": {
          "northeast": {
            "lat": 43.37650499999999,
            "lng": -76.702356
          },
          "southwest": {
            "lat": 42.471216,
            "lng": -78.46648309999999
          }
        },
        "location": {
          "lat": 42.938004,
          "lng": -77.3783789
        },
        "location_type": "APPROXIMATE",
        "viewport": {
          "northeast": {
            "lat": 43.37650499999999,
            "lng": -76.702356
          },
          "southwest": {
            "lat": 42.471216,
            "lng": -78.46648309999999
          }
        }
      },
      "place_id": "ChIJgc_bWiY20YkRqU2QPLS42jQ",
      "types": [
        "political"
      ]
    },
    {
      "address_components": [
        {
          "long_name": "New York",
          "short_name": "NY",
          "types": [
            "administrative_area_level_1",
            "political"
          ]
        },
        {
          "long_name": "United States",
          "short_name": "US",
          "types": [
            "country",
            "political"
          ]
        }
      ],
      "formatted_address": "New York, USA",
      "geometry": {
        "bounds": {
          "northeast": {
            "lat": 45.015865,
            "lng": -71.85620639999999
          },
          "southwest": {
            "lat": 40.496091,
            "lng": -79.76214379999999
          }
        },
        "location": {
          "lat": 43.2994285,
          "lng": -74.21793260000001
        },
        "location_type": "APPROXIMATE",
        "viewport": {
          "northeast": {
            "lat": 45.015859,
            "lng": -71.85620639999999
          },
          "southwest": {
            "lat": 40.496091,
            "lng": -79.76214379999999
          }
        }
      },
      "place_id": "ChIJqaUj8fBLzEwRZ5UY3sHGz90",
      "types": [
        "administrative_area_level_1",
        "political"
      ]
    },
    {
      "address_components": [
        {
          "long_name": "United States",
          "short_name": "US",
          "types": [
            "country",
            "political"
          ]
        }
      ],
      "formatted_address": "United States",
      "geometry": {
        "bounds": {
          "northeast": {
            "lat": 71.3867745,
            "lng": -66.9502861
          },
          "southwest": {
            "lat": 18.9106768,
            "lng": 172.4458955
          }
        },
        "location": {
          "lat": 37.09024,
          "lng": -95.712891
        },
        "location_type": "APPROXIMATE",
        "viewport": {
          "northeast": {
            "lat": 49.38,
            "lng": -66.94
          },
          "southwest": {
            "lat": 25.82,
            "lng": -124.39
          }
        }
      },
      "place_id": "ChIJCzYy5IS16lQRQrfeQ5K5Oxw",
      "types": [
        "country",
        "political"
      ]
    }
  ],
  "status": "OK"
}
