{
  "results": [
    {
      "address_components": [
        {
          "long_name": "479-509",
          "short_name": "479-509",
          "types": [
            "street_number"
          ]
        },
        {
          "long_name": "Division Street",
          "short_name": "Division St",
          "types": [
            "route"
          ]
        },
        {
          "long_name": "Manistee",
          "short_name": "Manistee",
          "types": [
            "locality",
            "political"
          ]
        },
        {
          "long_name": "Manistee Township",
          "short_name": "Manistee Township",
          "types": [
            "administrative_area_level_3",
            "political"
          ]
        },
        {
          "long_name": "Manistee County",
          "short_name": "Manistee County",
          "types": [
            "administrative_area_level_2",
            "political"
          ]
        },
        {
          "long_name": "Michigan",
          "short_name": "MI",
          "types": [
            "administrative_area_level_1",
            "political"
          ]
        },
        {
          "long_name": "United States",
          "short_name": "US",
          "types": [
            "country",
            "political"
          ]
        },
        {
          "long_name": "49660",
          "short_name": "49660",
          "types": [
            "postal_code"
          ]
        }
      ],
      "formatted_address": "479-509 Division St, Manistee, MI 49660, USA",
      "geometry": {
        "bounds": {
          "northeast": {
            "lat": 44.2449315,
            "lng": -86.293402
          },
          "southwest": {
            "lat": 44.244883,
            "lng": -86.29428639999999
          }
        },
        "location": {
          "lat": 44.2448726,
          "lng": -86.2935668
        },
        "location_type": "RANGE_INTERPOLATED",
        "viewport": {
          "northeast": {
            "lat": 44.2462562302915,
            "lng": -86.2924952197085
          },
          "southwest": {
            "lat": 44.24355826970851,
            "lng": -86.2951931802915
          }
        }
      },
      "place_id": "Eiw0NzktNTA5IERpdmlzaW9uIFN0LCBNYW5pc3RlZSwgTUkgNDk2NjAsIFVTQQ",
      "types": [
        "street_address"
      ]
    },
    {
      "address_components": [
        {
          "long_name": "Eastlake",
          "short_name": "Eastlake",
          "types": [
            "locality",
            "political"
          ]
        },
        {
          "long_name": "Manistee Township",
          "short_name": "Manistee Township",
          "types": [
            "administrative_area_level_3",
            "political"
          ]
        },
        {
          "long_name": "Manistee County",
          "short_name": "Manistee County",
          "types": [
            "administrative_area_level_2",
            "political"
          ]
        },
        {
          "long_name": "Michigan",
          "short_name": "MI",
          "types": [
            "administrative_area_level_1",
            "political"
          ]
        },
        {
          "long_name": "United States",
          "short_name": "US",
          "types": [
            "country",
            "political"
          ]
        }
      ],
      "formatted_address": "Eastlake, MI, USA",
      "geometry": {
        "bounds": {
          "northeast": {
            "lat": 44.255676,
            "lng": -86.2781979
          },
          "southwest": {
            "lat": 44.233644,
            "lng": -86.30147050000001
          }
        },
        "location": {
          "lat": 44.2399814,
          "lng": -86.2920255
        },
        "location_type": "APPROXIMATE",
        "viewport": {
          "northeast": {
            "lat": 44.255676,
            "lng": -86.2781979
          },
          "southwest": {
            "lat": 44.233644,
            "lng": -86.30147050000001
          }
        }
      },
      "place_id": "ChIJAyDcXp8pHIgRhUxA_Sw6EsQ",
      "types": [
        "locality",
        "political"
      ]
    },
    {
      "address_components": [
        {
          "long_name": "Manistee Township",
          "short_name": "Manistee Township",
          "types": [
            "administrative_area_level_3",
            "political"
          ]
        },
        {
          "long_name": "Manistee County",
          "short_name": "Manistee County",
          "types": [
            "administrative_area_level_2",
            "political"
          ]
        },
        {
          "long_name": "Michigan",
          "short_name": "MI",
          "types": [
            "administrative_area_level_1",
            "political"
          ]
        },
        {
          "long_name": "United States",
          "short_name": "US",
          "types": [
            "country",
            "political"
          ]
        }
      ],
      "formatted_address": "Manistee Township, MI, USA",
      "geometry": {
        "bounds": {
          "northeast": {
            "lat": 44.35903,
            "lng": -86.18268479999999
          },
          "southwest": {
            "lat": 44.2295439,
            "lng": -86.32675979999999
          }
        },
        "location": {
          "lat": 44.2807362,
          "lng": -86.2361744
        },
        "location_type": "APPROXIMATE",
        "viewport": {
          "northeast": {
            "lat": 44.35903,
            "lng": -86.18268479999999
          },
          "southwest": {
            "lat": 44.2295439,
            "lng": -86.32675979999999
          }
        }
      },
      "place_id": "ChIJi7hmRtiBHogRGPvx2huv0zc",
      "types": [
        "administrative_area_level_3",
        "political"
      ]
    },
    {
      "address_components": [
        {
          "long_name": "49660",
          "short_name": "49660",
          "types": [
            "postal_code"
          ]
        },
        {
          "long_name": "Manistee",
          "short_name": "Manistee",
          "types": [
            "locality",
            "political"
          ]
        },
        {
          "long_name": "Michigan",
          "short_name": "MI",
          "types": [
            "administrative_area_level_1",
            "political"
          ]
        },
        {
          "long_name": "United States",
          "short_name": "US",
          "types": [
            "country",
            "political"
          ]
        }
      ],
      "formatted_address": "Manistee, MI 49660, USA",
      "geometry": {
        "bounds": {
          "northeast": {
            "lat": 44.3763989,
            "lng": -86.0045531
          },
          "southwest": {
            "lat": 44.1101109,
            "lng": -86.41522309999999
          }
        },
        "location": {
          "lat": 44.2205682,
          "lng": -86.1344697
        },
        "location_type": "APPROXIMATE",
        "viewport": {
          "northeast": {
            "lat": 44.3763989,
            "lng": -86.0045531
          },
          "southwest": {
            "lat": 44.1101109,
            "lng": -86.41522309999999
          }
        }
      },
      "place_id": "ChIJ7SZjW3wpHIgRnTchUriD1Rg",
      "postcode_localities": [
        "Manistee",
        "Stronach"
      ],
      "types": [
        "postal_code"
      ]
    },
    {
      "address_components": [
        {
          "long_name": "Manistee County",
          "short_name": "Manistee County",
          "types": [
            "administrative_area_level_2",
            "political"
          ]
        },
        {
          "long_name": "Michigan",
          "short_name": "MI",
          "types": [
            "administrative_area_level_1",
            "political"
          ]
        },
        {
          "long_name": "United States",
          "short_name": "US",
          "types": [
            "country",
            "political"
          ]
        }
      ],
      "formatted_address": "Manistee County, MI, USA",
      "geometry": {
        "bounds": {
          "northeast": {
            "lat": 44.5183046,
            "lng": -85.81758289999999
          },
          "southwest": {
            "lat": 44.164187,
            "lng": -86.3886957
          }
        },
        "location": {
          "lat": 44.2444704,
          "lng": -86.32422249999999
        },
        "location_type": "APPROXIMATE",
        "viewport": {
          "northeast": {
            "lat": 44.5183046,
            "lng": -85.81758289999999
          },
          "southwest": {
            "lat": 44.164187,
            "lng": -86.3886957
          }
        }
      },
      "place_id": "ChIJRWp_YrpCHogRPxUSaocrMSM",
      "types": [
        "administrative_area_level_2",
        "political"
      ]
    },
    {
      "address_components": [
        {
          "long_name": "Michigan",
          "short_name": "MI",
          "types": [
            "administrative_area_level_1",
            "political"
          ]
        },
        {
          "long_name": "United States",
          "short_name": "US",
          "types": [
            "country",
            "political"
          ]
        }
      ],
      "formatted_address": "Michigan, USA",
      "geometry": {
        "bounds": {
          "northeast": {
            "lat": 48.1986461,
            "lng": -82.413474
          },
          "southwest": {
            "lat": 41.696118,
            "lng": -90.4181358
          }
        },
        "location": {
          "lat": 44.3148443,
          "lng": -85.60236429999999
        },
        "location_type": "APPROXIMATE",
        "viewport": {
          "northeast": {
            "lat": 48.198602,
            "lng": -82.413474
          },
          "southwest": {
            "lat": 41.696118,
            "lng": -90.4181358
          }
        }
      },
      "place_id": "ChIJEQTKxz2qTE0Rs8liellI3Zc",
      "types": [
        "administrative_area_level_1",
        "political"
      ]
    },
    {
      "address_components": [
        {
          "long_name": "United States",
          "short_name": "US",
          "types": [
            "country",
            "political"
          ]
        }
      ],
      "formatted_address": "United States",
      "geometry": {
        "bounds": {
          "northeast": {
            "lat": 71.3867745,
            "lng": -66.9502861
          },
          "southwest": {
            "lat": 18.9106768,
            "lng": 172.4458955
          }
        },
        "location": {
          "lat": 37.09024,
          "lng": -95.712891
        },
        "location_type": "APPROXIMATE",
        "viewport": {
          "northeast": {
            "lat": 49.38,
            "lng": -66.94
          },
          "southwest": {
            "lat": 25.82,
            "lng": -124.39
          }
        }
      },
      "place_id": "ChIJCzYy5IS16lQRQrfeQ5K5Oxw",
      "types": [
        "country",
        "political"
      ]
    }
  ],
  "status": "OK"
}
