{
  "results": [
    {
      "address_components": [
        {
          "long_name": "South 2nd Street",
          "short_name": "S 2nd St",
          "types": [
            "route"
          ]
        },
        {
          "long_name": "Zaleski",
          "short_name": "Zaleski",
          "types": [
            "locality",
            "political"
          ]
        },
        {
          "long_name": "Madison Township",
          "short_name": "Madison Township",
          "types": [
            "administrative_area_level_3",
            "political"
          ]
        },
        {
          "long_name": "Vinton County",
          "short_name": "Vinton County",
          "types": [
            "administrative_area_level_2",
            "political"
          ]
        },
        {
          "long_name": "Ohio",
          "short_name": "OH",
          "types": [
            "administrative_area_level_1",
            "political"
          ]
        },
        {
          "long_name": "United States",
          "short_name": "US",
          "types": [
            "country",
            "political"
          ]
        },
        {
          "long_name": "45698",
          "short_name": "45698",
          "types": [
            "postal_code"
          ]
        }
      ],
      "formatted_address": "S 2nd St, Zaleski, OH 45698, USA",
      "geometry": {
        "bounds": {
          "northeast": {
            "lat": 39.2812489,
            "lng": -82.3950622
          },
          "southwest": {
            "lat": 39.2810096,
            "lng": -82.3951791
          }
        },
        "location": {
          "lat": 39.2811293,
          "lng": -82.39512069999999
        },
        "location_type": "GEOMETRIC_CENTER",
        "viewport": {
          "northeast": {
            "lat": 39.2824782302915,
            "lng": -82.39377166970849
          },
          "southwest": {
            "lat": 39.2797802697085,
            "lng": -82.39646963029149
          }
        }
      },
      "place_id": "ChIJadfYa9bER4gRDfYj5GDE3tc",
      "types": [
        "route"
      ]
    },
    {
      "address_components": [
        {
          "long_name": "Zaleski",
          "short_name": "Zaleski",
          "types": [
            "locality",
            "political"
          ]
        },
        {
          "long_name": "Madison Township",
          "short_name": "Madison Township",
          "types": [
            "administrative_area_level_3",
            "political"
          ]
        },
        {
          "long_name": "Vinton County",
          "short_name": "Vinton County",
          "types": [
            "administrative_area_level_2",
            "political"
          ]
        },
        {
          "long_name": "Ohio",
          "short_name": "OH",
          "types": [
            "administrative_area_level_1",
            "political"
          ]
        },
        {
          "long_name": "United States",
          "short_name": "US",
          "types": [
            "country",
            "political"
          ]
        }
      ],
      "formatted_address": "Zaleski, OH, USA",
      "geometry": {
        "bounds": {
          "northeast": {
            "lat": 39.28911,
            "lng": -82.3877009
          },
          "southwest": {
            "lat": 39.2724119,
            "lng": -82.4017411
          }
        },
        "location": {
          "lat": 39.282293,
          "lng": -82.39487590000002
        },
        "location_type": "APPROXIMATE",
        "viewport": {
          "northeast": {
            "lat": 39.28911,
            "lng": -82.3877009
          },
          "southwest": {
            "lat": 39.2724119,
            "lng": -82.4017411
          }
        }
      },
      "place_id": "ChIJOwYzFtbER4gRkoSZz3r046Q",
      "types": [
        "locality",
        "political"
      ]
    },
    {
      "address_components": [
        {
          "long_name": "45698",
          "short_name": "45698",
          "types": [
            "postal_code"
          ]
        },
        {
          "long_name": "Zaleski",
          "short_name": "Zaleski",
          "types": [
            "locality",
            "political"
          ]
        },
        {
          "long_name": "Madison Township",
          "short_name": "Madison Township",
          "types": [
            "administrative_area_level_3",
            "political"
          ]
        },
        {
          "long_name": "Vinton County",
          "short_name": "Vinton County",
          "types": [
            "administrative_area_level_2",
            "political"
          ]
        },
        {
          "long_name": "Ohio",
          "short_name": "OH",
          "types": [
            "administrative_area_level_1",
            "political"
          ]
        },
        {
          "long_name": "United States",
          "short_name": "US",
          "types": [
            "country",
            "political"
          ]
        }
      ],
      "formatted_address": "Zaleski, OH 45698, USA",
      "geometry": {
        "bounds": {
          "northeast": {
            "lat": 39.300229,
            "lng": -82.383037
          },
          "southwest": {
            "lat": 39.2724119,
            "lng": -82.4005059
          }
        },
        "location": {
          "lat": 39.2858382,
          "lng": -82.3926446
        },
        "location_type": "APPROXIMATE",
        "viewport": {
          "northeast": {
            "lat": 39.300229,
            "lng": -82.383037
          },
          "southwest": {
            "lat": 39.2724119,
            "lng": -82.4005059
          }
        }
      },
      "place_id": "ChIJMT7aE9bER4gRdoKCFTFICzo",
      "types": [
        "postal_code"
      ]
    },
    {
      "address_components": [
        {
          "long_name": "Madison Township",
          "short_name": "Madison Township",
          "types": [
            "administrative_area_level_3",
            "political"
          ]
        },
        {
          "long_name": "Vinton County",
          "short_name": "Vinton County",
          "types": [
            "administrative_area_level_2",
            "political"
          ]
        },
        {
          "long_name": "Ohio",
          "short_name": "OH",
          "types": [
            "administrative_area_level_1",
            "political"
          ]
        },
        {
          "long_name": "United States",
          "short_name": "US",
          "types": [
            "country",
            "political"
          ]
        }
      ],
      "formatted_address": "Madison Township, OH, USA",
      "geometry": {
        "bounds": {
          "northeast": {
            "lat": 39.3007781,
            "lng": -82.3355481
          },
          "southwest": {
            "lat": 39.2075,
            "lng": -82.4177479
          }
        },
        "location": {
          "lat": 39.2570431,
          "lng": -82.36688699999999
        },
        "location_type": "APPROXIMATE",
        "viewport": {
          "northeast": {
            "lat": 39.3007781,
            "lng": -82.3355481
          },
          "southwest": {
            "lat": 39.2075,
            "lng": -82.4177479
          }
        }
      },
      "place_id": "ChIJ3VPUxrnaR4gRrJta3vXr_48",
      "types": [
        "administrative_area_level_3",
        "political"
      ]
    },
    {
      "address_components": [
        {
          "long_name": "Vinton County",
          "short_name": "Vinton County",
          "types": [
            "administrative_area_level_2",
            "political"
          ]
        },
        {
          "long_name": "Ohio",
          "short_name": "OH",
          "types": [
            "administrative_area_level_1",
            "political"
          ]
        },
        {
          "long_name": "United States",
          "short_name": "US",
          "types": [
            "country",
            "political"
          ]
        }
      ],
      "formatted_address": "Vinton County, OH, USA",
      "geometry": {
        "bounds": {
          "northeast": {
            "lat": 39.395767,
            "lng": -82.260243
          },
          "southwest": {
            "lat": 39.027674,
            "lng": -82.7628919
          }
        },
        "location": {
          "lat": 39.2875595,
          "lng": -82.5185837
        },
        "location_type": "APPROXIMATE",
        "viewport": {
          "northeast": {
            "lat": 39.395767,
            "lng": -82.260243
          },
          "southwest": {
            "lat": 39.027674,
            "lng": -82.7628919
          }
        }
      },
      "place_id": "ChIJkULPwv3GR4gRzUsE_eJj9Ec",
      "types": [
        "administrative_area_level_2",
        "political"
      ]
    },
    {
      "address_components": [
        {
          "long_name": "Ohio",
          "short_name": "OH",
          "types": [
            "administrative_area_level_1",
            "political"
          ]
        },
        {
          "long_name": "United States",
          "short_name": "US",
          "types": [
            "country",
            "political"
          ]
        }
      ],
      "formatted_address": "Ohio, USA",
      "geometry": {
        "bounds": {
          "northeast": {
            "lat": 41.9773019,
            "lng": -80.5182
          },
          "southwest": {
            "lat": 38.4034229,
            "lng": -84.8203049
          }
        },
        "location": {
          "lat": 40.4172871,
          "lng": -82.90712300000001
        },
        "location_type": "APPROXIMATE",
        "viewport": {
          "northeast": {
            "lat": 41.9773019,
            "lng": -80.5182
          },
          "southwest": {
            "lat": 38.4034229,
            "lng": -84.8203049
          }
        }
      },
      "place_id": "ChIJwY5NtXrpNogRFtmfnDlkzeU",
      "types": [
        "administrative_area_level_1",
        "political"
      ]
    },
    {
      "address_components": [
        {
          "long_name": "United States",
          "short_name": "US",
          "types": [
            "country",
            "political"
          ]
        }
      ],
      "formatted_address": "United States",
      "geometry": {
        "bounds": {
          "northeast": {
            "lat": 71.3867745,
            "lng": -66.9502861
          },
          "southwest": {
            "lat": 18.9106768,
            "lng": 172.4458955
          }
        },
        "location": {
          "lat": 37.09024,
          "lng": -95.712891
        },
        "location_type": "APPROXIMATE",
        "viewport": {
          "northeast": {
            "lat": 49.38,
            "lng": -66.94
          },
          "southwest": {
            "lat": 25.82,
            "lng": -124.39
          }
        }
      },
      "place_id": "ChIJCzYy5IS16lQRQrfeQ5K5Oxw",
      "types": [
        "country",
        "political"
      ]
    }
  ],
  "status": "OK"
}
