{
  "results": [
    {
      "address_components": [
        {
          "long_name": "200-398",
          "short_name": "200-398",
          "types": [
            "street_number"
          ]
        },
        {
          "long_name": "South Hughes Street",
          "short_name": "S Hughes St",
          "types": [
            "route"
          ]
        },
        {
          "long_name": "Parnell",
          "short_name": "Parnell",
          "types": [
            "locality",
            "political"
          ]
        },
        {
          "long_name": "Independence Township",
          "short_name": "Independence Township",
          "types": [
            "administrative_area_level_3",
            "political"
          ]
        },
        {
          "long_name": "Nodaway County",
          "short_name": "Nodaway County",
          "types": [
            "administrative_area_level_2",
            "political"
          ]
        },
        {
          "long_name": "Missouri",
          "short_name": "MO",
          "types": [
            "administrative_area_level_1",
            "political"
          ]
        },
        {
          "long_name": "United States",
          "short_name": "US",
          "types": [
            "country",
            "political"
          ]
        },
        {
          "long_name": "64475",
          "short_name": "64475",
          "types": [
            "postal_code"
          ]
        },
        {
          "long_name": "2519",
          "short_name": "2519",
          "types": [
            "postal_code_suffix"
          ]
        }
      ],
      "formatted_address": "200-398 S Hughes St, Parnell, MO 64475, USA",
      "geometry": {
        "bounds": {
          "northeast": {
            "lat": 40.4391835,
            "lng": -94.62136410000001
          },
          "southwest": {
            "lat": 40.4382604,
            "lng": -94.6213937
          }
        },
        "location": {
          "lat": 40.4385947,
          "lng": -94.62139359999999
        },
        "location_type": "RANGE_INTERPOLATED",
        "viewport": {
          "northeast": {
            "lat": 40.4400709302915,
            "lng": -94.6200299197085
          },
          "southwest": {
            "lat": 40.43737296970851,
            "lng": -94.6227278802915
          }
        }
      },
      "place_id": "EisyMDAtMzk4IFMgSHVnaGVzIFN0LCBQYXJuZWxsLCBNTyA2NDQ3NSwgVVNB",
      "types": [
        "street_address"
      ]
    },
    {
      "address_components": [
        {
          "long_name": "Parnell",
          "short_name": "Parnell",
          "types": [
            "locality",
            "political"
          ]
        },
        {
          "long_name": "Independence Township",
          "short_name": "Independence Township",
          "types": [
            "administrative_area_level_3",
            "political"
          ]
        },
        {
          "long_name": "Nodaway County",
          "short_name": "Nodaway County",
          "types": [
            "administrative_area_level_2",
            "political"
          ]
        },
        {
          "long_name": "Missouri",
          "short_name": "MO",
          "types": [
            "administrative_area_level_1",
            "political"
          ]
        },
        {
          "long_name": "United States",
          "short_name": "US",
          "types": [
            "country",
            "political"
          ]
        },
        {
          "long_name": "64475",
          "short_name": "64475",
          "types": [
            "postal_code"
          ]
        }
      ],
      "formatted_address": "Parnell, MO 64475, USA",
      "geometry": {
        "bounds": {
          "northeast": {
            "lat": 40.443977,
            "lng": -94.6180519
          },
          "southwest": {
            "lat": 40.4323159,
            "lng": -94.6277109
          }
        },
        "location": {
          "lat": 40.43999,
          "lng": -94.6232974
        },
        "location_type": "APPROXIMATE",
        "viewport": {
          "northeast": {
            "lat": 40.443977,
            "lng": -94.6180519
          },
          "southwest": {
            "lat": 40.4323159,
            "lng": -94.6277109
          }
        }
      },
      "place_id": "ChIJ1fu6QEDk6ocRrzmRgYUTmeQ",
      "types": [
        "locality",
        "political"
      ]
    },
    {
      "address_components": [
        {
          "long_name": "Independence Township",
          "short_name": "Independence Township",
          "types": [
            "administrative_area_level_3",
            "political"
          ]
        },
        {
          "long_name": "Nodaway County",
          "short_name": "Nodaway County",
          "types": [
            "administrative_area_level_2",
            "political"
          ]
        },
        {
          "long_name": "Missouri",
          "short_name": "MO",
          "types": [
            "administrative_area_level_1",
            "political"
          ]
        },
        {
          "long_name": "United States",
          "short_name": "US",
          "types": [
            "country",
            "political"
          ]
        }
      ],
      "formatted_address": "Independence Township, MO, USA",
      "geometry": {
        "bounds": {
          "northeast": {
            "lat": 40.5727258,
            "lng": -94.60829199999999
          },
          "southwest": {
            "lat": 40.430138,
            "lng": -94.745801
          }
        },
        "location": {
          "lat": 40.49927840000001,
          "lng": -94.6863782
        },
        "location_type": "APPROXIMATE",
        "viewport": {
          "northeast": {
            "lat": 40.5727258,
            "lng": -94.60829199999999
          },
          "southwest": {
            "lat": 40.430138,
            "lng": -94.745801
          }
        }
      },
      "place_id": "ChIJDfcwaajh6ocRSbY7W7decZo",
      "types": [
        "administrative_area_level_3",
        "political"
      ]
    },
    {
      "address_components": [
        {
          "long_name": "64475",
          "short_name": "64475",
          "types": [
            "postal_code"
          ]
        },
        {
          "long_name": "Parnell",
          "short_name": "Parnell",
          "types": [
            "locality",
            "political"
          ]
        },
        {
          "long_name": "Missouri",
          "short_name": "MO",
          "types": [
            "administrative_area_level_1",
            "political"
          ]
        },
        {
          "long_name": "United States",
          "short_name": "US",
          "types": [
            "country",
            "political"
          ]
        }
      ],
      "formatted_address": "Parnell, MO 64475, USA",
      "geometry": {
        "bounds": {
          "northeast": {
            "lat": 40.507204,
            "lng": -94.53601499999999
          },
          "southwest": {
            "lat": 40.3725639,
            "lng": -94.74041690000001
          }
        },
        "location": {
          "lat": 40.4408067,
          "lng": -94.6243751
        },
        "location_type": "APPROXIMATE",
        "viewport": {
          "northeast": {
            "lat": 40.507204,
            "lng": -94.53601499999999
          },
          "southwest": {
            "lat": 40.3725639,
            "lng": -94.74041690000001
          }
        }
      },
      "place_id": "ChIJD5KVfCHh6ocR5Ap8z3Bkg7g",
      "types": [
        "postal_code"
      ]
    },
    {
      "address_components": [
        {
          "long_name": "Nodaway County",
          "short_name": "Nodaway County",
          "types": [
            "administrative_area_level_2",
            "political"
          ]
        },
        {
          "long_name": "Missouri",
          "short_name": "MO",
          "types": [
            "administrative_area_level_1",
            "political"
          ]
        },
        {
          "long_name": "United States",
          "short_name": "US",
          "types": [
            "country",
            "political"
          ]
        }
      ],
      "formatted_address": "Nodaway County, MO, USA",
      "geometry": {
        "bounds": {
          "northeast": {
            "lat": 40.578488,
            "lng": -94.59848690000001
          },
          "southwest": {
            "lat": 40.1261269,
            "lng": -95.20240009999999
          }
        },
        "location": {
          "lat": 40.2907281,
          "lng": -94.81059549999999
        },
        "location_type": "APPROXIMATE",
        "viewport": {
          "northeast": {
            "lat": 40.578488,
            "lng": -94.59848690000001
          },
          "southwest": {
            "lat": 40.1261269,
            "lng": -95.20240009999999
          }
        }
      },
      "place_id": "ChIJJTflPxzF6ocR8bF2TAPBcWU",
      "types": [
        "administrative_area_level_2",
        "political"
      ]
    },
    {
      "address_components": [
        {
          "long_name": "Maryville",
          "short_name": "Maryville",
          "types": [
            "political"
          ]
        },
        {
          "long_name": "United States",
          "short_name": "US",
          "types": [
            "country",
            "political"
          ]
        }
      ],
      "formatted_address": "Maryville, USA",
      "geometry": {
        "bounds": {
          "northeast": {
            "lat": 40.5785299,
            "lng": -94.59848699999999
          },
          "southwest": {
            "lat": 40.126161,
            "lng": -95.20242619999999
          }
        },
        "location": {
          "lat": 40.2907281,
          "lng": -94.81059549999999
        },
        "location_type": "APPROXIMATE",
        "viewport": {
          "northeast": {
            "lat": 40.5785299,
            "lng": -94.59848699999999
          },
          "southwest": {
            "lat": 40.126161,
            "lng": -95.20242619999999
          }
        }
      },
      "place_id": "ChIJm7Q8J1DF6ocRDTWHJSY8s-o",
      "types": [
        "political"
      ]
    },
    {
      "address_components": [
        {
          "long_name": "Missouri",
          "short_name": "MO",
          "types": [
            "administrative_area_level_1",
            "political"
          ]
        },
        {
          "long_name": "United States",
          "short_name": "US",
          "types": [
            "country",
            "political"
          ]
        }
      ],
      "formatted_address": "Missouri, USA",
      "geometry": {
        "bounds": {
          "northeast": {
            "lat": 40.61364,
            "lng": -89.09949399999999
          },
          "southwest": {
            "lat": 35.9956829,
            "lng": -95.774704
          }
        },
        "location": {
          "lat": 37.9642529,
          "lng": -91.8318334
        },
        "location_type": "APPROXIMATE",
        "viewport": {
          "northeast": {
            "lat": 40.61364,
            "lng": -89.09949399999999
          },
          "southwest": {
            "lat": 35.9956829,
            "lng": -95.774704
          }
        }
      },
      "place_id": "ChIJfeMiSNXmwIcRcr1mBFnEW7U",
      "types": [
        "administrative_area_level_1",
        "political"
      ]
    },
    {
      "address_components": [
        {
          "long_name": "United States",
          "short_name": "US",
          "types": [
            "country",
            "political"
          ]
        }
      ],
      "formatted_address": "United States",
      "geometry": {
        "bounds": {
          "northeast": {
            "lat": 71.3867745,
            "lng": -66.9502861
          },
          "southwest": {
            "lat": 18.9106768,
            "lng": 172.4458955
          }
        },
        "location": {
          "lat": 37.09024,
          "lng": -95.712891
        },
        "location_type": "APPROXIMATE",
        "viewport": {
          "northeast": {
            "lat": 49.38,
            "lng": -66.94
          },
          "southwest": {
            "lat": 25.82,
            "lng": -124.39
          }
        }
      },
      "place_id": "ChIJCzYy5IS16lQRQrfeQ5K5Oxw",
      "types": [
        "country",
        "political"
      ]
    }
  ],
  "status": "OK"
}
