{
  "results": [
    {
      "address_components": [
        {
          "long_name": "111",
          "short_name": "111",
          "types": [
            "street_number"
          ]
        },
        {
          "long_name": "Maple Street",
          "short_name": "Maple St",
          "types": [
            "route"
          ]
        },
        {
          "long_name": "South Dayton",
          "short_name": "South Dayton",
          "types": [
            "locality",
            "political"
          ]
        },
        {
          "long_name": "Dayton",
          "short_name": "Dayton",
          "types": [
            "administrative_area_level_3",
            "political"
          ]
        },
        {
          "long_name": "Cattaraugus County",
          "short_name": "Cattaraugus County",
          "types": [
            "administrative_area_level_2",
            "political"
          ]
        },
        {
          "long_name": "New York",
          "short_name": "NY",
          "types": [
            "administrative_area_level_1",
            "political"
          ]
        },
        {
          "long_name": "United States",
          "short_name": "US",
          "types": [
            "country",
            "political"
          ]
        },
        {
          "long_name": "14138",
          "short_name": "14138",
          "types": [
            "postal_code"
          ]
        }
      ],
      "formatted_address": "111 Maple St, South Dayton, NY 14138, USA",
      "geometry": {
        "location": {
          "lat": 42.362602,
          "lng": -79.051191
        },
        "location_type": "ROOFTOP",
        "viewport": {
          "northeast": {
            "lat": 42.36395098029149,
            "lng": -79.0498420197085
          },
          "southwest": {
            "lat": 42.36125301970849,
            "lng": -79.05253998029151
          }
        }
      },
      "place_id": "ChIJz3MMbUPA0okRXb4K-xliid4",
      "types": [
        "street_address"
      ]
    },
    {
      "address_components": [
        {
          "long_name": "South Dayton",
          "short_name": "South Dayton",
          "types": [
            "locality",
            "political"
          ]
        },
        {
          "long_name": "Dayton",
          "short_name": "Dayton",
          "types": [
            "administrative_area_level_3",
            "political"
          ]
        },
        {
          "long_name": "Cattaraugus County",
          "short_name": "Cattaraugus County",
          "types": [
            "administrative_area_level_2",
            "political"
          ]
        },
        {
          "long_name": "New York",
          "short_name": "NY",
          "types": [
            "administrative_area_level_1",
            "political"
          ]
        },
        {
          "long_name": "United States",
          "short_name": "US",
          "types": [
            "country",
            "political"
          ]
        },
        {
          "long_name": "14138",
          "short_name": "14138",
          "types": [
            "postal_code"
          ]
        }
      ],
      "formatted_address": "South Dayton, NY 14138, USA",
      "geometry": {
        "bounds": {
          "northeast": {
            "lat": 42.3702028,
            "lng": -79.04110589999999
          },
          "southwest": {
            "lat": 42.3555099,
            "lng": -79.060823
          }
        },
        "location": {
          "lat": 42.3642269,
          "lng": -79.0555948
        },
        "location_type": "APPROXIMATE",
        "viewport": {
          "northeast": {
            "lat": 42.3702028,
            "lng": -79.04110589999999
          },
          "southwest": {
            "lat": 42.3555099,
            "lng": -79.060823
          }
        }
      },
      "place_id": "ChIJ8yKmQUPA0okRosiFFS2A6Js",
      "types": [
        "locality",
        "political"
      ]
    },
    {
      "address_components": [
        {
          "long_name": "Dayton",
          "short_name": "Dayton",
          "types": [
            "administrative_area_level_3",
            "political"
          ]
        },
        {
          "long_name": "Cattaraugus County",
          "short_name": "Cattaraugus County",
          "types": [
            "administrative_area_level_2",
            "political"
          ]
        },
        {
          "long_name": "New York",
          "short_name": "NY",
          "types": [
            "administrative_area_level_1",
            "political"
          ]
        },
        {
          "long_name": "United States",
          "short_name": "US",
          "types": [
            "country",
            "political"
          ]
        }
      ],
      "formatted_address": "Dayton, NY, USA",
      "geometry": {
        "bounds": {
          "northeast": {
            "lat": 42.435814,
            "lng": -78.9432719
          },
          "southwest": {
            "lat": 42.346905,
            "lng": -79.06119509999999
          }
        },
        "location": {
          "lat": 42.3924559,
          "lng": -78.9966888
        },
        "location_type": "APPROXIMATE",
        "viewport": {
          "northeast": {
            "lat": 42.435814,
            "lng": -78.9432719
          },
          "southwest": {
            "lat": 42.346905,
            "lng": -79.06119509999999
          }
        }
      },
      "place_id": "ChIJ11BFYmvq0okRGTZ_wYdjS74",
      "types": [
        "administrative_area_level_3",
        "political"
      ]
    },
    {
      "address_components": [
        {
          "long_name": "14138",
          "short_name": "14138",
          "types": [
            "postal_code"
          ]
        },
        {
          "long_name": "South Dayton",
          "short_name": "South Dayton",
          "types": [
            "locality",
            "political"
          ]
        },
        {
          "long_name": "New York",
          "short_name": "NY",
          "types": [
            "administrative_area_level_1",
            "political"
          ]
        },
        {
          "long_name": "United States",
          "short_name": "US",
          "types": [
            "country",
            "political"
          ]
        }
      ],
      "formatted_address": "South Dayton, NY 14138, USA",
      "geometry": {
        "bounds": {
          "northeast": {
            "lat": 42.4680909,
            "lng": -78.986828
          },
          "southwest": {
            "lat": 42.30377,
            "lng": -79.15965109999999
          }
        },
        "location": {
          "lat": 42.3579282,
          "lng": -79.0419053
        },
        "location_type": "APPROXIMATE",
        "viewport": {
          "northeast": {
            "lat": 42.4680909,
            "lng": -78.986828
          },
          "southwest": {
            "lat": 42.30377,
            "lng": -79.15965109999999
          }
        }
      },
      "place_id": "ChIJlUdNy0TA0okRuYI0-lmDPKw",
      "types": [
        "postal_code"
      ]
    },
    {
      "address_components": [
        {
          "long_name": "Cattaraugus County",
          "short_name": "Cattaraugus County",
          "types": [
            "administrative_area_level_2",
            "political"
          ]
        },
        {
          "long_name": "New York",
          "short_name": "NY",
          "types": [
            "administrative_area_level_1",
            "political"
          ]
        },
        {
          "long_name": "United States",
          "short_name": "US",
          "types": [
            "country",
            "political"
          ]
        }
      ],
      "formatted_address": "Cattaraugus County, NY, USA",
      "geometry": {
        "bounds": {
          "northeast": {
            "lat": 42.543306,
            "lng": -78.30808100000002
          },
          "southwest": {
            "lat": 41.997559,
            "lng": -79.061287
          }
        },
        "location": {
          "lat": 42.2318132,
          "lng": -78.74762079999999
        },
        "location_type": "APPROXIMATE",
        "viewport": {
          "northeast": {
            "lat": 42.543306,
            "lng": -78.30808100000002
          },
          "southwest": {
            "lat": 41.997559,
            "lng": -79.061287
          }
        }
      },
      "place_id": "ChIJO6mJu_oZ14kRCF72TKld9KM",
      "types": [
        "administrative_area_level_2",
        "political"
      ]
    },
    {
      "address_components": [
        {
          "long_name": "Olean",
          "short_name": "Olean",
          "types": [
            "political"
          ]
        },
        {
          "long_name": "United States",
          "short_name": "US",
          "types": [
            "country",
            "political"
          ]
        }
      ],
      "formatted_address": "Olean, USA",
      "geometry": {
        "bounds": {
          "northeast": {
            "lat": 42.54261899999999,
            "lng": -78.3081279
          },
          "southwest": {
            "lat": 41.997559,
            "lng": -79.061287
          }
        },
        "location": {
          "lat": 42.2318132,
          "lng": -78.74762079999999
        },
        "location_type": "APPROXIMATE",
        "viewport": {
          "northeast": {
            "lat": 42.54261899999999,
            "lng": -78.3081279
          },
          "southwest": {
            "lat": 41.997559,
            "lng": -79.061287
          }
        }
      },
      "place_id": "ChIJ82X9DWqK0okR8lymG-e5sdo",
      "types": [
        "political"
      ]
    },
    {
      "address_components": [
        {
          "long_name": "New York",
          "short_name": "NY",
          "types": [
            "administrative_area_level_1",
            "political"
          ]
        },
        {
          "long_name": "United States",
          "short_name": "US",
          "types": [
            "country",
            "political"
          ]
        }
      ],
      "formatted_address": "New York, USA",
      "geometry": {
        "bounds": {
          "northeast": {
            "lat": 45.015865,
            "lng": -71.85620639999999
          },
          "southwest": {
            "lat": 40.496091,
            "lng": -79.76214379999999
          }
        },
        "location": {
          "lat": 43.2994285,
          "lng": -74.21793260000001
        },
        "location_type": "APPROXIMATE",
        "viewport": {
          "northeast": {
            "lat": 45.015859,
            "lng": -71.85620639999999
          },
          "southwest": {
            "lat": 40.496091,
            "lng": -79.76214379999999
          }
        }
      },
      "place_id": "ChIJqaUj8fBLzEwRZ5UY3sHGz90",
      "types": [
        "administrative_area_level_1",
        "political"
      ]
    },
    {
      "address_components": [
        {
          "long_name": "United States",
          "short_name": "US",
          "types": [
            "country",
            "political"
          ]
        }
      ],
      "formatted_address": "United States",
      "geometry": {
        "bounds": {
          "northeast": {
            "lat": 71.3867745,
            "lng": -66.9502861
          },
          "southwest": {
            "lat": 18.9106768,
            "lng": 172.4458955
          }
        },
        "location": {
          "lat": 37.09024,
          "lng": -95.712891
        },
        "location_type": "APPROXIMATE",
        "viewport": {
          "northeast": {
            "lat": 49.38,
            "lng": -66.94
          },
          "southwest": {
            "lat": 25.82,
            "lng": -124.39
          }
        }
      },
      "place_id": "ChIJCzYy5IS16lQRQrfeQ5K5Oxw",
      "types": [
        "country",
        "political"
      ]
    }
  ],
  "status": "OK"
}
