{
  "results": [
    {
      "address_components": [
        {
          "long_name": "101-109",
          "short_name": "101-109",
          "types": [
            "street_number"
          ]
        },
        {
          "long_name": "West 5th Street",
          "short_name": "W 5th St",
          "types": [
            "route"
          ]
        },
        {
          "long_name": "Belle",
          "short_name": "Belle",
          "types": [
            "locality",
            "political"
          ]
        },
        {
          "long_name": "Jefferson Township",
          "short_name": "Jefferson Township",
          "types": [
            "administrative_area_level_3",
            "political"
          ]
        },
        {
          "long_name": "Maries County",
          "short_name": "Maries County",
          "types": [
            "administrative_area_level_2",
            "political"
          ]
        },
        {
          "long_name": "Missouri",
          "short_name": "MO",
          "types": [
            "administrative_area_level_1",
            "political"
          ]
        },
        {
          "long_name": "United States",
          "short_name": "US",
          "types": [
            "country",
            "political"
          ]
        },
        {
          "long_name": "65013",
          "short_name": "65013",
          "types": [
            "postal_code"
          ]
        },
        {
          "long_name": "2455",
          "short_name": "2455",
          "types": [
            "postal_code_suffix"
          ]
        }
      ],
      "formatted_address": "101-109 W 5th St, Belle, MO 65013, USA",
      "geometry": {
        "bounds": {
          "northeast": {
            "lat": 38.2849043,
            "lng": -91.720935
          },
          "southwest": {
            "lat": 38.2848727,
            "lng": -91.7222316
          }
        },
        "location": {
          "lat": 38.2848675,
          "lng": -91.7218382
        },
        "location_type": "RANGE_INTERPOLATED",
        "viewport": {
          "northeast": {
            "lat": 38.2862374802915,
            "lng": -91.7202343197085
          },
          "southwest": {
            "lat": 38.2835395197085,
            "lng": -91.7229322802915
          }
        }
      },
      "place_id": "EiYxMDEtMTA5IFcgNXRoIFN0LCBCZWxsZSwgTU8gNjUwMTMsIFVTQQ",
      "types": [
        "street_address"
      ]
    },
    {
      "address_components": [
        {
          "long_name": "Belle",
          "short_name": "Belle",
          "types": [
            "locality",
            "political"
          ]
        },
        {
          "long_name": "Jefferson Township",
          "short_name": "Jefferson Township",
          "types": [
            "administrative_area_level_3",
            "political"
          ]
        },
        {
          "long_name": "Maries County",
          "short_name": "Maries County",
          "types": [
            "administrative_area_level_2",
            "political"
          ]
        },
        {
          "long_name": "Missouri",
          "short_name": "MO",
          "types": [
            "administrative_area_level_1",
            "political"
          ]
        },
        {
          "long_name": "United States",
          "short_name": "US",
          "types": [
            "country",
            "political"
          ]
        },
        {
          "long_name": "65013",
          "short_name": "65013",
          "types": [
            "postal_code"
          ]
        }
      ],
      "formatted_address": "Belle, MO 65013, USA",
      "geometry": {
        "bounds": {
          "northeast": {
            "lat": 38.29627199999999,
            "lng": -91.704561
          },
          "southwest": {
            "lat": 38.2757869,
            "lng": -91.7423369
          }
        },
        "location": {
          "lat": 38.2858788,
          "lng": -91.720442
        },
        "location_type": "APPROXIMATE",
        "viewport": {
          "northeast": {
            "lat": 38.29627199999999,
            "lng": -91.704561
          },
          "southwest": {
            "lat": 38.2757869,
            "lng": -91.7423369
          }
        }
      },
      "place_id": "ChIJJaRHH5uh24cRPe2uYiqbVfE",
      "types": [
        "locality",
        "political"
      ]
    },
    {
      "address_components": [
        {
          "long_name": "Jefferson Township",
          "short_name": "Jefferson Township",
          "types": [
            "administrative_area_level_3",
            "political"
          ]
        },
        {
          "long_name": "Maries County",
          "short_name": "Maries County",
          "types": [
            "administrative_area_level_2",
            "political"
          ]
        },
        {
          "long_name": "Missouri",
          "short_name": "MO",
          "types": [
            "administrative_area_level_1",
            "political"
          ]
        },
        {
          "long_name": "United States",
          "short_name": "US",
          "types": [
            "country",
            "political"
          ]
        }
      ],
      "formatted_address": "Jefferson Township, MO, USA",
      "geometry": {
        "bounds": {
          "northeast": {
            "lat": 38.29361,
            "lng": -91.64455690000001
          },
          "southwest": {
            "lat": 38.1536789,
            "lng": -91.87051509999999
          }
        },
        "location": {
          "lat": 38.2405405,
          "lng": -91.7344155
        },
        "location_type": "APPROXIMATE",
        "viewport": {
          "northeast": {
            "lat": 38.29361,
            "lng": -91.64455690000001
          },
          "southwest": {
            "lat": 38.1536789,
            "lng": -91.87051509999999
          }
        }
      },
      "place_id": "ChIJWc_hF1Sh24cRY-juMeDtJvg",
      "types": [
        "administrative_area_level_3",
        "political"
      ]
    },
    {
      "address_components": [
        {
          "long_name": "65013",
          "short_name": "65013",
          "types": [
            "postal_code"
          ]
        },
        {
          "long_name": "Belle",
          "short_name": "Belle",
          "types": [
            "locality",
            "political"
          ]
        },
        {
          "long_name": "Missouri",
          "short_name": "MO",
          "types": [
            "administrative_area_level_1",
            "political"
          ]
        },
        {
          "long_name": "United States",
          "short_name": "US",
          "types": [
            "country",
            "political"
          ]
        }
      ],
      "formatted_address": "Belle, MO 65013, USA",
      "geometry": {
        "bounds": {
          "northeast": {
            "lat": 38.394597,
            "lng": -91.6417649
          },
          "southwest": {
            "lat": 38.1577241,
            "lng": -91.8710609
          }
        },
        "location": {
          "lat": 38.28214090000001,
          "lng": -91.7733566
        },
        "location_type": "APPROXIMATE",
        "viewport": {
          "northeast": {
            "lat": 38.394597,
            "lng": -91.6417649
          },
          "southwest": {
            "lat": 38.1577241,
            "lng": -91.8710609
          }
        }
      },
      "place_id": "ChIJq2Tu-4eh24cR_CtSFwD09AY",
      "types": [
        "postal_code"
      ]
    },
    {
      "address_components": [
        {
          "long_name": "Maries County",
          "short_name": "Maries County",
          "types": [
            "administrative_area_level_2",
            "political"
          ]
        },
        {
          "long_name": "Missouri",
          "short_name": "MO",
          "types": [
            "administrative_area_level_1",
            "political"
          ]
        },
        {
          "long_name": "United States",
          "short_name": "US",
          "types": [
            "country",
            "political"
          ]
        }
      ],
      "formatted_address": "Maries County, MO, USA",
      "geometry": {
        "bounds": {
          "northeast": {
            "lat": 38.29361,
            "lng": -91.6305539
          },
          "southwest": {
            "lat": 38.009622,
            "lng": -92.19777289999999
          }
        },
        "location": {
          "lat": 38.1738674,
          "lng": -91.949021
        },
        "location_type": "APPROXIMATE",
        "viewport": {
          "northeast": {
            "lat": 38.29361,
            "lng": -91.6305539
          },
          "southwest": {
            "lat": 38.009622,
            "lng": -92.19777289999999
          }
        }
      },
      "place_id": "ChIJn3VcgJMF24cRGxPnXvu4Ono",
      "types": [
        "administrative_area_level_2",
        "political"
      ]
    },
    {
      "address_components": [
        {
          "long_name": "Missouri",
          "short_name": "MO",
          "types": [
            "administrative_area_level_1",
            "political"
          ]
        },
        {
          "long_name": "United States",
          "short_name": "US",
          "types": [
            "country",
            "political"
          ]
        }
      ],
      "formatted_address": "Missouri, USA",
      "geometry": {
        "bounds": {
          "northeast": {
            "lat": 40.61364,
            "lng": -89.09949399999999
          },
          "southwest": {
            "lat": 35.9956829,
            "lng": -95.774704
          }
        },
        "location": {
          "lat": 37.9642529,
          "lng": -91.8318334
        },
        "location_type": "APPROXIMATE",
        "viewport": {
          "northeast": {
            "lat": 40.61364,
            "lng": -89.09949399999999
          },
          "southwest": {
            "lat": 35.9956829,
            "lng": -95.774704
          }
        }
      },
      "place_id": "ChIJfeMiSNXmwIcRcr1mBFnEW7U",
      "types": [
        "administrative_area_level_1",
        "political"
      ]
    },
    {
      "address_components": [
        {
          "long_name": "United States",
          "short_name": "US",
          "types": [
            "country",
            "political"
          ]
        }
      ],
      "formatted_address": "United States",
      "geometry": {
        "bounds": {
          "northeast": {
            "lat": 71.3867745,
            "lng": -66.9502861
          },
          "southwest": {
            "lat": 18.9106768,
            "lng": 172.4458955
          }
        },
        "location": {
          "lat": 37.09024,
          "lng": -95.712891
        },
        "location_type": "APPROXIMATE",
        "viewport": {
          "northeast": {
            "lat": 49.38,
            "lng": -66.94
          },
          "southwest": {
            "lat": 25.82,
            "lng": -124.39
          }
        }
      },
      "place_id": "ChIJCzYy5IS16lQRQrfeQ5K5Oxw",
      "types": [
        "country",
        "political"
      ]
    }
  ],
  "status": "OK"
}
