{
  "results": [
    {
      "address_components": [
        {
          "long_name": "1808-1998",
          "short_name": "1808-1998",
          "types": [
            "street_number"
          ]
        },
        {
          "long_name": "Wheeler Road",
          "short_name": "Wheeler Rd",
          "types": [
            "route"
          ]
        },
        {
          "long_name": "Snover",
          "short_name": "Snover",
          "types": [
            "locality",
            "political"
          ]
        },
        {
          "long_name": "Moore Township",
          "short_name": "Moore Township",
          "types": [
            "administrative_area_level_3",
            "political"
          ]
        },
        {
          "long_name": "Sanilac County",
          "short_name": "Sanilac County",
          "types": [
            "administrative_area_level_2",
            "political"
          ]
        },
        {
          "long_name": "Michigan",
          "short_name": "MI",
          "types": [
            "administrative_area_level_1",
            "political"
          ]
        },
        {
          "long_name": "United States",
          "short_name": "US",
          "types": [
            "country",
            "political"
          ]
        },
        {
          "long_name": "48472",
          "short_name": "48472",
          "types": [
            "postal_code"
          ]
        },
        {
          "long_name": "9380",
          "short_name": "9380",
          "types": [
            "postal_code_suffix"
          ]
        }
      ],
      "formatted_address": "1808-1998 Wheeler Rd, Snover, MI 48472, USA",
      "geometry": {
        "bounds": {
          "northeast": {
            "lat": 43.4756648,
            "lng": -82.97083169999999
          },
          "southwest": {
            "lat": 43.464376,
            "lng": -82.9714351
          }
        },
        "location": {
          "lat": 43.4652945,
          "lng": -82.970862
        },
        "location_type": "RANGE_INTERPOLATED",
        "viewport": {
          "northeast": {
            "lat": 43.4756648,
            "lng": -82.96978441970849
          },
          "southwest": {
            "lat": 43.464376,
            "lng": -82.97248238029151
          }
        }
      },
      "place_id": "EisxODA4LTE5OTggV2hlZWxlciBSZCwgU25vdmVyLCBNSSA0ODQ3MiwgVVNB",
      "types": [
        "street_address"
      ]
    },
    {
      "address_components": [
        {
          "long_name": "Moore Township",
          "short_name": "Moore Township",
          "types": [
            "administrative_area_level_3",
            "political"
          ]
        },
        {
          "long_name": "Sanilac County",
          "short_name": "Sanilac County",
          "types": [
            "administrative_area_level_2",
            "political"
          ]
        },
        {
          "long_name": "Michigan",
          "short_name": "MI",
          "types": [
            "administrative_area_level_1",
            "political"
          ]
        },
        {
          "long_name": "United States",
          "short_name": "US",
          "types": [
            "country",
            "political"
          ]
        }
      ],
      "formatted_address": "Moore Township, MI, USA",
      "geometry": {
        "bounds": {
          "northeast": {
            "lat": 43.508516,
            "lng": -82.8691541
          },
          "southwest": {
            "lat": 43.4171421,
            "lng": -82.9928839
          }
        },
        "location": {
          "lat": 43.4766072,
          "lng": -82.92864279999999
        },
        "location_type": "APPROXIMATE",
        "viewport": {
          "northeast": {
            "lat": 43.508516,
            "lng": -82.8691541
          },
          "southwest": {
            "lat": 43.4171421,
            "lng": -82.9928839
          }
        }
      },
      "place_id": "ChIJvQPWKOcsJIgRkX8ZgH9Vu-g",
      "types": [
        "administrative_area_level_3",
        "political"
      ]
    },
    {
      "address_components": [
        {
          "long_name": "48472",
          "short_name": "48472",
          "types": [
            "postal_code"
          ]
        },
        {
          "long_name": "Snover",
          "short_name": "Snover",
          "types": [
            "locality",
            "political"
          ]
        },
        {
          "long_name": "Sanilac County",
          "short_name": "Sanilac County",
          "types": [
            "administrative_area_level_2",
            "political"
          ]
        },
        {
          "long_name": "Michigan",
          "short_name": "MI",
          "types": [
            "administrative_area_level_1",
            "political"
          ]
        },
        {
          "long_name": "United States",
          "short_name": "US",
          "types": [
            "country",
            "political"
          ]
        }
      ],
      "formatted_address": "Snover, MI 48472, USA",
      "geometry": {
        "bounds": {
          "northeast": {
            "lat": 43.615186,
            "lng": -82.8543629
          },
          "southwest": {
            "lat": 43.415504,
            "lng": -83.0483869
          }
        },
        "location": {
          "lat": 43.5175779,
          "lng": -82.9716617
        },
        "location_type": "APPROXIMATE",
        "viewport": {
          "northeast": {
            "lat": 43.615186,
            "lng": -82.8543629
          },
          "southwest": {
            "lat": 43.415504,
            "lng": -83.0483869
          }
        }
      },
      "place_id": "ChIJzf8Q9YIrJIgRVqgsD2Fn1JI",
      "types": [
        "postal_code"
      ]
    },
    {
      "address_components": [
        {
          "long_name": "Sanilac County",
          "short_name": "Sanilac County",
          "types": [
            "administrative_area_level_2",
            "political"
          ]
        },
        {
          "long_name": "Michigan",
          "short_name": "MI",
          "types": [
            "administrative_area_level_1",
            "political"
          ]
        },
        {
          "long_name": "United States",
          "short_name": "US",
          "types": [
            "country",
            "political"
          ]
        }
      ],
      "formatted_address": "Sanilac County, MI, USA",
      "geometry": {
        "bounds": {
          "northeast": {
            "lat": 43.690439,
            "lng": -82.50316529999999
          },
          "southwest": {
            "lat": 43.1540989,
            "lng": -83.1203961
          }
        },
        "location": {
          "lat": 43.4069041,
          "lng": -82.7347142
        },
        "location_type": "APPROXIMATE",
        "viewport": {
          "northeast": {
            "lat": 43.690439,
            "lng": -82.50316529999999
          },
          "southwest": {
            "lat": 43.1540989,
            "lng": -83.1203961
          }
        }
      },
      "place_id": "ChIJ0_YoibvcJYgRyx7sDtOEhZU",
      "types": [
        "administrative_area_level_2",
        "political"
      ]
    },
    {
      "address_components": [
        {
          "long_name": "Michigan",
          "short_name": "MI",
          "types": [
            "administrative_area_level_1",
            "political"
          ]
        },
        {
          "long_name": "United States",
          "short_name": "US",
          "types": [
            "country",
            "political"
          ]
        }
      ],
      "formatted_address": "Michigan, USA",
      "geometry": {
        "bounds": {
          "northeast": {
            "lat": 48.1986461,
            "lng": -82.413474
          },
          "southwest": {
            "lat": 41.696118,
            "lng": -90.4181358
          }
        },
        "location": {
          "lat": 44.3148443,
          "lng": -85.60236429999999
        },
        "location_type": "APPROXIMATE",
        "viewport": {
          "northeast": {
            "lat": 48.198602,
            "lng": -82.413474
          },
          "southwest": {
            "lat": 41.696118,
            "lng": -90.4181358
          }
        }
      },
      "place_id": "ChIJEQTKxz2qTE0Rs8liellI3Zc",
      "types": [
        "administrative_area_level_1",
        "political"
      ]
    },
    {
      "address_components": [
        {
          "long_name": "United States",
          "short_name": "US",
          "types": [
            "country",
            "political"
          ]
        }
      ],
      "formatted_address": "United States",
      "geometry": {
        "bounds": {
          "northeast": {
            "lat": 71.3867745,
            "lng": -66.9502861
          },
          "southwest": {
            "lat": 18.9106768,
            "lng": 172.4458955
          }
        },
        "location": {
          "lat": 37.09024,
          "lng": -95.712891
        },
        "location_type": "APPROXIMATE",
        "viewport": {
          "northeast": {
            "lat": 49.38,
            "lng": -66.94
          },
          "southwest": {
            "lat": 25.82,
            "lng": -124.39
          }
        }
      },
      "place_id": "ChIJCzYy5IS16lQRQrfeQ5K5Oxw",
      "types": [
        "country",
        "political"
      ]
    }
  ],
  "status": "OK"
}
