{
  "results": [
    {
      "address_components": [
        {
          "long_name": "2-8",
          "short_name": "2-8",
          "types": [
            "street_number"
          ]
        },
        {
          "long_name": "Jay Street",
          "short_name": "Jay St",
          "types": [
            "route"
          ]
        },
        {
          "long_name": "Gainesville",
          "short_name": "Gainesville",
          "types": [
            "locality",
            "political"
          ]
        },
        {
          "long_name": "Gainesville",
          "short_name": "Gainesville",
          "types": [
            "administrative_area_level_3",
            "political"
          ]
        },
        {
          "long_name": "Wyoming County",
          "short_name": "Wyoming County",
          "types": [
            "administrative_area_level_2",
            "political"
          ]
        },
        {
          "long_name": "New York",
          "short_name": "NY",
          "types": [
            "administrative_area_level_1",
            "political"
          ]
        },
        {
          "long_name": "United States",
          "short_name": "US",
          "types": [
            "country",
            "political"
          ]
        },
        {
          "long_name": "14066",
          "short_name": "14066",
          "types": [
            "postal_code"
          ]
        }
      ],
      "formatted_address": "2-8 Jay St, Gainesville, NY 14066, USA",
      "geometry": {
        "bounds": {
          "northeast": {
            "lat": 42.6413662,
            "lng": -78.13414689999999
          },
          "southwest": {
            "lat": 42.6413198,
            "lng": -78.1356947
          }
        },
        "location": {
          "lat": 42.6413769,
          "lng": -78.1346535
        },
        "location_type": "RANGE_INTERPOLATED",
        "viewport": {
          "northeast": {
            "lat": 42.6426919802915,
            "lng": -78.1335718197085
          },
          "southwest": {
            "lat": 42.6399940197085,
            "lng": -78.1362697802915
          }
        }
      },
      "place_id": "EiYyLTggSmF5IFN0LCBHYWluZXN2aWxsZSwgTlkgMTQwNjYsIFVTQQ",
      "types": [
        "street_address"
      ]
    },
    {
      "address_components": [
        {
          "long_name": "Gainesville",
          "short_name": "Gainesville",
          "types": [
            "locality",
            "political"
          ]
        },
        {
          "long_name": "Gainesville",
          "short_name": "Gainesville",
          "types": [
            "administrative_area_level_3",
            "political"
          ]
        },
        {
          "long_name": "Wyoming County",
          "short_name": "Wyoming County",
          "types": [
            "administrative_area_level_2",
            "political"
          ]
        },
        {
          "long_name": "New York",
          "short_name": "NY",
          "types": [
            "administrative_area_level_1",
            "political"
          ]
        },
        {
          "long_name": "United States",
          "short_name": "US",
          "types": [
            "country",
            "political"
          ]
        },
        {
          "long_name": "14066",
          "short_name": "14066",
          "types": [
            "postal_code"
          ]
        }
      ],
      "formatted_address": "Gainesville, NY 14066, USA",
      "geometry": {
        "bounds": {
          "northeast": {
            "lat": 42.647398,
            "lng": -78.12425979999999
          },
          "southwest": {
            "lat": 42.635252,
            "lng": -78.14890799999999
          }
        },
        "location": {
          "lat": 42.6408954,
          "lng": -78.13389850000002
        },
        "location_type": "APPROXIMATE",
        "viewport": {
          "northeast": {
            "lat": 42.647398,
            "lng": -78.12425979999999
          },
          "southwest": {
            "lat": 42.635252,
            "lng": -78.14890799999999
          }
        }
      },
      "place_id": "ChIJz6AjanPO04kR4UzAYPk0KL4",
      "types": [
        "locality",
        "political"
      ]
    },
    {
      "address_components": [
        {
          "long_name": "Gainesville",
          "short_name": "Gainesville",
          "types": [
            "administrative_area_level_3",
            "political"
          ]
        },
        {
          "long_name": "Wyoming County",
          "short_name": "Wyoming County",
          "types": [
            "administrative_area_level_2",
            "political"
          ]
        },
        {
          "long_name": "New York",
          "short_name": "NY",
          "types": [
            "administrative_area_level_1",
            "political"
          ]
        },
        {
          "long_name": "United States",
          "short_name": "US",
          "types": [
            "country",
            "political"
          ]
        }
      ],
      "formatted_address": "Gainesville, NY, USA",
      "geometry": {
        "bounds": {
          "northeast": {
            "lat": 42.6960031,
            "lng": -78.074067
          },
          "southwest": {
            "lat": 42.6082619,
            "lng": -78.1914159
          }
        },
        "location": {
          "lat": 42.6542217,
          "lng": -78.13363799999999
        },
        "location_type": "APPROXIMATE",
        "viewport": {
          "northeast": {
            "lat": 42.6960031,
            "lng": -78.074067
          },
          "southwest": {
            "lat": 42.6082619,
            "lng": -78.1914159
          }
        }
      },
      "place_id": "ChIJH5ZSJBXO04kRSpDAwqCuemI",
      "types": [
        "administrative_area_level_3",
        "political"
      ]
    },
    {
      "address_components": [
        {
          "long_name": "14066",
          "short_name": "14066",
          "types": [
            "postal_code"
          ]
        },
        {
          "long_name": "Gainesville",
          "short_name": "Gainesville",
          "types": [
            "locality",
            "political"
          ]
        },
        {
          "long_name": "New York",
          "short_name": "NY",
          "types": [
            "administrative_area_level_1",
            "political"
          ]
        },
        {
          "long_name": "United States",
          "short_name": "US",
          "types": [
            "country",
            "political"
          ]
        }
      ],
      "formatted_address": "Gainesville, NY 14066, USA",
      "geometry": {
        "bounds": {
          "northeast": {
            "lat": 42.7052659,
            "lng": -78.0807459
          },
          "southwest": {
            "lat": 42.5197619,
            "lng": -78.30550509999999
          }
        },
        "location": {
          "lat": 42.6288297,
          "lng": -78.1678439
        },
        "location_type": "APPROXIMATE",
        "viewport": {
          "northeast": {
            "lat": 42.7052659,
            "lng": -78.0807459
          },
          "southwest": {
            "lat": 42.5197619,
            "lng": -78.30550509999999
          }
        }
      },
      "place_id": "ChIJKYre82rM04kRhPiYuHFuNCQ",
      "types": [
        "postal_code"
      ]
    },
    {
      "address_components": [
        {
          "long_name": "Wyoming County",
          "short_name": "Wyoming County",
          "types": [
            "administrative_area_level_2",
            "political"
          ]
        },
        {
          "long_name": "New York",
          "short_name": "NY",
          "types": [
            "administrative_area_level_1",
            "political"
          ]
        },
        {
          "long_name": "United States",
          "short_name": "US",
          "types": [
            "country",
            "political"
          ]
        }
      ],
      "formatted_address": "Wyoming County, NY, USA",
      "geometry": {
        "bounds": {
          "northeast": {
            "lat": 42.8703601,
            "lng": -77.95488
          },
          "southwest": {
            "lat": 42.5191661,
            "lng": -78.4881429
          }
        },
        "location": {
          "lat": 42.64205200000001,
          "lng": -78.2020387
        },
        "location_type": "APPROXIMATE",
        "viewport": {
          "northeast": {
            "lat": 42.8703601,
            "lng": -77.95488
          },
          "southwest": {
            "lat": 42.5191661,
            "lng": -78.4881429
          }
        }
      },
      "place_id": "ChIJkU0Hbc7I04kRc04rCVaSG14",
      "types": [
        "administrative_area_level_2",
        "political"
      ]
    },
    {
      "address_components": [
        {
          "long_name": "New York",
          "short_name": "NY",
          "types": [
            "administrative_area_level_1",
            "political"
          ]
        },
        {
          "long_name": "United States",
          "short_name": "US",
          "types": [
            "country",
            "political"
          ]
        }
      ],
      "formatted_address": "New York, USA",
      "geometry": {
        "bounds": {
          "northeast": {
            "lat": 45.015865,
            "lng": -71.85620639999999
          },
          "southwest": {
            "lat": 40.496091,
            "lng": -79.76214379999999
          }
        },
        "location": {
          "lat": 43.2994285,
          "lng": -74.21793260000001
        },
        "location_type": "APPROXIMATE",
        "viewport": {
          "northeast": {
            "lat": 45.015859,
            "lng": -71.85620639999999
          },
          "southwest": {
            "lat": 40.496091,
            "lng": -79.76214379999999
          }
        }
      },
      "place_id": "ChIJqaUj8fBLzEwRZ5UY3sHGz90",
      "types": [
        "administrative_area_level_1",
        "political"
      ]
    },
    {
      "address_components": [
        {
          "long_name": "United States",
          "short_name": "US",
          "types": [
            "country",
            "political"
          ]
        }
      ],
      "formatted_address": "United States",
      "geometry": {
        "bounds": {
          "northeast": {
            "lat": 71.3867745,
            "lng": -66.9502861
          },
          "southwest": {
            "lat": 18.9106768,
            "lng": 172.4458955
          }
        },
        "location": {
          "lat": 37.09024,
          "lng": -95.712891
        },
        "location_type": "APPROXIMATE",
        "viewport": {
          "northeast": {
            "lat": 49.38,
            "lng": -66.94
          },
          "southwest": {
            "lat": 25.82,
            "lng": -124.39
          }
        }
      },
      "place_id": "ChIJCzYy5IS16lQRQrfeQ5K5Oxw",
      "types": [
        "country",
        "political"
      ]
    }
  ],
  "status": "OK"
}
