{
  "results": [
    {
      "address_components": [
        {
          "long_name": "3rd Street",
          "short_name": "3rd St",
          "types": [
            "route"
          ]
        },
        {
          "long_name": "Johnson",
          "short_name": "Johnson",
          "types": [
            "locality",
            "political"
          ]
        },
        {
          "long_name": "Moonshine Township",
          "short_name": "Moonshine Township",
          "types": [
            "administrative_area_level_3",
            "political"
          ]
        },
        {
          "long_name": "Big Stone County",
          "short_name": "Big Stone County",
          "types": [
            "administrative_area_level_2",
            "political"
          ]
        },
        {
          "long_name": "Minnesota",
          "short_name": "MN",
          "types": [
            "administrative_area_level_1",
            "political"
          ]
        },
        {
          "long_name": "United States",
          "short_name": "US",
          "types": [
            "country",
            "political"
          ]
        },
        {
          "long_name": "56236",
          "short_name": "56236",
          "types": [
            "postal_code"
          ]
        }
      ],
      "formatted_address": "3rd St, Johnson, MN 56236, USA",
      "geometry": {
        "bounds": {
          "northeast": {
            "lat": 45.5729342,
            "lng": -96.29426600000001
          },
          "southwest": {
            "lat": 45.5719179,
            "lng": -96.2956901
          }
        },
        "location": {
          "lat": 45.57200719999999,
          "lng": -96.2943645
        },
        "location_type": "GEOMETRIC_CENTER",
        "viewport": {
          "northeast": {
            "lat": 45.57377503029149,
            "lng": -96.2936290697085
          },
          "southwest": {
            "lat": 45.57107706970849,
            "lng": -96.29632703029151
          }
        }
      },
      "place_id": "ChIJ7ROn5OaZy1IRIY8Qu0eSN90",
      "types": [
        "route"
      ]
    },
    {
      "address_components": [
        {
          "long_name": "Johnson",
          "short_name": "Johnson",
          "types": [
            "locality",
            "political"
          ]
        },
        {
          "long_name": "Moonshine Township",
          "short_name": "Moonshine Township",
          "types": [
            "administrative_area_level_3",
            "political"
          ]
        },
        {
          "long_name": "Big Stone County",
          "short_name": "Big Stone County",
          "types": [
            "administrative_area_level_2",
            "political"
          ]
        },
        {
          "long_name": "Minnesota",
          "short_name": "MN",
          "types": [
            "administrative_area_level_1",
            "political"
          ]
        },
        {
          "long_name": "United States",
          "short_name": "US",
          "types": [
            "country",
            "political"
          ]
        }
      ],
      "formatted_address": "Johnson, MN, USA",
      "geometry": {
        "bounds": {
          "northeast": {
            "lat": 45.574836,
            "lng": -96.282023
          },
          "southwest": {
            "lat": 45.567639,
            "lng": -96.3028831
          }
        },
        "location": {
          "lat": 45.5727408,
          "lng": -96.29533699999999
        },
        "location_type": "APPROXIMATE",
        "viewport": {
          "northeast": {
            "lat": 45.574836,
            "lng": -96.282023
          },
          "southwest": {
            "lat": 45.567639,
            "lng": -96.3028831
          }
        }
      },
      "place_id": "ChIJV7MaCOeZy1IRxhvh9xhV4RI",
      "types": [
        "locality",
        "political"
      ]
    },
    {
      "address_components": [
        {
          "long_name": "Moonshine Township",
          "short_name": "Moonshine Township",
          "types": [
            "administrative_area_level_3",
            "political"
          ]
        },
        {
          "long_name": "Big Stone County",
          "short_name": "Big Stone County",
          "types": [
            "administrative_area_level_2",
            "political"
          ]
        },
        {
          "long_name": "Minnesota",
          "short_name": "MN",
          "types": [
            "administrative_area_level_1",
            "political"
          ]
        },
        {
          "long_name": "United States",
          "short_name": "US",
          "types": [
            "country",
            "political"
          ]
        }
      ],
      "formatted_address": "Moonshine Township, MN, USA",
      "geometry": {
        "bounds": {
          "northeast": {
            "lat": 45.585463,
            "lng": -96.24080289999999
          },
          "southwest": {
            "lat": 45.49818,
            "lng": -96.370116
          }
        },
        "location": {
          "lat": 45.5602586,
          "lng": -96.28919300000001
        },
        "location_type": "APPROXIMATE",
        "viewport": {
          "northeast": {
            "lat": 45.585463,
            "lng": -96.24080289999999
          },
          "southwest": {
            "lat": 45.49818,
            "lng": -96.370116
          }
        }
      },
      "place_id": "ChIJncmqBi2ay1IRHvSNBXLMCXE",
      "types": [
        "administrative_area_level_3",
        "political"
      ]
    },
    {
      "address_components": [
        {
          "long_name": "56236",
          "short_name": "56236",
          "types": [
            "postal_code"
          ]
        },
        {
          "long_name": "Dumont",
          "short_name": "Dumont",
          "types": [
            "locality",
            "political"
          ]
        },
        {
          "long_name": "Minnesota",
          "short_name": "MN",
          "types": [
            "administrative_area_level_1",
            "political"
          ]
        },
        {
          "long_name": "United States",
          "short_name": "US",
          "types": [
            "country",
            "political"
          ]
        }
      ],
      "formatted_address": "Dumont, MN 56236, USA",
      "geometry": {
        "bounds": {
          "northeast": {
            "lat": 45.73014999999999,
            "lng": -96.2530259
          },
          "southwest": {
            "lat": 45.541936,
            "lng": -96.61457990000001
          }
        },
        "location": {
          "lat": 45.6678514,
          "lng": -96.4013883
        },
        "location_type": "APPROXIMATE",
        "viewport": {
          "northeast": {
            "lat": 45.73014999999999,
            "lng": -96.2530259
          },
          "southwest": {
            "lat": 45.541936,
            "lng": -96.61457990000001
          }
        }
      },
      "place_id": "ChIJMakXgRGSy1IRJwvfs_5cKBo",
      "postcode_localities": [
        "Dumont",
        "Johnson"
      ],
      "types": [
        "postal_code"
      ]
    },
    {
      "address_components": [
        {
          "long_name": "Big Stone County",
          "short_name": "Big Stone County",
          "types": [
            "administrative_area_level_2",
            "political"
          ]
        },
        {
          "long_name": "Minnesota",
          "short_name": "MN",
          "types": [
            "administrative_area_level_1",
            "political"
          ]
        },
        {
          "long_name": "United States",
          "short_name": "US",
          "types": [
            "country",
            "political"
          ]
        }
      ],
      "formatted_address": "Big Stone County, MN, USA",
      "geometry": {
        "bounds": {
          "northeast": {
            "lat": 45.586129,
            "lng": -96.10363989999999
          },
          "southwest": {
            "lat": 45.1832043,
            "lng": -96.83545099999999
          }
        },
        "location": {
          "lat": 45.4932045,
          "lng": -96.4724
        },
        "location_type": "APPROXIMATE",
        "viewport": {
          "northeast": {
            "lat": 45.586129,
            "lng": -96.10363989999999
          },
          "southwest": {
            "lat": 45.1832043,
            "lng": -96.83545099999999
          }
        }
      },
      "place_id": "ChIJRWF4dn-By1IREvCWf_S99GM",
      "types": [
        "administrative_area_level_2",
        "political"
      ]
    },
    {
      "address_components": [
        {
          "long_name": "Minnesota",
          "short_name": "MN",
          "types": [
            "administrative_area_level_1",
            "political"
          ]
        },
        {
          "long_name": "United States",
          "short_name": "US",
          "types": [
            "country",
            "political"
          ]
        }
      ],
      "formatted_address": "Minnesota, USA",
      "geometry": {
        "bounds": {
          "northeast": {
            "lat": 49.3828204,
            "lng": -89.49183339999999
          },
          "southwest": {
            "lat": 43.499361,
            "lng": -97.23919579999999
          }
        },
        "location": {
          "lat": 46.729553,
          "lng": -94.6858998
        },
        "location_type": "APPROXIMATE",
        "viewport": {
          "northeast": {
            "lat": 49.3826902,
            "lng": -89.49183339999999
          },
          "southwest": {
            "lat": 43.499361,
            "lng": -97.23919579999999
          }
        }
      },
      "place_id": "ChIJmwt4YJpbWE0RD6L-EJvJogI",
      "types": [
        "administrative_area_level_1",
        "political"
      ]
    },
    {
      "address_components": [
        {
          "long_name": "United States",
          "short_name": "US",
          "types": [
            "country",
            "political"
          ]
        }
      ],
      "formatted_address": "United States",
      "geometry": {
        "bounds": {
          "northeast": {
            "lat": 71.3867745,
            "lng": -66.9502861
          },
          "southwest": {
            "lat": 18.9106768,
            "lng": 172.4458955
          }
        },
        "location": {
          "lat": 37.09024,
          "lng": -95.712891
        },
        "location_type": "APPROXIMATE",
        "viewport": {
          "northeast": {
            "lat": 49.38,
            "lng": -66.94
          },
          "southwest": {
            "lat": 25.82,
            "lng": -124.39
          }
        }
      },
      "place_id": "ChIJCzYy5IS16lQRQrfeQ5K5Oxw",
      "types": [
        "country",
        "political"
      ]
    }
  ],
  "status": "OK"
}
