{
  "results": [
    {
      "address_components": [
        {
          "long_name": "8758",
          "short_name": "8758",
          "types": [
            "street_number"
          ]
        },
        {
          "long_name": "White Avenue",
          "short_name": "White Ave",
          "types": [
            "route"
          ]
        },
        {
          "long_name": "Brentwood",
          "short_name": "Brentwood",
          "types": [
            "locality",
            "political"
          ]
        },
        {
          "long_name": "Clayton Township",
          "short_name": "Clayton Township",
          "types": [
            "administrative_area_level_3",
            "political"
          ]
        },
        {
          "long_name": "St. Louis County",
          "short_name": "St Louis County",
          "types": [
            "administrative_area_level_2",
            "political"
          ]
        },
        {
          "long_name": "Missouri",
          "short_name": "MO",
          "types": [
            "administrative_area_level_1",
            "political"
          ]
        },
        {
          "long_name": "United States",
          "short_name": "US",
          "types": [
            "country",
            "political"
          ]
        },
        {
          "long_name": "63144",
          "short_name": "63144",
          "types": [
            "postal_code"
          ]
        },
        {
          "long_name": "2030",
          "short_name": "2030",
          "types": [
            "postal_code_suffix"
          ]
        }
      ],
      "formatted_address": "8758 White Ave, Brentwood, MO 63144, USA",
      "geometry": {
        "location": {
          "lat": 38.619557,
          "lng": -90.347656
        },
        "location_type": "ROOFTOP",
        "viewport": {
          "northeast": {
            "lat": 38.6209059802915,
            "lng": -90.34630701970849
          },
          "southwest": {
            "lat": 38.6182080197085,
            "lng": -90.3490049802915
          }
        }
      },
      "place_id": "ChIJ768FlQ_L2IcRBrGVy6q8uec",
      "types": [
        "street_address"
      ]
    },
    {
      "address_components": [
        {
          "long_name": "Brentwood",
          "short_name": "Brentwood",
          "types": [
            "locality",
            "political"
          ]
        },
        {
          "long_name": "Clayton Township",
          "short_name": "Clayton Township",
          "types": [
            "administrative_area_level_3",
            "political"
          ]
        },
        {
          "long_name": "St. Louis County",
          "short_name": "St Louis County",
          "types": [
            "administrative_area_level_2",
            "political"
          ]
        },
        {
          "long_name": "Missouri",
          "short_name": "MO",
          "types": [
            "administrative_area_level_1",
            "political"
          ]
        },
        {
          "long_name": "United States",
          "short_name": "US",
          "types": [
            "country",
            "political"
          ]
        }
      ],
      "formatted_address": "Brentwood, MO, USA",
      "geometry": {
        "bounds": {
          "northeast": {
            "lat": 38.630252,
            "lng": -90.3335149
          },
          "southwest": {
            "lat": 38.604752,
            "lng": -90.3623159
          }
        },
        "location": {
          "lat": 38.6175522,
          "lng": -90.34928289999999
        },
        "location_type": "APPROXIMATE",
        "viewport": {
          "northeast": {
            "lat": 38.630252,
            "lng": -90.3335149
          },
          "southwest": {
            "lat": 38.604752,
            "lng": -90.3623159
          }
        }
      },
      "place_id": "ChIJfU0REw_L2IcROjruxQQy4sg",
      "types": [
        "locality",
        "political"
      ]
    },
    {
      "address_components": [
        {
          "long_name": "63144",
          "short_name": "63144",
          "types": [
            "postal_code"
          ]
        },
        {
          "long_name": "St. Louis",
          "short_name": "St. Louis",
          "types": [
            "locality",
            "political"
          ]
        },
        {
          "long_name": "St. Louis County",
          "short_name": "St Louis County",
          "types": [
            "administrative_area_level_2",
            "political"
          ]
        },
        {
          "long_name": "Missouri",
          "short_name": "MO",
          "types": [
            "administrative_area_level_1",
            "political"
          ]
        },
        {
          "long_name": "United States",
          "short_name": "US",
          "types": [
            "country",
            "political"
          ]
        }
      ],
      "formatted_address": "St. Louis, MO 63144, USA",
      "geometry": {
        "bounds": {
          "northeast": {
            "lat": 38.6317529,
            "lng": -90.3298141
          },
          "southwest": {
            "lat": 38.6047859,
            "lng": -90.36395809999999
          }
        },
        "location": {
          "lat": 38.6157474,
          "lng": -90.3513021
        },
        "location_type": "APPROXIMATE",
        "viewport": {
          "northeast": {
            "lat": 38.6317529,
            "lng": -90.3298141
          },
          "southwest": {
            "lat": 38.6047859,
            "lng": -90.36395809999999
          }
        }
      },
      "place_id": "ChIJSUiZpg_L2IcRhbJKwE1E47c",
      "postcode_localities": [
        "Brentwood",
        "St. Louis"
      ],
      "types": [
        "postal_code"
      ]
    },
    {
      "address_components": [
        {
          "long_name": "Clayton Township",
          "short_name": "Clayton Township",
          "types": [
            "administrative_area_level_3",
            "political"
          ]
        },
        {
          "long_name": "St. Louis County",
          "short_name": "St Louis County",
          "types": [
            "administrative_area_level_2",
            "political"
          ]
        },
        {
          "long_name": "Missouri",
          "short_name": "MO",
          "types": [
            "administrative_area_level_1",
            "political"
          ]
        },
        {
          "long_name": "United States",
          "short_name": "US",
          "types": [
            "country",
            "political"
          ]
        }
      ],
      "formatted_address": "Clayton Township, MO, USA",
      "geometry": {
        "bounds": {
          "northeast": {
            "lat": 38.661615,
            "lng": -90.3201139
          },
          "southwest": {
            "lat": 38.598652,
            "lng": -90.4253179
          }
        },
        "location": {
          "lat": 38.6314692,
          "lng": -90.3560076
        },
        "location_type": "APPROXIMATE",
        "viewport": {
          "northeast": {
            "lat": 38.661615,
            "lng": -90.3201139
          },
          "southwest": {
            "lat": 38.598652,
            "lng": -90.4253179
          }
        }
      },
      "place_id": "ChIJSQyNhB_L2IcRePh-IybzBZk",
      "types": [
        "administrative_area_level_3",
        "political"
      ]
    },
    {
      "address_components": [
        {
          "long_name": "St. Louis County",
          "short_name": "St Louis County",
          "types": [
            "administrative_area_level_2",
            "political"
          ]
        },
        {
          "long_name": "Missouri",
          "short_name": "MO",
          "types": [
            "administrative_area_level_1",
            "political"
          ]
        },
        {
          "long_name": "United States",
          "short_name": "US",
          "types": [
            "country",
            "political"
          ]
        }
      ],
      "formatted_address": "St Louis County, MO, USA",
      "geometry": {
        "bounds": {
          "northeast": {
            "lat": 38.8911839,
            "lng": -90.11770709999999
          },
          "southwest": {
            "lat": 38.396902,
            "lng": -90.7365301
          }
        },
        "location": {
          "lat": 38.6103023,
          "lng": -90.4125181
        },
        "location_type": "APPROXIMATE",
        "viewport": {
          "northeast": {
            "lat": 38.8911839,
            "lng": -90.11770709999999
          },
          "southwest": {
            "lat": 38.396902,
            "lng": -90.7365301
          }
        }
      },
      "place_id": "ChIJBe3muPnK2IcRO8QfrOB9Xn0",
      "types": [
        "administrative_area_level_2",
        "political"
      ]
    },
    {
      "address_components": [
        {
          "long_name": "St. Louis",
          "short_name": "St. Louis",
          "types": [
            "political"
          ]
        },
        {
          "long_name": "United States",
          "short_name": "US",
          "types": [
            "country",
            "political"
          ]
        }
      ],
      "formatted_address": "St. Louis, USA",
      "geometry": {
        "bounds": {
          "northeast": {
            "lat": 39.5233661,
            "lng": -89.138356
          },
          "southwest": {
            "lat": 37.7341961,
            "lng": -91.4186371
          }
        },
        "location": {
          "lat": 38.8196814,
          "lng": -90.4502368
        },
        "location_type": "APPROXIMATE",
        "viewport": {
          "northeast": {
            "lat": 39.5233661,
            "lng": -89.138356
          },
          "southwest": {
            "lat": 37.7341961,
            "lng": -91.4186371
          }
        }
      },
      "place_id": "ChIJneBzzj4z34cRFGg2ez6q57o",
      "types": [
        "political"
      ]
    },
    {
      "address_components": [
        {
          "long_name": "Missouri",
          "short_name": "MO",
          "types": [
            "administrative_area_level_1",
            "political"
          ]
        },
        {
          "long_name": "United States",
          "short_name": "US",
          "types": [
            "country",
            "political"
          ]
        }
      ],
      "formatted_address": "Missouri, USA",
      "geometry": {
        "bounds": {
          "northeast": {
            "lat": 40.61364,
            "lng": -89.09949399999999
          },
          "southwest": {
            "lat": 35.9956829,
            "lng": -95.774704
          }
        },
        "location": {
          "lat": 37.9642529,
          "lng": -91.8318334
        },
        "location_type": "APPROXIMATE",
        "viewport": {
          "northeast": {
            "lat": 40.61364,
            "lng": -89.09949399999999
          },
          "southwest": {
            "lat": 35.9956829,
            "lng": -95.774704
          }
        }
      },
      "place_id": "ChIJfeMiSNXmwIcRcr1mBFnEW7U",
      "types": [
        "administrative_area_level_1",
        "political"
      ]
    },
    {
      "address_components": [
        {
          "long_name": "United States",
          "short_name": "US",
          "types": [
            "country",
            "political"
          ]
        }
      ],
      "formatted_address": "United States",
      "geometry": {
        "bounds": {
          "northeast": {
            "lat": 71.3867745,
            "lng": -66.9502861
          },
          "southwest": {
            "lat": 18.9106768,
            "lng": 172.4458955
          }
        },
        "location": {
          "lat": 37.09024,
          "lng": -95.712891
        },
        "location_type": "APPROXIMATE",
        "viewport": {
          "northeast": {
            "lat": 49.38,
            "lng": -66.94
          },
          "southwest": {
            "lat": 25.82,
            "lng": -124.39
          }
        }
      },
      "place_id": "ChIJCzYy5IS16lQRQrfeQ5K5Oxw",
      "types": [
        "country",
        "political"
      ]
    }
  ],
  "status": "OK"
}
