{
  "results": [
    {
      "address_components": [
        {
          "long_name": "146",
          "short_name": "146",
          "types": [
            "street_number"
          ]
        },
        {
          "long_name": "Dover Road Northwest",
          "short_name": "Dover Rd NW",
          "types": [
            "route"
          ]
        },
        {
          "long_name": "Sugarcreek",
          "short_name": "Sugarcreek",
          "types": [
            "locality",
            "political"
          ]
        },
        {
          "long_name": "Sugar Creek Township",
          "short_name": "Sugar Creek Township",
          "types": [
            "administrative_area_level_3",
            "political"
          ]
        },
        {
          "long_name": "Tuscarawas County",
          "short_name": "Tuscarawas County",
          "types": [
            "administrative_area_level_2",
            "political"
          ]
        },
        {
          "long_name": "Ohio",
          "short_name": "OH",
          "types": [
            "administrative_area_level_1",
            "political"
          ]
        },
        {
          "long_name": "United States",
          "short_name": "US",
          "types": [
            "country",
            "political"
          ]
        },
        {
          "long_name": "44681",
          "short_name": "44681",
          "types": [
            "postal_code"
          ]
        },
        {
          "long_name": "9309",
          "short_name": "9309",
          "types": [
            "postal_code_suffix"
          ]
        }
      ],
      "formatted_address": "146 Dover Rd NW, Sugarcreek, OH 44681, USA",
      "geometry": {
        "bounds": {
          "northeast": {
            "lat": 40.5077719,
            "lng": -81.63993529999999
          },
          "southwest": {
            "lat": 40.5067363,
            "lng": -81.6408963
          }
        },
        "location": {
          "lat": 40.5072541,
          "lng": -81.6404158
        },
        "location_type": "ROOFTOP",
        "viewport": {
          "northeast": {
            "lat": 40.5086030802915,
            "lng": -81.63906681970849
          },
          "southwest": {
            "lat": 40.50590511970851,
            "lng": -81.6417647802915
          }
        }
      },
      "place_id": "ChIJv0FaSiQbN4gRgKummIcT_1E",
      "types": [
        "premise"
      ]
    },
    {
      "address_components": [
        {
          "long_name": "381-399",
          "short_name": "381-399",
          "types": [
            "street_number"
          ]
        },
        {
          "long_name": "Fairview Avenue Northwest",
          "short_name": "Fairview Ave NW",
          "types": [
            "route"
          ]
        },
        {
          "long_name": "Sugarcreek",
          "short_name": "Sugarcreek",
          "types": [
            "locality",
            "political"
          ]
        },
        {
          "long_name": "Sugar Creek Township",
          "short_name": "Sugar Creek Township",
          "types": [
            "administrative_area_level_3",
            "political"
          ]
        },
        {
          "long_name": "Tuscarawas County",
          "short_name": "Tuscarawas County",
          "types": [
            "administrative_area_level_2",
            "political"
          ]
        },
        {
          "long_name": "Ohio",
          "short_name": "OH",
          "types": [
            "administrative_area_level_1",
            "political"
          ]
        },
        {
          "long_name": "United States",
          "short_name": "US",
          "types": [
            "country",
            "political"
          ]
        },
        {
          "long_name": "44681",
          "short_name": "44681",
          "types": [
            "postal_code"
          ]
        }
      ],
      "formatted_address": "381-399 Fairview Ave NW, Sugarcreek, OH 44681, USA",
      "geometry": {
        "bounds": {
          "northeast": {
            "lat": 40.5080337,
            "lng": -81.64096049999999
          },
          "southwest": {
            "lat": 40.5075103,
            "lng": -81.6409931
          }
        },
        "location": {
          "lat": 40.5076205,
          "lng": -81.6409674
        },
        "location_type": "RANGE_INTERPOLATED",
        "viewport": {
          "northeast": {
            "lat": 40.5091209802915,
            "lng": -81.6396278197085
          },
          "southwest": {
            "lat": 40.5064230197085,
            "lng": -81.6423257802915
          }
        }
      },
      "place_id": "EjIzODEtMzk5IEZhaXJ2aWV3IEF2ZSBOVywgU3VnYXJjcmVlaywgT0ggNDQ2ODEsIFVTQQ",
      "types": [
        "street_address"
      ]
    },
    {
      "address_components": [
        {
          "long_name": "Sugarcreek",
          "short_name": "Sugarcreek",
          "types": [
            "locality",
            "political"
          ]
        },
        {
          "long_name": "Sugar Creek Township",
          "short_name": "Sugar Creek Township",
          "types": [
            "administrative_area_level_3",
            "political"
          ]
        },
        {
          "long_name": "Tuscarawas County",
          "short_name": "Tuscarawas County",
          "types": [
            "administrative_area_level_2",
            "political"
          ]
        },
        {
          "long_name": "Ohio",
          "short_name": "OH",
          "types": [
            "administrative_area_level_1",
            "political"
          ]
        },
        {
          "long_name": "United States",
          "short_name": "US",
          "types": [
            "country",
            "political"
          ]
        },
        {
          "long_name": "44681",
          "short_name": "44681",
          "types": [
            "postal_code"
          ]
        }
      ],
      "formatted_address": "Sugarcreek, OH 44681, USA",
      "geometry": {
        "bounds": {
          "northeast": {
            "lat": 40.5236779,
            "lng": -81.6055219
          },
          "southwest": {
            "lat": 40.4934699,
            "lng": -81.6675199
          }
        },
        "location": {
          "lat": 40.50312,
          "lng": -81.6409582
        },
        "location_type": "APPROXIMATE",
        "viewport": {
          "northeast": {
            "lat": 40.5236779,
            "lng": -81.6055219
          },
          "southwest": {
            "lat": 40.4934699,
            "lng": -81.6675199
          }
        }
      },
      "place_id": "ChIJ5eKkuuICN4gRG1xanJ--ra4",
      "types": [
        "locality",
        "political"
      ]
    },
    {
      "address_components": [
        {
          "long_name": "Sugar Creek Township",
          "short_name": "Sugar Creek Township",
          "types": [
            "administrative_area_level_3",
            "political"
          ]
        },
        {
          "long_name": "Tuscarawas County",
          "short_name": "Tuscarawas County",
          "types": [
            "administrative_area_level_2",
            "political"
          ]
        },
        {
          "long_name": "Ohio",
          "short_name": "OH",
          "types": [
            "administrative_area_level_1",
            "political"
          ]
        },
        {
          "long_name": "United States",
          "short_name": "US",
          "types": [
            "country",
            "political"
          ]
        }
      ],
      "formatted_address": "Sugar Creek Township, OH, USA",
      "geometry": {
        "bounds": {
          "northeast": {
            "lat": 40.554222,
            "lng": -81.5693469
          },
          "southwest": {
            "lat": 40.4847898,
            "lng": -81.6678029
          }
        },
        "location": {
          "lat": 40.513561,
          "lng": -81.6254283
        },
        "location_type": "APPROXIMATE",
        "viewport": {
          "northeast": {
            "lat": 40.554222,
            "lng": -81.5693469
          },
          "southwest": {
            "lat": 40.4847898,
            "lng": -81.6678029
          }
        }
      },
      "place_id": "ChIJTcTS6m4bN4gRrbRBKGgB1_E",
      "types": [
        "administrative_area_level_3",
        "political"
      ]
    },
    {
      "address_components": [
        {
          "long_name": "44681",
          "short_name": "44681",
          "types": [
            "postal_code"
          ]
        },
        {
          "long_name": "Sugarcreek",
          "short_name": "Sugarcreek",
          "types": [
            "locality",
            "political"
          ]
        },
        {
          "long_name": "Ohio",
          "short_name": "OH",
          "types": [
            "administrative_area_level_1",
            "political"
          ]
        },
        {
          "long_name": "United States",
          "short_name": "US",
          "types": [
            "country",
            "political"
          ]
        }
      ],
      "formatted_address": "Sugarcreek, OH 44681, USA",
      "geometry": {
        "bounds": {
          "northeast": {
            "lat": 40.57495,
            "lng": -81.43862
          },
          "southwest": {
            "lat": 40.3600429,
            "lng": -81.7806951
          }
        },
        "location": {
          "lat": 40.51673900000001,
          "lng": -81.6692532
        },
        "location_type": "APPROXIMATE",
        "viewport": {
          "northeast": {
            "lat": 40.57495,
            "lng": -81.5607
          },
          "southwest": {
            "lat": 40.38883,
            "lng": -81.7806951
          }
        }
      },
      "place_id": "ChIJ-9eZZy0FN4gRlMaIwK76VQU",
      "types": [
        "postal_code"
      ]
    },
    {
      "address_components": [
        {
          "long_name": "Tuscarawas County",
          "short_name": "Tuscarawas County",
          "types": [
            "administrative_area_level_2",
            "political"
          ]
        },
        {
          "long_name": "Ohio",
          "short_name": "OH",
          "types": [
            "administrative_area_level_1",
            "political"
          ]
        },
        {
          "long_name": "United States",
          "short_name": "US",
          "types": [
            "country",
            "political"
          ]
        }
      ],
      "formatted_address": "Tuscarawas County, OH, USA",
      "geometry": {
        "bounds": {
          "northeast": {
            "lat": 40.66656,
            "lng": -81.264744
          },
          "southwest": {
            "lat": 40.2142529,
            "lng": -81.71228789999999
          }
        },
        "location": {
          "lat": 40.3978972,
          "lng": -81.42789839999999
        },
        "location_type": "APPROXIMATE",
        "viewport": {
          "northeast": {
            "lat": 40.66656,
            "lng": -81.264744
          },
          "southwest": {
            "lat": 40.2142529,
            "lng": -81.71228789999999
          }
        }
      },
      "place_id": "ChIJX75qi5EFN4gRDg7GQPSxw1U",
      "types": [
        "administrative_area_level_2",
        "political"
      ]
    },
    {
      "address_components": [
        {
          "long_name": "Ohio",
          "short_name": "OH",
          "types": [
            "administrative_area_level_1",
            "political"
          ]
        },
        {
          "long_name": "United States",
          "short_name": "US",
          "types": [
            "country",
            "political"
          ]
        }
      ],
      "formatted_address": "Ohio, USA",
      "geometry": {
        "bounds": {
          "northeast": {
            "lat": 41.9773019,
            "lng": -80.5182
          },
          "southwest": {
            "lat": 38.4034229,
            "lng": -84.8203049
          }
        },
        "location": {
          "lat": 40.4172871,
          "lng": -82.90712300000001
        },
        "location_type": "APPROXIMATE",
        "viewport": {
          "northeast": {
            "lat": 41.9773019,
            "lng": -80.5182
          },
          "southwest": {
            "lat": 38.4034229,
            "lng": -84.8203049
          }
        }
      },
      "place_id": "ChIJwY5NtXrpNogRFtmfnDlkzeU",
      "types": [
        "administrative_area_level_1",
        "political"
      ]
    },
    {
      "address_components": [
        {
          "long_name": "United States",
          "short_name": "US",
          "types": [
            "country",
            "political"
          ]
        }
      ],
      "formatted_address": "United States",
      "geometry": {
        "bounds": {
          "northeast": {
            "lat": 71.3867745,
            "lng": -66.9502861
          },
          "southwest": {
            "lat": 18.9106768,
            "lng": 172.4458955
          }
        },
        "location": {
          "lat": 37.09024,
          "lng": -95.712891
        },
        "location_type": "APPROXIMATE",
        "viewport": {
          "northeast": {
            "lat": 49.38,
            "lng": -66.94
          },
          "southwest": {
            "lat": 25.82,
            "lng": -124.39
          }
        }
      },
      "place_id": "ChIJCzYy5IS16lQRQrfeQ5K5Oxw",
      "types": [
        "country",
        "political"
      ]
    }
  ],
  "status": "OK"
}
