{
  "results": [
    {
      "address_components": [
        {
          "long_name": "62-198",
          "short_name": "62-198",
          "types": [
            "street_number"
          ]
        },
        {
          "long_name": "Lower Pleasant Valley Road",
          "short_name": "Lower Pleasant Valley Rd",
          "types": [
            "route"
          ]
        },
        {
          "long_name": "Jeffersonville",
          "short_name": "Jeffersonville",
          "types": [
            "neighborhood",
            "political"
          ]
        },
        {
          "long_name": "Cambridge",
          "short_name": "Cambridge",
          "types": [
            "locality",
            "political"
          ]
        },
        {
          "long_name": "Lamoille County",
          "short_name": "Lamoille County",
          "types": [
            "administrative_area_level_2",
            "political"
          ]
        },
        {
          "long_name": "Vermont",
          "short_name": "VT",
          "types": [
            "administrative_area_level_1",
            "political"
          ]
        },
        {
          "long_name": "United States",
          "short_name": "US",
          "types": [
            "country",
            "political"
          ]
        },
        {
          "long_name": "05464",
          "short_name": "05464",
          "types": [
            "postal_code"
          ]
        }
      ],
      "formatted_address": "62-198 Lower Pleasant Valley Rd, Jeffersonville, VT 05464, USA",
      "geometry": {
        "bounds": {
          "northeast": {
            "lat": 44.641153,
            "lng": -72.8741604
          },
          "southwest": {
            "lat": 44.6402373,
            "lng": -72.8750605
          }
        },
        "location": {
          "lat": 44.64074859999999,
          "lng": -72.87482279999999
        },
        "location_type": "RANGE_INTERPOLATED",
        "viewport": {
          "northeast": {
            "lat": 44.6420441302915,
            "lng": -72.8732614697085
          },
          "southwest": {
            "lat": 44.6393461697085,
            "lng": -72.8759594302915
          }
        }
      },
      "place_id": "Ej42Mi0xOTggTG93ZXIgUGxlYXNhbnQgVmFsbGV5IFJkLCBKZWZmZXJzb252aWxsZSwgVlQgMDU0NjQsIFVTQQ",
      "types": [
        "street_address"
      ]
    },
    {
      "address_components": [
        {
          "long_name": "Cambridge",
          "short_name": "Cambridge",
          "types": [
            "neighborhood",
            "political"
          ]
        },
        {
          "long_name": "Cambridge",
          "short_name": "Cambridge",
          "types": [
            "locality",
            "political"
          ]
        },
        {
          "long_name": "Lamoille County",
          "short_name": "Lamoille County",
          "types": [
            "administrative_area_level_2",
            "political"
          ]
        },
        {
          "long_name": "Vermont",
          "short_name": "VT",
          "types": [
            "administrative_area_level_1",
            "political"
          ]
        },
        {
          "long_name": "United States",
          "short_name": "US",
          "types": [
            "country",
            "political"
          ]
        }
      ],
      "formatted_address": "Cambridge, Cambridge, VT, USA",
      "geometry": {
        "bounds": {
          "northeast": {
            "lat": 44.653202,
            "lng": -72.8690989
          },
          "southwest": {
            "lat": 44.6253989,
            "lng": -72.890152
          }
        },
        "location": {
          "lat": 44.6447722,
          "lng": -72.87624149999999
        },
        "location_type": "APPROXIMATE",
        "viewport": {
          "northeast": {
            "lat": 44.653202,
            "lng": -72.8690989
          },
          "southwest": {
            "lat": 44.6253989,
            "lng": -72.890152
          }
        }
      },
      "place_id": "ChIJJcUJ9_H0tUwRcQFacEpo2lE",
      "types": [
        "neighborhood",
        "political"
      ]
    },
    {
      "address_components": [
        {
          "long_name": "Cambridge",
          "short_name": "Cambridge",
          "types": [
            "locality",
            "political"
          ]
        },
        {
          "long_name": "Lamoille County",
          "short_name": "Lamoille County",
          "types": [
            "administrative_area_level_2",
            "political"
          ]
        },
        {
          "long_name": "Vermont",
          "short_name": "VT",
          "types": [
            "administrative_area_level_1",
            "political"
          ]
        },
        {
          "long_name": "United States",
          "short_name": "US",
          "types": [
            "country",
            "political"
          ]
        }
      ],
      "formatted_address": "Cambridge, VT, USA",
      "geometry": {
        "bounds": {
          "northeast": {
            "lat": 44.7110701,
            "lng": -72.72682
          },
          "southwest": {
            "lat": 44.5414849,
            "lng": -72.927241
          }
        },
        "location": {
          "lat": 44.6447724,
          "lng": -72.87627719999999
        },
        "location_type": "APPROXIMATE",
        "viewport": {
          "northeast": {
            "lat": 44.7110701,
            "lng": -72.72682
          },
          "southwest": {
            "lat": 44.5414849,
            "lng": -72.927241
          }
        }
      },
      "place_id": "ChIJO_beWA3ztUwRm3iNRMxd0_I",
      "types": [
        "locality",
        "political"
      ]
    },
    {
      "address_components": [
        {
          "long_name": "05464",
          "short_name": "05464",
          "types": [
            "postal_code"
          ]
        },
        {
          "long_name": "Jeffersonville",
          "short_name": "Jeffersonville",
          "types": [
            "neighborhood",
            "political"
          ]
        },
        {
          "long_name": "Vermont",
          "short_name": "VT",
          "types": [
            "administrative_area_level_1",
            "political"
          ]
        },
        {
          "long_name": "United States",
          "short_name": "US",
          "types": [
            "country",
            "political"
          ]
        }
      ],
      "formatted_address": "Jeffersonville, VT 05464, USA",
      "geometry": {
        "bounds": {
          "northeast": {
            "lat": 44.7386841,
            "lng": -72.72682
          },
          "southwest": {
            "lat": 44.5414849,
            "lng": -72.923846
          }
        },
        "location": {
          "lat": 44.65238360000001,
          "lng": -72.81204050000001
        },
        "location_type": "APPROXIMATE",
        "viewport": {
          "northeast": {
            "lat": 44.7386841,
            "lng": -72.72682
          },
          "southwest": {
            "lat": 44.5414849,
            "lng": -72.923846
          }
        }
      },
      "place_id": "ChIJYzk0Wg3ztUwRXYdwyfbhmv8",
      "types": [
        "postal_code"
      ]
    },
    {
      "address_components": [
        {
          "long_name": "Lamoille County",
          "short_name": "Lamoille County",
          "types": [
            "administrative_area_level_2",
            "political"
          ]
        },
        {
          "long_name": "Vermont",
          "short_name": "VT",
          "types": [
            "administrative_area_level_1",
            "political"
          ]
        },
        {
          "long_name": "United States",
          "short_name": "US",
          "types": [
            "country",
            "political"
          ]
        }
      ],
      "formatted_address": "Lamoille County, VT, USA",
      "geometry": {
        "bounds": {
          "northeast": {
            "lat": 44.801587,
            "lng": -72.368151
          },
          "southwest": {
            "lat": 44.398224,
            "lng": -72.927241
          }
        },
        "location": {
          "lat": 44.64334179999999,
          "lng": -72.6314026
        },
        "location_type": "APPROXIMATE",
        "viewport": {
          "northeast": {
            "lat": 44.801587,
            "lng": -72.368151
          },
          "southwest": {
            "lat": 44.398224,
            "lng": -72.927241
          }
        }
      },
      "place_id": "ChIJpxExxW3stUwRAYb0piOiwG4",
      "types": [
        "administrative_area_level_2",
        "political"
      ]
    },
    {
      "address_components": [
        {
          "long_name": "Vermont",
          "short_name": "VT",
          "types": [
            "administrative_area_level_1",
            "political"
          ]
        },
        {
          "long_name": "United States",
          "short_name": "US",
          "types": [
            "country",
            "political"
          ]
        }
      ],
      "formatted_address": "Vermont, USA",
      "geometry": {
        "bounds": {
          "northeast": {
            "lat": 45.0166591,
            "lng": -71.46503899999999
          },
          "southwest": {
            "lat": 42.7268499,
            "lng": -73.43055980000001
          }
        },
        "location": {
          "lat": 44.5588028,
          "lng": -72.57784149999999
        },
        "location_type": "APPROXIMATE",
        "viewport": {
          "northeast": {
            "lat": 45.0166591,
            "lng": -71.46503899999999
          },
          "southwest": {
            "lat": 42.7268499,
            "lng": -73.43055980000001
          }
        }
      },
      "place_id": "ChIJ_87aSGzctEwRtGtUNnSJTSY",
      "types": [
        "administrative_area_level_1",
        "political"
      ]
    },
    {
      "address_components": [
        {
          "long_name": "United States",
          "short_name": "US",
          "types": [
            "country",
            "political"
          ]
        }
      ],
      "formatted_address": "United States",
      "geometry": {
        "bounds": {
          "northeast": {
            "lat": 71.3867745,
            "lng": -66.9502861
          },
          "southwest": {
            "lat": 18.9106768,
            "lng": 172.4458955
          }
        },
        "location": {
          "lat": 37.09024,
          "lng": -95.712891
        },
        "location_type": "APPROXIMATE",
        "viewport": {
          "northeast": {
            "lat": 49.38,
            "lng": -66.94
          },
          "southwest": {
            "lat": 25.82,
            "lng": -124.39
          }
        }
      },
      "place_id": "ChIJCzYy5IS16lQRQrfeQ5K5Oxw",
      "types": [
        "country",
        "political"
      ]
    }
  ],
  "status": "OK"
}
