{
  "results": [
    {
      "address_components": [
        {
          "long_name": "252-298",
          "short_name": "252-298",
          "types": [
            "street_number"
          ]
        },
        {
          "long_name": "West Erb Avenue",
          "short_name": "W Erb Ave",
          "types": [
            "route"
          ]
        },
        {
          "long_name": "Summerfield",
          "short_name": "Summerfield",
          "types": [
            "locality",
            "political"
          ]
        },
        {
          "long_name": "St. Bridget",
          "short_name": "St Bridget",
          "types": [
            "administrative_area_level_3",
            "political"
          ]
        },
        {
          "long_name": "Marshall County",
          "short_name": "Marshall County",
          "types": [
            "administrative_area_level_2",
            "political"
          ]
        },
        {
          "long_name": "Kansas",
          "short_name": "KS",
          "types": [
            "administrative_area_level_1",
            "political"
          ]
        },
        {
          "long_name": "United States",
          "short_name": "US",
          "types": [
            "country",
            "political"
          ]
        },
        {
          "long_name": "66541",
          "short_name": "66541",
          "types": [
            "postal_code"
          ]
        }
      ],
      "formatted_address": "252-298 W Erb Ave, Summerfield, KS 66541, USA",
      "geometry": {
        "bounds": {
          "northeast": {
            "lat": 39.9972327,
            "lng": -96.3492527
          },
          "southwest": {
            "lat": 39.9972259,
            "lng": -96.349885
          }
        },
        "location": {
          "lat": 39.9972467,
          "lng": -96.34928520000001
        },
        "location_type": "RANGE_INTERPOLATED",
        "viewport": {
          "northeast": {
            "lat": 39.9985782802915,
            "lng": -96.34821986970849
          },
          "southwest": {
            "lat": 39.9958803197085,
            "lng": -96.3509178302915
          }
        }
      },
      "place_id": "Ei0yNTItMjk4IFcgRXJiIEF2ZSwgU3VtbWVyZmllbGQsIEtTIDY2NTQxLCBVU0E",
      "types": [
        "street_address"
      ]
    },
    {
      "address_components": [
        {
          "long_name": "Summerfield",
          "short_name": "Summerfield",
          "types": [
            "locality",
            "political"
          ]
        },
        {
          "long_name": "Marshall County",
          "short_name": "Marshall County",
          "types": [
            "administrative_area_level_2",
            "political"
          ]
        },
        {
          "long_name": "Kansas",
          "short_name": "KS",
          "types": [
            "administrative_area_level_1",
            "political"
          ]
        },
        {
          "long_name": "United States",
          "short_name": "US",
          "types": [
            "country",
            "political"
          ]
        }
      ],
      "formatted_address": "Summerfield, KS, USA",
      "geometry": {
        "bounds": {
          "northeast": {
            "lat": 40.000958,
            "lng": -96.34177799999999
          },
          "southwest": {
            "lat": 39.990083,
            "lng": -96.3549199
          }
        },
        "location": {
          "lat": 39.9972231,
          "lng": -96.3502917
        },
        "location_type": "APPROXIMATE",
        "viewport": {
          "northeast": {
            "lat": 40.000958,
            "lng": -96.34177799999999
          },
          "southwest": {
            "lat": 39.990083,
            "lng": -96.3549199
          }
        }
      },
      "place_id": "ChIJJQfzHBTjlYcRZsy-5yHVIoA",
      "types": [
        "locality",
        "political"
      ]
    },
    {
      "address_components": [
        {
          "long_name": "St. Bridget",
          "short_name": "St Bridget",
          "types": [
            "administrative_area_level_3",
            "political"
          ]
        },
        {
          "long_name": "Marshall County",
          "short_name": "Marshall County",
          "types": [
            "administrative_area_level_2",
            "political"
          ]
        },
        {
          "long_name": "Kansas",
          "short_name": "KS",
          "types": [
            "administrative_area_level_1",
            "political"
          ]
        },
        {
          "long_name": "United States",
          "short_name": "US",
          "types": [
            "country",
            "political"
          ]
        }
      ],
      "formatted_address": "St Bridget, KS, USA",
      "geometry": {
        "bounds": {
          "northeast": {
            "lat": 40.000972,
            "lng": -96.2390021
          },
          "southwest": {
            "lat": 39.9142249,
            "lng": -96.35203790000001
          }
        },
        "location": {
          "lat": 39.953785,
          "lng": -96.30134319999999
        },
        "location_type": "APPROXIMATE",
        "viewport": {
          "northeast": {
            "lat": 40.000972,
            "lng": -96.2390021
          },
          "southwest": {
            "lat": 39.9142249,
            "lng": -96.35203790000001
          }
        }
      },
      "place_id": "ChIJw5V1Izz7lYcR099R1ynb0Ik",
      "types": [
        "administrative_area_level_3",
        "political"
      ]
    },
    {
      "address_components": [
        {
          "long_name": "66541",
          "short_name": "66541",
          "types": [
            "postal_code"
          ]
        },
        {
          "long_name": "Summerfield",
          "short_name": "Summerfield",
          "types": [
            "locality",
            "political"
          ]
        },
        {
          "long_name": "Kansas",
          "short_name": "KS",
          "types": [
            "administrative_area_level_1",
            "political"
          ]
        },
        {
          "long_name": "United States",
          "short_name": "US",
          "types": [
            "country",
            "political"
          ]
        }
      ],
      "formatted_address": "Summerfield, KS 66541, USA",
      "geometry": {
        "bounds": {
          "northeast": {
            "lat": 40.0300801,
            "lng": -96.19196389999999
          },
          "southwest": {
            "lat": 39.899927,
            "lng": -96.463712
          }
        },
        "location": {
          "lat": 39.9827322,
          "lng": -96.333242
        },
        "location_type": "APPROXIMATE",
        "viewport": {
          "northeast": {
            "lat": 40.0300801,
            "lng": -96.19196389999999
          },
          "southwest": {
            "lat": 39.899927,
            "lng": -96.463712
          }
        }
      },
      "place_id": "ChIJH1mua5X8lYcRUvjdKB1Ka6M",
      "types": [
        "postal_code"
      ]
    },
    {
      "address_components": [
        {
          "long_name": "Marshall County",
          "short_name": "Marshall County",
          "types": [
            "administrative_area_level_2",
            "political"
          ]
        },
        {
          "long_name": "Kansas",
          "short_name": "KS",
          "types": [
            "administrative_area_level_1",
            "political"
          ]
        },
        {
          "long_name": "United States",
          "short_name": "US",
          "types": [
            "country",
            "political"
          ]
        }
      ],
      "formatted_address": "Marshall County, KS, USA",
      "geometry": {
        "bounds": {
          "northeast": {
            "lat": 40.00154089999999,
            "lng": -96.238969
          },
          "southwest": {
            "lat": 39.56592510000001,
            "lng": -96.80674789999999
          }
        },
        "location": {
          "lat": 39.717719,
          "lng": -96.49297969999999
        },
        "location_type": "APPROXIMATE",
        "viewport": {
          "northeast": {
            "lat": 40.00154089999999,
            "lng": -96.238969
          },
          "southwest": {
            "lat": 39.56592510000001,
            "lng": -96.80674789999999
          }
        }
      },
      "place_id": "ChIJ4-8pfVsClocRyAjDeLDW3s4",
      "types": [
        "administrative_area_level_2",
        "political"
      ]
    },
    {
      "address_components": [
        {
          "long_name": "Kansas",
          "short_name": "KS",
          "types": [
            "administrative_area_level_1",
            "political"
          ]
        },
        {
          "long_name": "United States",
          "short_name": "US",
          "types": [
            "country",
            "political"
          ]
        }
      ],
      "formatted_address": "Kansas, USA",
      "geometry": {
        "bounds": {
          "northeast": {
            "lat": 40.0045419,
            "lng": -94.588387
          },
          "southwest": {
            "lat": 36.9930159,
            "lng": -102.0517688
          }
        },
        "location": {
          "lat": 39.011902,
          "lng": -98.4842465
        },
        "location_type": "APPROXIMATE",
        "viewport": {
          "northeast": {
            "lat": 40.0045419,
            "lng": -94.588387
          },
          "southwest": {
            "lat": 36.9930159,
            "lng": -102.0517688
          }
        }
      },
      "place_id": "ChIJawF8cXEXo4cRXwk-S6m0wmg",
      "types": [
        "administrative_area_level_1",
        "political"
      ]
    },
    {
      "address_components": [
        {
          "long_name": "United States",
          "short_name": "US",
          "types": [
            "country",
            "political"
          ]
        }
      ],
      "formatted_address": "United States",
      "geometry": {
        "bounds": {
          "northeast": {
            "lat": 71.3867745,
            "lng": -66.9502861
          },
          "southwest": {
            "lat": 18.9106768,
            "lng": 172.4458955
          }
        },
        "location": {
          "lat": 37.09024,
          "lng": -95.712891
        },
        "location_type": "APPROXIMATE",
        "viewport": {
          "northeast": {
            "lat": 49.38,
            "lng": -66.94
          },
          "southwest": {
            "lat": 25.82,
            "lng": -124.39
          }
        }
      },
      "place_id": "ChIJCzYy5IS16lQRQrfeQ5K5Oxw",
      "types": [
        "country",
        "political"
      ]
    }
  ],
  "status": "OK"
}
