{
  "results": [
    {
      "address_components": [
        {
          "long_name": "200",
          "short_name": "200",
          "types": [
            "street_number"
          ]
        },
        {
          "long_name": "South Main Street",
          "short_name": "S Main St",
          "types": [
            "route"
          ]
        },
        {
          "long_name": "Hutchinson",
          "short_name": "Hutchinson",
          "types": [
            "locality",
            "political"
          ]
        },
        {
          "long_name": "Center",
          "short_name": "Center",
          "types": [
            "administrative_area_level_3",
            "political"
          ]
        },
        {
          "long_name": "Reno County",
          "short_name": "Reno County",
          "types": [
            "administrative_area_level_2",
            "political"
          ]
        },
        {
          "long_name": "Kansas",
          "short_name": "KS",
          "types": [
            "administrative_area_level_1",
            "political"
          ]
        },
        {
          "long_name": "United States",
          "short_name": "US",
          "types": [
            "country",
            "political"
          ]
        },
        {
          "long_name": "67501",
          "short_name": "67501",
          "types": [
            "postal_code"
          ]
        }
      ],
      "formatted_address": "200 S Main St, Hutchinson, KS 67501, USA",
      "geometry": {
        "location": {
          "lat": 37.9665,
          "lng": -98.0919
        },
        "location_type": "ROOFTOP",
        "viewport": {
          "northeast": {
            "lat": 37.96784898029149,
            "lng": -98.0905510197085
          },
          "southwest": {
            "lat": 37.96515101970849,
            "lng": -98.0932489802915
          }
        }
      },
      "place_id": "ChIJ_QF-Dp3BpIcRSPWC6zndE7I",
      "types": [
        "street_address"
      ]
    },
    {
      "address_components": [
        {
          "long_name": "Partridge",
          "short_name": "Partridge",
          "types": [
            "locality",
            "political"
          ]
        },
        {
          "long_name": "Center",
          "short_name": "Center",
          "types": [
            "administrative_area_level_3",
            "political"
          ]
        },
        {
          "long_name": "Reno County",
          "short_name": "Reno County",
          "types": [
            "administrative_area_level_2",
            "political"
          ]
        },
        {
          "long_name": "Kansas",
          "short_name": "KS",
          "types": [
            "administrative_area_level_1",
            "political"
          ]
        },
        {
          "long_name": "United States",
          "short_name": "US",
          "types": [
            "country",
            "political"
          ]
        },
        {
          "long_name": "67566",
          "short_name": "67566",
          "types": [
            "postal_code"
          ]
        }
      ],
      "formatted_address": "Partridge, KS 67566, USA",
      "geometry": {
        "bounds": {
          "northeast": {
            "lat": 37.9710679,
            "lng": -98.082344
          },
          "southwest": {
            "lat": 37.961763,
            "lng": -98.1007769
          }
        },
        "location": {
          "lat": 37.9672349,
          "lng": -98.0925584
        },
        "location_type": "APPROXIMATE",
        "viewport": {
          "northeast": {
            "lat": 37.9710679,
            "lng": -98.082344
          },
          "southwest": {
            "lat": 37.961763,
            "lng": -98.1007769
          }
        }
      },
      "place_id": "ChIJRVf3ypnBpIcRaE6EePdpeTg",
      "types": [
        "locality",
        "political"
      ]
    },
    {
      "address_components": [
        {
          "long_name": "Center",
          "short_name": "Center",
          "types": [
            "administrative_area_level_3",
            "political"
          ]
        },
        {
          "long_name": "Reno County",
          "short_name": "Reno County",
          "types": [
            "administrative_area_level_2",
            "political"
          ]
        },
        {
          "long_name": "Kansas",
          "short_name": "KS",
          "types": [
            "administrative_area_level_1",
            "political"
          ]
        },
        {
          "long_name": "United States",
          "short_name": "US",
          "types": [
            "country",
            "political"
          ]
        }
      ],
      "formatted_address": "Center, KS, USA",
      "geometry": {
        "bounds": {
          "northeast": {
            "lat": 37.999612,
            "lng": -98.0315298
          },
          "southwest": {
            "lat": 37.911956,
            "lng": -98.1422559
          }
        },
        "location": {
          "lat": 37.9765094,
          "lng": -98.06834300000001
        },
        "location_type": "APPROXIMATE",
        "viewport": {
          "northeast": {
            "lat": 37.999612,
            "lng": -98.0315298
          },
          "southwest": {
            "lat": 37.911956,
            "lng": -98.1422559
          }
        }
      },
      "place_id": "ChIJeXJP5YDBpIcREf6eXp2FoyU",
      "types": [
        "administrative_area_level_3",
        "political"
      ]
    },
    {
      "address_components": [
        {
          "long_name": "67566",
          "short_name": "67566",
          "types": [
            "postal_code"
          ]
        },
        {
          "long_name": "Partridge",
          "short_name": "Partridge",
          "types": [
            "locality",
            "political"
          ]
        },
        {
          "long_name": "Reno County",
          "short_name": "Reno County",
          "types": [
            "administrative_area_level_2",
            "political"
          ]
        },
        {
          "long_name": "Kansas",
          "short_name": "KS",
          "types": [
            "administrative_area_level_1",
            "political"
          ]
        },
        {
          "long_name": "United States",
          "short_name": "US",
          "types": [
            "country",
            "political"
          ]
        }
      ],
      "formatted_address": "Partridge, KS 67566, USA",
      "geometry": {
        "bounds": {
          "northeast": {
            "lat": 38.04329389999999,
            "lng": -98.031808
          },
          "southwest": {
            "lat": 37.839335,
            "lng": -98.179177
          }
        },
        "location": {
          "lat": 37.9313884,
          "lng": -98.1120116
        },
        "location_type": "APPROXIMATE",
        "viewport": {
          "northeast": {
            "lat": 38.04329389999999,
            "lng": -98.031808
          },
          "southwest": {
            "lat": 37.839335,
            "lng": -98.179177
          }
        }
      },
      "place_id": "ChIJHRpjnybCpIcRrZu-sYHgjVQ",
      "types": [
        "postal_code"
      ]
    },
    {
      "address_components": [
        {
          "long_name": "Hutchinson",
          "short_name": "Hutchinson",
          "types": [
            "political"
          ]
        },
        {
          "long_name": "Kansas",
          "short_name": "KS",
          "types": [
            "administrative_area_level_1",
            "political"
          ]
        },
        {
          "long_name": "United States",
          "short_name": "US",
          "types": [
            "country",
            "political"
          ]
        }
      ],
      "formatted_address": "Hutchinson, KS, USA",
      "geometry": {
        "bounds": {
          "northeast": {
            "lat": 38.17385300000001,
            "lng": -97.698719
          },
          "southwest": {
            "lat": 37.7326409,
            "lng": -98.47312989999999
          }
        },
        "location": {
          "lat": 37.9569553,
          "lng": -98.04651849999999
        },
        "location_type": "APPROXIMATE",
        "viewport": {
          "northeast": {
            "lat": 38.17385300000001,
            "lng": -97.698719
          },
          "southwest": {
            "lat": 37.7326409,
            "lng": -98.47312989999999
          }
        }
      },
      "place_id": "ChIJM4xQldXDpIcROZyNwAW_xKU",
      "types": [
        "political"
      ]
    },
    {
      "address_components": [
        {
          "long_name": "Reno County",
          "short_name": "Reno County",
          "types": [
            "administrative_area_level_2",
            "political"
          ]
        },
        {
          "long_name": "Kansas",
          "short_name": "KS",
          "types": [
            "administrative_area_level_1",
            "political"
          ]
        },
        {
          "long_name": "United States",
          "short_name": "US",
          "types": [
            "country",
            "political"
          ]
        }
      ],
      "formatted_address": "Reno County, KS, USA",
      "geometry": {
        "bounds": {
          "northeast": {
            "lat": 38.173918,
            "lng": -97.698692
          },
          "southwest": {
            "lat": 37.732456,
            "lng": -98.47312989999999
          }
        },
        "location": {
          "lat": 37.9569553,
          "lng": -98.04651849999999
        },
        "location_type": "APPROXIMATE",
        "viewport": {
          "northeast": {
            "lat": 38.173918,
            "lng": -97.698692
          },
          "southwest": {
            "lat": 37.732456,
            "lng": -98.47312989999999
          }
        }
      },
      "place_id": "ChIJ8Z28CKeXpIcR7D3waqYIh-0",
      "types": [
        "administrative_area_level_2",
        "political"
      ]
    },
    {
      "address_components": [
        {
          "long_name": "Kansas",
          "short_name": "KS",
          "types": [
            "administrative_area_level_1",
            "political"
          ]
        },
        {
          "long_name": "United States",
          "short_name": "US",
          "types": [
            "country",
            "political"
          ]
        }
      ],
      "formatted_address": "Kansas, USA",
      "geometry": {
        "bounds": {
          "northeast": {
            "lat": 40.0045419,
            "lng": -94.588387
          },
          "southwest": {
            "lat": 36.9930159,
            "lng": -102.0517688
          }
        },
        "location": {
          "lat": 39.011902,
          "lng": -98.4842465
        },
        "location_type": "APPROXIMATE",
        "viewport": {
          "northeast": {
            "lat": 40.0045419,
            "lng": -94.588387
          },
          "southwest": {
            "lat": 36.9930159,
            "lng": -102.0517688
          }
        }
      },
      "place_id": "ChIJawF8cXEXo4cRXwk-S6m0wmg",
      "types": [
        "administrative_area_level_1",
        "political"
      ]
    },
    {
      "address_components": [
        {
          "long_name": "United States",
          "short_name": "US",
          "types": [
            "country",
            "political"
          ]
        }
      ],
      "formatted_address": "United States",
      "geometry": {
        "bounds": {
          "northeast": {
            "lat": 71.3867745,
            "lng": -66.9502861
          },
          "southwest": {
            "lat": 18.9106768,
            "lng": 172.4458955
          }
        },
        "location": {
          "lat": 37.09024,
          "lng": -95.712891
        },
        "location_type": "APPROXIMATE",
        "viewport": {
          "northeast": {
            "lat": 49.38,
            "lng": -66.94
          },
          "southwest": {
            "lat": 25.82,
            "lng": -124.39
          }
        }
      },
      "place_id": "ChIJCzYy5IS16lQRQrfeQ5K5Oxw",
      "types": [
        "country",
        "political"
      ]
    }
  ],
  "status": "OK"
}
