{
  "results": [
    {
      "address_components": [
        {
          "long_name": "1349-1399",
          "short_name": "1349-1399",
          "types": [
            "street_number"
          ]
        },
        {
          "long_name": "Cedar Street",
          "short_name": "Cedar St",
          "types": [
            "route"
          ]
        },
        {
          "long_name": "Henderson",
          "short_name": "Henderson",
          "types": [
            "locality",
            "political"
          ]
        },
        {
          "long_name": "Henderson",
          "short_name": "Henderson",
          "types": [
            "administrative_area_level_3",
            "political"
          ]
        },
        {
          "long_name": "York County",
          "short_name": "York County",
          "types": [
            "administrative_area_level_2",
            "political"
          ]
        },
        {
          "long_name": "Nebraska",
          "short_name": "NE",
          "types": [
            "administrative_area_level_1",
            "political"
          ]
        },
        {
          "long_name": "United States",
          "short_name": "US",
          "types": [
            "country",
            "political"
          ]
        },
        {
          "long_name": "68371",
          "short_name": "68371",
          "types": [
            "postal_code"
          ]
        }
      ],
      "formatted_address": "1349-1399 Cedar St, Henderson, NE 68371, USA",
      "geometry": {
        "bounds": {
          "northeast": {
            "lat": 40.7796077,
            "lng": -97.8110938
          },
          "southwest": {
            "lat": 40.7795938,
            "lng": -97.8118458
          }
        },
        "location": {
          "lat": 40.7796174,
          "lng": -97.81133899999999
        },
        "location_type": "RANGE_INTERPOLATED",
        "viewport": {
          "northeast": {
            "lat": 40.7809497302915,
            "lng": -97.8101208197085
          },
          "southwest": {
            "lat": 40.7782517697085,
            "lng": -97.81281878029151
          }
        }
      },
      "place_id": "EiwxMzQ5LTEzOTkgQ2VkYXIgU3QsIEhlbmRlcnNvbiwgTkUgNjgzNzEsIFVTQQ",
      "types": [
        "street_address"
      ]
    },
    {
      "address_components": [
        {
          "long_name": "Henderson",
          "short_name": "Henderson",
          "types": [
            "locality",
            "political"
          ]
        },
        {
          "long_name": "Henderson",
          "short_name": "Henderson",
          "types": [
            "administrative_area_level_3",
            "political"
          ]
        },
        {
          "long_name": "York County",
          "short_name": "York County",
          "types": [
            "administrative_area_level_2",
            "political"
          ]
        },
        {
          "long_name": "Nebraska",
          "short_name": "NE",
          "types": [
            "administrative_area_level_1",
            "political"
          ]
        },
        {
          "long_name": "United States",
          "short_name": "US",
          "types": [
            "country",
            "political"
          ]
        },
        {
          "long_name": "68371",
          "short_name": "68371",
          "types": [
            "postal_code"
          ]
        }
      ],
      "formatted_address": "Henderson, NE 68371, USA",
      "geometry": {
        "bounds": {
          "northeast": {
            "lat": 40.787088,
            "lng": -97.8050179
          },
          "southwest": {
            "lat": 40.77093989999999,
            "lng": -97.8189989
          }
        },
        "location": {
          "lat": 40.7797332,
          "lng": -97.8122722
        },
        "location_type": "APPROXIMATE",
        "viewport": {
          "northeast": {
            "lat": 40.787088,
            "lng": -97.8050179
          },
          "southwest": {
            "lat": 40.77093989999999,
            "lng": -97.8189989
          }
        }
      },
      "place_id": "ChIJOYk7RiHimYcRtNEM8gCpQvM",
      "types": [
        "locality",
        "political"
      ]
    },
    {
      "address_components": [
        {
          "long_name": "Henderson",
          "short_name": "Henderson",
          "types": [
            "administrative_area_level_3",
            "political"
          ]
        },
        {
          "long_name": "York County",
          "short_name": "York County",
          "types": [
            "administrative_area_level_2",
            "political"
          ]
        },
        {
          "long_name": "Nebraska",
          "short_name": "NE",
          "types": [
            "administrative_area_level_1",
            "political"
          ]
        },
        {
          "long_name": "United States",
          "short_name": "US",
          "types": [
            "country",
            "political"
          ]
        }
      ],
      "formatted_address": "Henderson, NE, USA",
      "geometry": {
        "bounds": {
          "northeast": {
            "lat": 40.7855909,
            "lng": -97.711575
          },
          "southwest": {
            "lat": 40.6985369,
            "lng": -97.82585
          }
        },
        "location": {
          "lat": 40.7581597,
          "lng": -97.76340189999999
        },
        "location_type": "APPROXIMATE",
        "viewport": {
          "northeast": {
            "lat": 40.7855909,
            "lng": -97.711575
          },
          "southwest": {
            "lat": 40.6985369,
            "lng": -97.82585
          }
        }
      },
      "place_id": "ChIJb646HXRfl4cR_uJxtxXwCzE",
      "types": [
        "administrative_area_level_3",
        "political"
      ]
    },
    {
      "address_components": [
        {
          "long_name": "68371",
          "short_name": "68371",
          "types": [
            "postal_code"
          ]
        },
        {
          "long_name": "Henderson",
          "short_name": "Henderson",
          "types": [
            "locality",
            "political"
          ]
        },
        {
          "long_name": "Nebraska",
          "short_name": "NE",
          "types": [
            "administrative_area_level_1",
            "political"
          ]
        },
        {
          "long_name": "United States",
          "short_name": "US",
          "types": [
            "country",
            "political"
          ]
        }
      ],
      "formatted_address": "Henderson, NE 68371, USA",
      "geometry": {
        "bounds": {
          "northeast": {
            "lat": 40.8579668,
            "lng": -97.701976
          },
          "southwest": {
            "lat": 40.698581,
            "lng": -97.88315709999999
          }
        },
        "location": {
          "lat": 40.795495,
          "lng": -97.8068851
        },
        "location_type": "APPROXIMATE",
        "viewport": {
          "northeast": {
            "lat": 40.8579668,
            "lng": -97.701976
          },
          "southwest": {
            "lat": 40.698581,
            "lng": -97.88315709999999
          }
        }
      },
      "place_id": "ChIJFQapYf7hmYcRkAUbugxZIs4",
      "types": [
        "postal_code"
      ]
    },
    {
      "address_components": [
        {
          "long_name": "York County",
          "short_name": "York County",
          "types": [
            "administrative_area_level_2",
            "political"
          ]
        },
        {
          "long_name": "Nebraska",
          "short_name": "NE",
          "types": [
            "administrative_area_level_1",
            "political"
          ]
        },
        {
          "long_name": "United States",
          "short_name": "US",
          "types": [
            "country",
            "political"
          ]
        }
      ],
      "formatted_address": "York County, NE, USA",
      "geometry": {
        "bounds": {
          "northeast": {
            "lat": 41.0470041,
            "lng": -97.3678389
          },
          "southwest": {
            "lat": 40.6984931,
            "lng": -97.82629000000001
          }
        },
        "location": {
          "lat": 40.7941448,
          "lng": -97.5247243
        },
        "location_type": "APPROXIMATE",
        "viewport": {
          "northeast": {
            "lat": 41.0470041,
            "lng": -97.3678389
          },
          "southwest": {
            "lat": 40.6984931,
            "lng": -97.82629000000001
          }
        }
      },
      "place_id": "ChIJLcNMqXhFl4cRl_HkEUbkSb0",
      "types": [
        "administrative_area_level_2",
        "political"
      ]
    },
    {
      "address_components": [
        {
          "long_name": "Nebraska",
          "short_name": "NE",
          "types": [
            "administrative_area_level_1",
            "political"
          ]
        },
        {
          "long_name": "United States",
          "short_name": "US",
          "types": [
            "country",
            "political"
          ]
        }
      ],
      "formatted_address": "Nebraska, USA",
      "geometry": {
        "bounds": {
          "northeast": {
            "lat": 43.00170689999999,
            "lng": -95.30829000000001
          },
          "southwest": {
            "lat": 39.999932,
            "lng": -104.053514
          }
        },
        "location": {
          "lat": 41.4925374,
          "lng": -99.9018131
        },
        "location_type": "APPROXIMATE",
        "viewport": {
          "northeast": {
            "lat": 43.00170689999999,
            "lng": -95.30829000000001
          },
          "southwest": {
            "lat": 39.999932,
            "lng": -104.053514
          }
        }
      },
      "place_id": "ChIJ7fwMtciNk4cRxArzDwyQJ6E",
      "types": [
        "administrative_area_level_1",
        "political"
      ]
    },
    {
      "address_components": [
        {
          "long_name": "United States",
          "short_name": "US",
          "types": [
            "country",
            "political"
          ]
        }
      ],
      "formatted_address": "United States",
      "geometry": {
        "bounds": {
          "northeast": {
            "lat": 71.3867745,
            "lng": -66.9502861
          },
          "southwest": {
            "lat": 18.9106768,
            "lng": 172.4458955
          }
        },
        "location": {
          "lat": 37.09024,
          "lng": -95.712891
        },
        "location_type": "APPROXIMATE",
        "viewport": {
          "northeast": {
            "lat": 49.38,
            "lng": -66.94
          },
          "southwest": {
            "lat": 25.82,
            "lng": -124.39
          }
        }
      },
      "place_id": "ChIJCzYy5IS16lQRQrfeQ5K5Oxw",
      "types": [
        "country",
        "political"
      ]
    }
  ],
  "status": "OK"
}
