{
  "results": [
    {
      "address_components": [
        {
          "long_name": "Island Line Rail Trail",
          "short_name": "Island Line Trail",
          "types": [
            "route"
          ]
        },
        {
          "long_name": "Burlington",
          "short_name": "Burlington",
          "types": [
            "locality",
            "political"
          ]
        },
        {
          "long_name": "Chittenden County",
          "short_name": "Chittenden County",
          "types": [
            "administrative_area_level_2",
            "political"
          ]
        },
        {
          "long_name": "Vermont",
          "short_name": "VT",
          "types": [
            "administrative_area_level_1",
            "political"
          ]
        },
        {
          "long_name": "United States",
          "short_name": "US",
          "types": [
            "country",
            "political"
          ]
        },
        {
          "long_name": "05401",
          "short_name": "05401",
          "types": [
            "postal_code"
          ]
        }
      ],
      "formatted_address": "Island Line Trail, Burlington, VT 05401, USA",
      "geometry": {
        "bounds": {
          "northeast": {
            "lat": 44.49191829999999,
            "lng": -73.22418979999999
          },
          "southwest": {
            "lat": 44.48367469999999,
            "lng": -73.2373195
          }
        },
        "location": {
          "lat": 44.4882596,
          "lng": -73.2301846
        },
        "location_type": "GEOMETRIC_CENTER",
        "viewport": {
          "northeast": {
            "lat": 44.49191829999999,
            "lng": -73.22418979999999
          },
          "southwest": {
            "lat": 44.48367469999999,
            "lng": -73.2373195
          }
        }
      },
      "place_id": "ChIJT9uUDcB6ykwRGT_OVrstnmo",
      "types": [
        "route"
      ]
    },
    {
      "address_components": [
        {
          "long_name": "Old North End",
          "short_name": "Old North End",
          "types": [
            "neighborhood",
            "political"
          ]
        },
        {
          "long_name": "Burlington",
          "short_name": "Burlington",
          "types": [
            "locality",
            "political"
          ]
        },
        {
          "long_name": "Chittenden County",
          "short_name": "Chittenden County",
          "types": [
            "administrative_area_level_2",
            "political"
          ]
        },
        {
          "long_name": "Vermont",
          "short_name": "VT",
          "types": [
            "administrative_area_level_1",
            "political"
          ]
        },
        {
          "long_name": "United States",
          "short_name": "US",
          "types": [
            "country",
            "political"
          ]
        }
      ],
      "formatted_address": "Old North End, Burlington, VT, USA",
      "geometry": {
        "bounds": {
          "northeast": {
            "lat": 44.50463,
            "lng": -73.19666699999999
          },
          "southwest": {
            "lat": 44.475747,
            "lng": -73.2357111
          }
        },
        "location": {
          "lat": 44.4915358,
          "lng": -73.2206037
        },
        "location_type": "APPROXIMATE",
        "viewport": {
          "northeast": {
            "lat": 44.50463,
            "lng": -73.19666699999999
          },
          "southwest": {
            "lat": 44.475747,
            "lng": -73.2357111
          }
        }
      },
      "place_id": "ChIJqfEVF5J6ykwRppzic49lVUw",
      "types": [
        "neighborhood",
        "political"
      ]
    },
    {
      "address_components": [
        {
          "long_name": "Burlington",
          "short_name": "Burlington",
          "types": [
            "locality",
            "political"
          ]
        },
        {
          "long_name": "Chittenden County",
          "short_name": "Chittenden County",
          "types": [
            "administrative_area_level_2",
            "political"
          ]
        },
        {
          "long_name": "Vermont",
          "short_name": "VT",
          "types": [
            "administrative_area_level_1",
            "political"
          ]
        },
        {
          "long_name": "United States",
          "short_name": "US",
          "types": [
            "country",
            "political"
          ]
        }
      ],
      "formatted_address": "Burlington, VT, USA",
      "geometry": {
        "bounds": {
          "northeast": {
            "lat": 44.5392529,
            "lng": -73.1763829
          },
          "southwest": {
            "lat": 44.4459279,
            "lng": -73.2769139
          }
        },
        "location": {
          "lat": 44.4758825,
          "lng": -73.21207199999999
        },
        "location_type": "APPROXIMATE",
        "viewport": {
          "northeast": {
            "lat": 44.5392529,
            "lng": -73.1763829
          },
          "southwest": {
            "lat": 44.4459279,
            "lng": -73.2769139
          }
        }
      },
      "place_id": "ChIJ5VWbtlV6ykwRjkkOchnlX8M",
      "types": [
        "locality",
        "political"
      ]
    },
    {
      "address_components": [
        {
          "long_name": "05401",
          "short_name": "05401",
          "types": [
            "postal_code"
          ]
        },
        {
          "long_name": "Burlington",
          "short_name": "Burlington",
          "types": [
            "locality",
            "political"
          ]
        },
        {
          "long_name": "Chittenden County",
          "short_name": "Chittenden County",
          "types": [
            "administrative_area_level_2",
            "political"
          ]
        },
        {
          "long_name": "Vermont",
          "short_name": "VT",
          "types": [
            "administrative_area_level_1",
            "political"
          ]
        },
        {
          "long_name": "United States",
          "short_name": "US",
          "types": [
            "country",
            "political"
          ]
        }
      ],
      "formatted_address": "Burlington, VT 05401, USA",
      "geometry": {
        "bounds": {
          "northeast": {
            "lat": 44.50926090000001,
            "lng": -73.1766009
          },
          "southwest": {
            "lat": 44.44488,
            "lng": -73.27898809999999
          }
        },
        "location": {
          "lat": 44.4758442,
          "lng": -73.212121
        },
        "location_type": "APPROXIMATE",
        "viewport": {
          "northeast": {
            "lat": 44.50926090000001,
            "lng": -73.1766009
          },
          "southwest": {
            "lat": 44.44488,
            "lng": -73.27898809999999
          }
        }
      },
      "place_id": "ChIJ2S6KupV6ykwR1oY_Q4GPAmo",
      "types": [
        "postal_code"
      ]
    },
    {
      "address_components": [
        {
          "long_name": "Chittenden County",
          "short_name": "Chittenden County",
          "types": [
            "administrative_area_level_2",
            "political"
          ]
        },
        {
          "long_name": "Vermont",
          "short_name": "VT",
          "types": [
            "administrative_area_level_1",
            "political"
          ]
        },
        {
          "long_name": "United States",
          "short_name": "US",
          "types": [
            "country",
            "political"
          ]
        }
      ],
      "formatted_address": "Chittenden County, VT, USA",
      "geometry": {
        "bounds": {
          "northeast": {
            "lat": 44.7148973,
            "lng": -72.80356700000002
          },
          "southwest": {
            "lat": 44.1612711,
            "lng": -73.32411160000001
          }
        },
        "location": {
          "lat": 44.3959289,
          "lng": -72.9962431
        },
        "location_type": "APPROXIMATE",
        "viewport": {
          "northeast": {
            "lat": 44.7148973,
            "lng": -72.80356700000002
          },
          "southwest": {
            "lat": 44.1612711,
            "lng": -73.32411160000001
          }
        }
      },
      "place_id": "ChIJ3y-bMLOHtUwRnJW7aqaNmSQ",
      "types": [
        "administrative_area_level_2",
        "political"
      ]
    },
    {
      "address_components": [
        {
          "long_name": "Vermont",
          "short_name": "VT",
          "types": [
            "administrative_area_level_1",
            "political"
          ]
        },
        {
          "long_name": "United States",
          "short_name": "US",
          "types": [
            "country",
            "political"
          ]
        }
      ],
      "formatted_address": "Vermont, USA",
      "geometry": {
        "bounds": {
          "northeast": {
            "lat": 45.0166591,
            "lng": -71.46503899999999
          },
          "southwest": {
            "lat": 42.7268499,
            "lng": -73.43055980000001
          }
        },
        "location": {
          "lat": 44.5588028,
          "lng": -72.57784149999999
        },
        "location_type": "APPROXIMATE",
        "viewport": {
          "northeast": {
            "lat": 45.0166591,
            "lng": -71.46503899999999
          },
          "southwest": {
            "lat": 42.7268499,
            "lng": -73.43055980000001
          }
        }
      },
      "place_id": "ChIJ_87aSGzctEwRtGtUNnSJTSY",
      "types": [
        "administrative_area_level_1",
        "political"
      ]
    },
    {
      "address_components": [
        {
          "long_name": "United States",
          "short_name": "US",
          "types": [
            "country",
            "political"
          ]
        }
      ],
      "formatted_address": "United States",
      "geometry": {
        "bounds": {
          "northeast": {
            "lat": 71.3867745,
            "lng": -66.9502861
          },
          "southwest": {
            "lat": 18.9106768,
            "lng": 172.4458955
          }
        },
        "location": {
          "lat": 37.09024,
          "lng": -95.712891
        },
        "location_type": "APPROXIMATE",
        "viewport": {
          "northeast": {
            "lat": 49.38,
            "lng": -66.94
          },
          "southwest": {
            "lat": 25.82,
            "lng": -124.39
          }
        }
      },
      "place_id": "ChIJCzYy5IS16lQRQrfeQ5K5Oxw",
      "types": [
        "country",
        "political"
      ]
    }
  ],
  "status": "OK"
}
