{
  "results": [
    {
      "address_components": [
        {
          "long_name": "14446",
          "short_name": "14446",
          "types": [
            "street_number"
          ]
        },
        {
          "long_name": "U.S. 67",
          "short_name": "US-67",
          "types": [
            "route"
          ]
        },
        {
          "long_name": "West Alton",
          "short_name": "West Alton",
          "types": [
            "locality",
            "political"
          ]
        },
        {
          "long_name": "Rivers Township",
          "short_name": "Rivers Township",
          "types": [
            "administrative_area_level_3",
            "political"
          ]
        },
        {
          "long_name": "St. Charles County",
          "short_name": "St Charles County",
          "types": [
            "administrative_area_level_2",
            "political"
          ]
        },
        {
          "long_name": "Missouri",
          "short_name": "MO",
          "types": [
            "administrative_area_level_1",
            "political"
          ]
        },
        {
          "long_name": "United States",
          "short_name": "US",
          "types": [
            "country",
            "political"
          ]
        },
        {
          "long_name": "63386",
          "short_name": "63386",
          "types": [
            "postal_code"
          ]
        }
      ],
      "formatted_address": "14446 US-67, West Alton, MO 63386, USA",
      "geometry": {
        "location": {
          "lat": 38.86913,
          "lng": -90.207748
        },
        "location_type": "ROOFTOP",
        "viewport": {
          "northeast": {
            "lat": 38.8704789802915,
            "lng": -90.2063990197085
          },
          "southwest": {
            "lat": 38.8677810197085,
            "lng": -90.2090969802915
          }
        }
      },
      "place_id": "ChIJAUDeWzZE34cRT_yvoeowFac",
      "types": [
        "street_address"
      ]
    },
    {
      "address_components": [
        {
          "long_name": "West Alton",
          "short_name": "West Alton",
          "types": [
            "locality",
            "political"
          ]
        },
        {
          "long_name": "Rivers Township",
          "short_name": "Rivers Township",
          "types": [
            "administrative_area_level_3",
            "political"
          ]
        },
        {
          "long_name": "St. Charles County",
          "short_name": "St Charles County",
          "types": [
            "administrative_area_level_2",
            "political"
          ]
        },
        {
          "long_name": "Missouri",
          "short_name": "MO",
          "types": [
            "administrative_area_level_1",
            "political"
          ]
        },
        {
          "long_name": "United States",
          "short_name": "US",
          "types": [
            "country",
            "political"
          ]
        }
      ],
      "formatted_address": "West Alton, MO, USA",
      "geometry": {
        "bounds": {
          "northeast": {
            "lat": 38.924048,
            "lng": -90.1091069
          },
          "southwest": {
            "lat": 38.805748,
            "lng": -90.2978119
          }
        },
        "location": {
          "lat": 38.8650487,
          "lng": -90.22261089999999
        },
        "location_type": "APPROXIMATE",
        "viewport": {
          "northeast": {
            "lat": 38.924048,
            "lng": -90.1091069
          },
          "southwest": {
            "lat": 38.805748,
            "lng": -90.2978119
          }
        }
      },
      "place_id": "ChIJUUbvqi1E34cRAcNogVeJd_o",
      "types": [
        "locality",
        "political"
      ]
    },
    {
      "address_components": [
        {
          "long_name": "63386",
          "short_name": "63386",
          "types": [
            "postal_code"
          ]
        },
        {
          "long_name": "West Alton",
          "short_name": "West Alton",
          "types": [
            "locality",
            "political"
          ]
        },
        {
          "long_name": "Missouri",
          "short_name": "MO",
          "types": [
            "administrative_area_level_1",
            "political"
          ]
        },
        {
          "long_name": "United States",
          "short_name": "US",
          "types": [
            "country",
            "political"
          ]
        }
      ],
      "formatted_address": "West Alton, MO 63386, USA",
      "geometry": {
        "bounds": {
          "northeast": {
            "lat": 38.92965299999999,
            "lng": -90.1091069
          },
          "southwest": {
            "lat": 38.805748,
            "lng": -90.32583989999999
          }
        },
        "location": {
          "lat": 38.8830172,
          "lng": -90.2432307
        },
        "location_type": "APPROXIMATE",
        "viewport": {
          "northeast": {
            "lat": 38.92965299999999,
            "lng": -90.1091069
          },
          "southwest": {
            "lat": 38.805748,
            "lng": -90.32583989999999
          }
        }
      },
      "place_id": "ChIJC-602S5E34cR-Zse8BaHBlk",
      "types": [
        "postal_code"
      ]
    },
    {
      "address_components": [
        {
          "long_name": "Rivers Township",
          "short_name": "Rivers Township",
          "types": [
            "administrative_area_level_3",
            "political"
          ]
        },
        {
          "long_name": "St. Charles County",
          "short_name": "St Charles County",
          "types": [
            "administrative_area_level_2",
            "political"
          ]
        },
        {
          "long_name": "Missouri",
          "short_name": "MO",
          "types": [
            "administrative_area_level_1",
            "political"
          ]
        },
        {
          "long_name": "United States",
          "short_name": "US",
          "types": [
            "country",
            "political"
          ]
        }
      ],
      "formatted_address": "Rivers Township, MO, USA",
      "geometry": {
        "bounds": {
          "northeast": {
            "lat": 38.96776880000001,
            "lng": -90.1091069
          },
          "southwest": {
            "lat": 38.7653509,
            "lng": -90.7507189
          }
        },
        "location": {
          "lat": 38.882476,
          "lng": -90.4313729
        },
        "location_type": "APPROXIMATE",
        "viewport": {
          "northeast": {
            "lat": 38.96776880000001,
            "lng": -90.1091069
          },
          "southwest": {
            "lat": 38.7653509,
            "lng": -90.7507189
          }
        }
      },
      "place_id": "ChIJGWefNB8734cRIF4SzTA_JQg",
      "types": [
        "administrative_area_level_3",
        "political"
      ]
    },
    {
      "address_components": [
        {
          "long_name": "St. Charles County",
          "short_name": "St Charles County",
          "types": [
            "administrative_area_level_2",
            "political"
          ]
        },
        {
          "long_name": "Missouri",
          "short_name": "MO",
          "types": [
            "administrative_area_level_1",
            "political"
          ]
        },
        {
          "long_name": "United States",
          "short_name": "US",
          "types": [
            "country",
            "political"
          ]
        }
      ],
      "formatted_address": "St Charles County, MO, USA",
      "geometry": {
        "bounds": {
          "northeast": {
            "lat": 38.96776880000001,
            "lng": -90.1091069
          },
          "southwest": {
            "lat": 38.5341339,
            "lng": -90.964461
          }
        },
        "location": {
          "lat": 38.7338885,
          "lng": -90.8294002
        },
        "location_type": "APPROXIMATE",
        "viewport": {
          "northeast": {
            "lat": 38.96776880000001,
            "lng": -90.1091069
          },
          "southwest": {
            "lat": 38.5341339,
            "lng": -90.964461
          }
        }
      },
      "place_id": "ChIJ8_ejCwAp34cR6jFA8VaN-pA",
      "types": [
        "administrative_area_level_2",
        "political"
      ]
    },
    {
      "address_components": [
        {
          "long_name": "St. Louis",
          "short_name": "St. Louis",
          "types": [
            "political"
          ]
        },
        {
          "long_name": "United States",
          "short_name": "US",
          "types": [
            "country",
            "political"
          ]
        }
      ],
      "formatted_address": "St. Louis, USA",
      "geometry": {
        "bounds": {
          "northeast": {
            "lat": 39.5233661,
            "lng": -89.138356
          },
          "southwest": {
            "lat": 37.7341961,
            "lng": -91.4186371
          }
        },
        "location": {
          "lat": 38.8196814,
          "lng": -90.4502368
        },
        "location_type": "APPROXIMATE",
        "viewport": {
          "northeast": {
            "lat": 39.5233661,
            "lng": -89.138356
          },
          "southwest": {
            "lat": 37.7341961,
            "lng": -91.4186371
          }
        }
      },
      "place_id": "ChIJneBzzj4z34cRFGg2ez6q57o",
      "types": [
        "political"
      ]
    },
    {
      "address_components": [
        {
          "long_name": "Missouri",
          "short_name": "MO",
          "types": [
            "administrative_area_level_1",
            "political"
          ]
        },
        {
          "long_name": "United States",
          "short_name": "US",
          "types": [
            "country",
            "political"
          ]
        }
      ],
      "formatted_address": "Missouri, USA",
      "geometry": {
        "bounds": {
          "northeast": {
            "lat": 40.61364,
            "lng": -89.09949399999999
          },
          "southwest": {
            "lat": 35.9956829,
            "lng": -95.774704
          }
        },
        "location": {
          "lat": 37.9642529,
          "lng": -91.8318334
        },
        "location_type": "APPROXIMATE",
        "viewport": {
          "northeast": {
            "lat": 40.61364,
            "lng": -89.09949399999999
          },
          "southwest": {
            "lat": 35.9956829,
            "lng": -95.774704
          }
        }
      },
      "place_id": "ChIJfeMiSNXmwIcRcr1mBFnEW7U",
      "types": [
        "administrative_area_level_1",
        "political"
      ]
    },
    {
      "address_components": [
        {
          "long_name": "United States",
          "short_name": "US",
          "types": [
            "country",
            "political"
          ]
        }
      ],
      "formatted_address": "United States",
      "geometry": {
        "bounds": {
          "northeast": {
            "lat": 71.3867745,
            "lng": -66.9502861
          },
          "southwest": {
            "lat": 18.9106768,
            "lng": 172.4458955
          }
        },
        "location": {
          "lat": 37.09024,
          "lng": -95.712891
        },
        "location_type": "APPROXIMATE",
        "viewport": {
          "northeast": {
            "lat": 49.38,
            "lng": -66.94
          },
          "southwest": {
            "lat": 25.82,
            "lng": -124.39
          }
        }
      },
      "place_id": "ChIJCzYy5IS16lQRQrfeQ5K5Oxw",
      "types": [
        "country",
        "political"
      ]
    }
  ],
  "status": "OK"
}
