{
  "results": [
    {
      "address_components": [
        {
          "long_name": "62",
          "short_name": "62",
          "types": [
            "street_number"
          ]
        },
        {
          "long_name": "Estherwood Avenue",
          "short_name": "Estherwood Ave",
          "types": [
            "route"
          ]
        },
        {
          "long_name": "Dobbs Ferry",
          "short_name": "Dobbs Ferry",
          "types": [
            "locality",
            "political"
          ]
        },
        {
          "long_name": "Greenburgh",
          "short_name": "Greenburgh",
          "types": [
            "administrative_area_level_3",
            "political"
          ]
        },
        {
          "long_name": "Westchester County",
          "short_name": "Westchester County",
          "types": [
            "administrative_area_level_2",
            "political"
          ]
        },
        {
          "long_name": "New York",
          "short_name": "NY",
          "types": [
            "administrative_area_level_1",
            "political"
          ]
        },
        {
          "long_name": "United States",
          "short_name": "US",
          "types": [
            "country",
            "political"
          ]
        },
        {
          "long_name": "10522",
          "short_name": "10522",
          "types": [
            "postal_code"
          ]
        }
      ],
      "formatted_address": "62 Estherwood Ave, Dobbs Ferry, NY 10522, USA",
      "geometry": {
        "bounds": {
          "northeast": {
            "lat": 41.01310600000001,
            "lng": -73.8673484
          },
          "southwest": {
            "lat": 41.0114416,
            "lng": -73.8685153
          }
        },
        "location": {
          "lat": 41.0130858,
          "lng": -73.86852379999999
        },
        "location_type": "RANGE_INTERPOLATED",
        "viewport": {
          "northeast": {
            "lat": 41.01362278029151,
            "lng": -73.8665828697085
          },
          "southwest": {
            "lat": 41.01092481970851,
            "lng": -73.86928083029152
          }
        }
      },
      "place_id": "Ei02MiBFc3RoZXJ3b29kIEF2ZSwgRG9iYnMgRmVycnksIE5ZIDEwNTIyLCBVU0E",
      "types": [
        "street_address"
      ]
    },
    {
      "address_components": [
        {
          "long_name": "Dobbs Ferry",
          "short_name": "Dobbs Ferry",
          "types": [
            "locality",
            "political"
          ]
        },
        {
          "long_name": "Greenburgh",
          "short_name": "Greenburgh",
          "types": [
            "administrative_area_level_3",
            "political"
          ]
        },
        {
          "long_name": "Westchester County",
          "short_name": "Westchester County",
          "types": [
            "administrative_area_level_2",
            "political"
          ]
        },
        {
          "long_name": "New York",
          "short_name": "NY",
          "types": [
            "administrative_area_level_1",
            "political"
          ]
        },
        {
          "long_name": "United States",
          "short_name": "US",
          "types": [
            "country",
            "political"
          ]
        }
      ],
      "formatted_address": "Dobbs Ferry, NY, USA",
      "geometry": {
        "bounds": {
          "northeast": {
            "lat": 41.024792,
            "lng": -73.8453339
          },
          "southwest": {
            "lat": 40.9979889,
            "lng": -73.883614
          }
        },
        "location": {
          "lat": 41.0145418,
          "lng": -73.87263500000002
        },
        "location_type": "APPROXIMATE",
        "viewport": {
          "northeast": {
            "lat": 41.024792,
            "lng": -73.8453339
          },
          "southwest": {
            "lat": 40.9979889,
            "lng": -73.883614
          }
        }
      },
      "place_id": "ChIJ20Y_Ip7swokRvbkd6yvVGhA",
      "types": [
        "locality",
        "political"
      ]
    },
    {
      "address_components": [
        {
          "long_name": "10522",
          "short_name": "10522",
          "types": [
            "postal_code"
          ]
        },
        {
          "long_name": "Dobbs Ferry",
          "short_name": "Dobbs Ferry",
          "types": [
            "locality",
            "political"
          ]
        },
        {
          "long_name": "Greenburgh",
          "short_name": "Greenburgh",
          "types": [
            "administrative_area_level_3",
            "political"
          ]
        },
        {
          "long_name": "Westchester County",
          "short_name": "Westchester County",
          "types": [
            "administrative_area_level_2",
            "political"
          ]
        },
        {
          "long_name": "New York",
          "short_name": "NY",
          "types": [
            "administrative_area_level_1",
            "political"
          ]
        },
        {
          "long_name": "United States",
          "short_name": "US",
          "types": [
            "country",
            "political"
          ]
        }
      ],
      "formatted_address": "Dobbs Ferry, NY 10522, USA",
      "geometry": {
        "bounds": {
          "northeast": {
            "lat": 41.024792,
            "lng": -73.846323
          },
          "southwest": {
            "lat": 40.997996,
            "lng": -73.893579
          }
        },
        "location": {
          "lat": 41.0102232,
          "lng": -73.8713099
        },
        "location_type": "APPROXIMATE",
        "viewport": {
          "northeast": {
            "lat": 41.024792,
            "lng": -73.846323
          },
          "southwest": {
            "lat": 40.997996,
            "lng": -73.893579
          }
        }
      },
      "place_id": "ChIJ1QghKaDswokRtfFncNyhc_w",
      "types": [
        "postal_code"
      ]
    },
    {
      "address_components": [
        {
          "long_name": "Greenburgh",
          "short_name": "Greenburgh",
          "types": [
            "administrative_area_level_3",
            "political"
          ]
        },
        {
          "long_name": "Westchester County",
          "short_name": "Westchester County",
          "types": [
            "administrative_area_level_2",
            "political"
          ]
        },
        {
          "long_name": "New York",
          "short_name": "NY",
          "types": [
            "administrative_area_level_1",
            "political"
          ]
        },
        {
          "long_name": "United States",
          "short_name": "US",
          "types": [
            "country",
            "political"
          ]
        }
      ],
      "formatted_address": "Greenburgh, NY, USA",
      "geometry": {
        "bounds": {
          "northeast": {
            "lat": 41.0869579,
            "lng": -73.7716219
          },
          "southwest": {
            "lat": 40.976565,
            "lng": -73.888718
          }
        },
        "location": {
          "lat": 41.0339576,
          "lng": -73.86542949999999
        },
        "location_type": "APPROXIMATE",
        "viewport": {
          "northeast": {
            "lat": 41.0869579,
            "lng": -73.7716219
          },
          "southwest": {
            "lat": 40.976565,
            "lng": -73.888718
          }
        }
      },
      "place_id": "ChIJ8R8b9KqTwokRTdmJVVjMDPc",
      "types": [
        "administrative_area_level_3",
        "political"
      ]
    },
    {
      "address_components": [
        {
          "long_name": "Westchester County",
          "short_name": "Westchester County",
          "types": [
            "administrative_area_level_2",
            "political"
          ]
        },
        {
          "long_name": "New York",
          "short_name": "NY",
          "types": [
            "administrative_area_level_1",
            "political"
          ]
        },
        {
          "long_name": "United States",
          "short_name": "US",
          "types": [
            "country",
            "political"
          ]
        }
      ],
      "formatted_address": "Westchester County, NY, USA",
      "geometry": {
        "bounds": {
          "northeast": {
            "lat": 41.366375,
            "lng": -73.4827091
          },
          "southwest": {
            "lat": 40.8764415,
            "lng": -73.98062070000002
          }
        },
        "location": {
          "lat": 41.1220194,
          "lng": -73.7948516
        },
        "location_type": "APPROXIMATE",
        "viewport": {
          "northeast": {
            "lat": 41.366375,
            "lng": -73.4827091
          },
          "southwest": {
            "lat": 40.8764415,
            "lng": -73.98062070000002
          }
        }
      },
      "place_id": "ChIJr1lrnWrJwokRidu9ImLYDjc",
      "types": [
        "administrative_area_level_2",
        "political"
      ]
    },
    {
      "address_components": [
        {
          "long_name": "New York",
          "short_name": "NY",
          "types": [
            "administrative_area_level_1",
            "political"
          ]
        },
        {
          "long_name": "United States",
          "short_name": "US",
          "types": [
            "country",
            "political"
          ]
        }
      ],
      "formatted_address": "New York, USA",
      "geometry": {
        "bounds": {
          "northeast": {
            "lat": 45.015865,
            "lng": -71.85620639999999
          },
          "southwest": {
            "lat": 40.496091,
            "lng": -79.76214379999999
          }
        },
        "location": {
          "lat": 43.2994285,
          "lng": -74.21793260000001
        },
        "location_type": "APPROXIMATE",
        "viewport": {
          "northeast": {
            "lat": 45.015859,
            "lng": -71.85620639999999
          },
          "southwest": {
            "lat": 40.496091,
            "lng": -79.76214379999999
          }
        }
      },
      "place_id": "ChIJqaUj8fBLzEwRZ5UY3sHGz90",
      "types": [
        "administrative_area_level_1",
        "political"
      ]
    },
    {
      "address_components": [
        {
          "long_name": "United States",
          "short_name": "US",
          "types": [
            "country",
            "political"
          ]
        }
      ],
      "formatted_address": "United States",
      "geometry": {
        "bounds": {
          "northeast": {
            "lat": 71.3867745,
            "lng": -66.9502861
          },
          "southwest": {
            "lat": 18.9106768,
            "lng": 172.4458955
          }
        },
        "location": {
          "lat": 37.09024,
          "lng": -95.712891
        },
        "location_type": "APPROXIMATE",
        "viewport": {
          "northeast": {
            "lat": 49.38,
            "lng": -66.94
          },
          "southwest": {
            "lat": 25.82,
            "lng": -124.39
          }
        }
      },
      "place_id": "ChIJCzYy5IS16lQRQrfeQ5K5Oxw",
      "types": [
        "country",
        "political"
      ]
    }
  ],
  "status": "OK"
}
