{
  "results": [
    {
      "address_components": [
        {
          "long_name": "106",
          "short_name": "106",
          "types": [
            "street_number"
          ]
        },
        {
          "long_name": "Stephens Avenue",
          "short_name": "Stephens Ave",
          "types": [
            "route"
          ]
        },
        {
          "long_name": "Munden",
          "short_name": "Munden",
          "types": [
            "locality",
            "political"
          ]
        },
        {
          "long_name": "Fairview",
          "short_name": "Fairview",
          "types": [
            "administrative_area_level_3",
            "political"
          ]
        },
        {
          "long_name": "Republic County",
          "short_name": "Republic County",
          "types": [
            "administrative_area_level_2",
            "political"
          ]
        },
        {
          "long_name": "Kansas",
          "short_name": "KS",
          "types": [
            "administrative_area_level_1",
            "political"
          ]
        },
        {
          "long_name": "United States",
          "short_name": "US",
          "types": [
            "country",
            "political"
          ]
        },
        {
          "long_name": "66959",
          "short_name": "66959",
          "types": [
            "postal_code"
          ]
        }
      ],
      "formatted_address": "106 Stephens Ave, Munden, KS 66959, USA",
      "geometry": {
        "location": {
          "lat": 39.9127421,
          "lng": -97.537353
        },
        "location_type": "ROOFTOP",
        "viewport": {
          "northeast": {
            "lat": 39.9140910802915,
            "lng": -97.53600401970849
          },
          "southwest": {
            "lat": 39.9113931197085,
            "lng": -97.53870198029149
          }
        }
      },
      "place_id": "ChIJ-ybyDkXvl4cRQ-O99PrFf64",
      "types": [
        "street_address"
      ]
    },
    {
      "address_components": [
        {
          "long_name": "Munden",
          "short_name": "Munden",
          "types": [
            "locality",
            "political"
          ]
        },
        {
          "long_name": "Republic County",
          "short_name": "Republic County",
          "types": [
            "administrative_area_level_2",
            "political"
          ]
        },
        {
          "long_name": "Kansas",
          "short_name": "KS",
          "types": [
            "administrative_area_level_1",
            "political"
          ]
        },
        {
          "long_name": "United States",
          "short_name": "US",
          "types": [
            "country",
            "political"
          ]
        },
        {
          "long_name": "66959",
          "short_name": "66959",
          "types": [
            "postal_code"
          ]
        }
      ],
      "formatted_address": "Munden, KS 66959, USA",
      "geometry": {
        "bounds": {
          "northeast": {
            "lat": 39.917471,
            "lng": -97.53313790000001
          },
          "southwest": {
            "lat": 39.9069919,
            "lng": -97.541868
          }
        },
        "location": {
          "lat": 39.913894,
          "lng": -97.53809679999999
        },
        "location_type": "APPROXIMATE",
        "viewport": {
          "northeast": {
            "lat": 39.917471,
            "lng": -97.53313790000001
          },
          "southwest": {
            "lat": 39.9069919,
            "lng": -97.541868
          }
        }
      },
      "place_id": "ChIJ8wjN4kTvl4cRbHWaCvaXeTU",
      "types": [
        "locality",
        "political"
      ]
    },
    {
      "address_components": [
        {
          "long_name": "Fairview",
          "short_name": "Fairview",
          "types": [
            "administrative_area_level_3",
            "political"
          ]
        },
        {
          "long_name": "Republic County",
          "short_name": "Republic County",
          "types": [
            "administrative_area_level_2",
            "political"
          ]
        },
        {
          "long_name": "Kansas",
          "short_name": "KS",
          "types": [
            "administrative_area_level_1",
            "political"
          ]
        },
        {
          "long_name": "United States",
          "short_name": "US",
          "types": [
            "country",
            "political"
          ]
        }
      ],
      "formatted_address": "Fairview, KS, USA",
      "geometry": {
        "bounds": {
          "northeast": {
            "lat": 39.914997,
            "lng": -97.4809458
          },
          "southwest": {
            "lat": 39.82667300000001,
            "lng": -97.59578590000001
          }
        },
        "location": {
          "lat": 39.8793725,
          "lng": -97.54638849999999
        },
        "location_type": "APPROXIMATE",
        "viewport": {
          "northeast": {
            "lat": 39.914997,
            "lng": -97.4809458
          },
          "southwest": {
            "lat": 39.82667300000001,
            "lng": -97.59578590000001
          }
        }
      },
      "place_id": "ChIJkZu5n8Xll4cRSC5xBPjBksw",
      "types": [
        "administrative_area_level_3",
        "political"
      ]
    },
    {
      "address_components": [
        {
          "long_name": "66959",
          "short_name": "66959",
          "types": [
            "postal_code"
          ]
        },
        {
          "long_name": "Munden",
          "short_name": "Munden",
          "types": [
            "locality",
            "political"
          ]
        },
        {
          "long_name": "Kansas",
          "short_name": "KS",
          "types": [
            "administrative_area_level_1",
            "political"
          ]
        },
        {
          "long_name": "United States",
          "short_name": "US",
          "types": [
            "country",
            "political"
          ]
        }
      ],
      "formatted_address": "Munden, KS 66959, USA",
      "geometry": {
        "bounds": {
          "northeast": {
            "lat": 40.0021679,
            "lng": -97.444081
          },
          "southwest": {
            "lat": 39.87045090000001,
            "lng": -97.595242
          }
        },
        "location": {
          "lat": 39.9230809,
          "lng": -97.5030669
        },
        "location_type": "APPROXIMATE",
        "viewport": {
          "northeast": {
            "lat": 40.0021679,
            "lng": -97.444081
          },
          "southwest": {
            "lat": 39.87045090000001,
            "lng": -97.595242
          }
        }
      },
      "place_id": "ChIJ5RjD5PXol4cRhdMuCO6u7JE",
      "types": [
        "postal_code"
      ]
    },
    {
      "address_components": [
        {
          "long_name": "Republic County",
          "short_name": "Republic County",
          "types": [
            "administrative_area_level_2",
            "political"
          ]
        },
        {
          "long_name": "Kansas",
          "short_name": "KS",
          "types": [
            "administrative_area_level_1",
            "political"
          ]
        },
        {
          "long_name": "United States",
          "short_name": "US",
          "types": [
            "country",
            "political"
          ]
        }
      ],
      "formatted_address": "Republic County, KS, USA",
      "geometry": {
        "bounds": {
          "northeast": {
            "lat": 40.0022589,
            "lng": -97.3684918
          },
          "southwest": {
            "lat": 39.65336,
            "lng": -97.9334179
          }
        },
        "location": {
          "lat": 39.807989,
          "lng": -97.69822719999999
        },
        "location_type": "APPROXIMATE",
        "viewport": {
          "northeast": {
            "lat": 40.0022589,
            "lng": -97.3684918
          },
          "southwest": {
            "lat": 39.65336,
            "lng": -97.9334179
          }
        }
      },
      "place_id": "ChIJC4_50fr7l4cRvzxyrcDjQFs",
      "types": [
        "administrative_area_level_2",
        "political"
      ]
    },
    {
      "address_components": [
        {
          "long_name": "Kansas",
          "short_name": "KS",
          "types": [
            "administrative_area_level_1",
            "political"
          ]
        },
        {
          "long_name": "United States",
          "short_name": "US",
          "types": [
            "country",
            "political"
          ]
        }
      ],
      "formatted_address": "Kansas, USA",
      "geometry": {
        "bounds": {
          "northeast": {
            "lat": 40.0045419,
            "lng": -94.588387
          },
          "southwest": {
            "lat": 36.9930159,
            "lng": -102.0517688
          }
        },
        "location": {
          "lat": 39.011902,
          "lng": -98.4842465
        },
        "location_type": "APPROXIMATE",
        "viewport": {
          "northeast": {
            "lat": 40.0045419,
            "lng": -94.588387
          },
          "southwest": {
            "lat": 36.9930159,
            "lng": -102.0517688
          }
        }
      },
      "place_id": "ChIJawF8cXEXo4cRXwk-S6m0wmg",
      "types": [
        "administrative_area_level_1",
        "political"
      ]
    },
    {
      "address_components": [
        {
          "long_name": "United States",
          "short_name": "US",
          "types": [
            "country",
            "political"
          ]
        }
      ],
      "formatted_address": "United States",
      "geometry": {
        "bounds": {
          "northeast": {
            "lat": 71.3867745,
            "lng": -66.9502861
          },
          "southwest": {
            "lat": 18.9106768,
            "lng": 172.4458955
          }
        },
        "location": {
          "lat": 37.09024,
          "lng": -95.712891
        },
        "location_type": "APPROXIMATE",
        "viewport": {
          "northeast": {
            "lat": 49.38,
            "lng": -66.94
          },
          "southwest": {
            "lat": 25.82,
            "lng": -124.39
          }
        }
      },
      "place_id": "ChIJCzYy5IS16lQRQrfeQ5K5Oxw",
      "types": [
        "country",
        "political"
      ]
    }
  ],
  "status": "OK"
}
