{
  "results": [
    {
      "address_components": [
        {
          "long_name": "222",
          "short_name": "222",
          "types": [
            "street_number"
          ]
        },
        {
          "long_name": "Campbell Street",
          "short_name": "Campbell St",
          "types": [
            "route"
          ]
        },
        {
          "long_name": "Corunna",
          "short_name": "Corunna",
          "types": [
            "locality",
            "political"
          ]
        },
        {
          "long_name": "Richland Township",
          "short_name": "Richland Township",
          "types": [
            "administrative_area_level_3",
            "political"
          ]
        },
        {
          "long_name": "DeKalb County",
          "short_name": "DeKalb County",
          "types": [
            "administrative_area_level_2",
            "political"
          ]
        },
        {
          "long_name": "Indiana",
          "short_name": "IN",
          "types": [
            "administrative_area_level_1",
            "political"
          ]
        },
        {
          "long_name": "United States",
          "short_name": "US",
          "types": [
            "country",
            "political"
          ]
        },
        {
          "long_name": "46730",
          "short_name": "46730",
          "types": [
            "postal_code"
          ]
        },
        {
          "long_name": "1010",
          "short_name": "1010",
          "types": [
            "postal_code_suffix"
          ]
        }
      ],
      "formatted_address": "222 Campbell St, Corunna, IN 46730, USA",
      "geometry": {
        "location": {
          "lat": 41.436301,
          "lng": -85.14398
        },
        "location_type": "ROOFTOP",
        "viewport": {
          "northeast": {
            "lat": 41.4376499802915,
            "lng": -85.14263101970849
          },
          "southwest": {
            "lat": 41.4349520197085,
            "lng": -85.1453289802915
          }
        }
      },
      "place_id": "ChIJzxDBdCEXFogRyIolup0K8FU",
      "types": [
        "street_address"
      ]
    },
    {
      "address_components": [
        {
          "long_name": "Corunna",
          "short_name": "Corunna",
          "types": [
            "locality",
            "political"
          ]
        },
        {
          "long_name": "Richland Township",
          "short_name": "Richland Township",
          "types": [
            "administrative_area_level_3",
            "political"
          ]
        },
        {
          "long_name": "DeKalb County",
          "short_name": "DeKalb County",
          "types": [
            "administrative_area_level_2",
            "political"
          ]
        },
        {
          "long_name": "Indiana",
          "short_name": "IN",
          "types": [
            "administrative_area_level_1",
            "political"
          ]
        },
        {
          "long_name": "United States",
          "short_name": "US",
          "types": [
            "country",
            "political"
          ]
        },
        {
          "long_name": "46730",
          "short_name": "46730",
          "types": [
            "postal_code"
          ]
        }
      ],
      "formatted_address": "Corunna, IN 46730, USA",
      "geometry": {
        "bounds": {
          "northeast": {
            "lat": 41.438424,
            "lng": -85.138052
          },
          "southwest": {
            "lat": 41.431916,
            "lng": -85.15136009999999
          }
        },
        "location": {
          "lat": 41.4372721,
          "lng": -85.14719339999999
        },
        "location_type": "APPROXIMATE",
        "viewport": {
          "northeast": {
            "lat": 41.438424,
            "lng": -85.138052
          },
          "southwest": {
            "lat": 41.431916,
            "lng": -85.15136009999999
          }
        }
      },
      "place_id": "ChIJqQMDEyEXFogR-qzj0xBWXec",
      "types": [
        "locality",
        "political"
      ]
    },
    {
      "address_components": [
        {
          "long_name": "Richland Township",
          "short_name": "Richland Township",
          "types": [
            "administrative_area_level_3",
            "political"
          ]
        },
        {
          "long_name": "DeKalb County",
          "short_name": "DeKalb County",
          "types": [
            "administrative_area_level_2",
            "political"
          ]
        },
        {
          "long_name": "Indiana",
          "short_name": "IN",
          "types": [
            "administrative_area_level_1",
            "political"
          ]
        },
        {
          "long_name": "United States",
          "short_name": "US",
          "types": [
            "country",
            "political"
          ]
        }
      ],
      "formatted_address": "Richland Township, IN, USA",
      "geometry": {
        "bounds": {
          "northeast": {
            "lat": 41.439144,
            "lng": -85.078586
          },
          "southwest": {
            "lat": 41.380047,
            "lng": -85.193463
          }
        },
        "location": {
          "lat": 41.4087779,
          "lng": -85.1375645
        },
        "location_type": "APPROXIMATE",
        "viewport": {
          "northeast": {
            "lat": 41.439144,
            "lng": -85.078586
          },
          "southwest": {
            "lat": 41.380047,
            "lng": -85.193463
          }
        }
      },
      "place_id": "ChIJOfddk88QFogR5pN7a6uBpWE",
      "types": [
        "administrative_area_level_3",
        "political"
      ]
    },
    {
      "address_components": [
        {
          "long_name": "46730",
          "short_name": "46730",
          "types": [
            "postal_code"
          ]
        },
        {
          "long_name": "Corunna",
          "short_name": "Corunna",
          "types": [
            "locality",
            "political"
          ]
        },
        {
          "long_name": "Indiana",
          "short_name": "IN",
          "types": [
            "administrative_area_level_1",
            "political"
          ]
        },
        {
          "long_name": "United States",
          "short_name": "US",
          "types": [
            "country",
            "political"
          ]
        }
      ],
      "formatted_address": "Corunna, IN 46730, USA",
      "geometry": {
        "bounds": {
          "northeast": {
            "lat": 41.5186179,
            "lng": -85.098362
          },
          "southwest": {
            "lat": 41.388418,
            "lng": -85.1948869
          }
        },
        "location": {
          "lat": 41.4496092,
          "lng": -85.1583064
        },
        "location_type": "APPROXIMATE",
        "viewport": {
          "northeast": {
            "lat": 41.5186179,
            "lng": -85.098362
          },
          "southwest": {
            "lat": 41.388418,
            "lng": -85.1948869
          }
        }
      },
      "place_id": "ChIJCUS0dvwWFogRuw7oDGaNWIg",
      "types": [
        "postal_code"
      ]
    },
    {
      "address_components": [
        {
          "long_name": "Auburn",
          "short_name": "Auburn",
          "types": [
            "political"
          ]
        },
        {
          "long_name": "United States",
          "short_name": "US",
          "types": [
            "country",
            "political"
          ]
        }
      ],
      "formatted_address": "Auburn, USA",
      "geometry": {
        "bounds": {
          "northeast": {
            "lat": 41.5302981,
            "lng": -84.8035811
          },
          "southwest": {
            "lat": 41.264283,
            "lng": -85.1939259
          }
        },
        "location": {
          "lat": 41.4138928,
          "lng": -85.02334599999999
        },
        "location_type": "APPROXIMATE",
        "viewport": {
          "northeast": {
            "lat": 41.5302981,
            "lng": -84.8035811
          },
          "southwest": {
            "lat": 41.264283,
            "lng": -85.1939259
          }
        }
      },
      "place_id": "ChIJ1_h4nD4cFogR6K-pBgv51qs",
      "types": [
        "political"
      ]
    },
    {
      "address_components": [
        {
          "long_name": "DeKalb County",
          "short_name": "DeKalb County",
          "types": [
            "administrative_area_level_2",
            "political"
          ]
        },
        {
          "long_name": "Indiana",
          "short_name": "IN",
          "types": [
            "administrative_area_level_1",
            "political"
          ]
        },
        {
          "long_name": "United States",
          "short_name": "US",
          "types": [
            "country",
            "political"
          ]
        }
      ],
      "formatted_address": "DeKalb County, IN, USA",
      "geometry": {
        "bounds": {
          "northeast": {
            "lat": 41.5302979,
            "lng": -84.8035879
          },
          "southwest": {
            "lat": 41.2642219,
            "lng": -85.19409999999999
          }
        },
        "location": {
          "lat": 41.4138928,
          "lng": -85.02334599999999
        },
        "location_type": "APPROXIMATE",
        "viewport": {
          "northeast": {
            "lat": 41.5302979,
            "lng": -84.8035879
          },
          "southwest": {
            "lat": 41.2642219,
            "lng": -85.19409999999999
          }
        }
      },
      "place_id": "ChIJM30iaRz2PYgRYSKhYsP5Sy4",
      "types": [
        "administrative_area_level_2",
        "political"
      ]
    },
    {
      "address_components": [
        {
          "long_name": "Indiana",
          "short_name": "IN",
          "types": [
            "administrative_area_level_1",
            "political"
          ]
        },
        {
          "long_name": "United States",
          "short_name": "US",
          "types": [
            "country",
            "political"
          ]
        }
      ],
      "formatted_address": "Indiana, USA",
      "geometry": {
        "bounds": {
          "northeast": {
            "lat": 41.7606971,
            "lng": -84.784662
          },
          "southwest": {
            "lat": 37.7717419,
            "lng": -88.097892
          }
        },
        "location": {
          "lat": 40.2671941,
          "lng": -86.1349019
        },
        "location_type": "APPROXIMATE",
        "viewport": {
          "northeast": {
            "lat": 41.7606971,
            "lng": -84.784662
          },
          "southwest": {
            "lat": 37.7717419,
            "lng": -88.097892
          }
        }
      },
      "place_id": "ChIJHRv42bxQa4gRcuwyy84vEH4",
      "types": [
        "administrative_area_level_1",
        "political"
      ]
    },
    {
      "address_components": [
        {
          "long_name": "United States",
          "short_name": "US",
          "types": [
            "country",
            "political"
          ]
        }
      ],
      "formatted_address": "United States",
      "geometry": {
        "bounds": {
          "northeast": {
            "lat": 71.3867745,
            "lng": -66.9502861
          },
          "southwest": {
            "lat": 18.9106768,
            "lng": 172.4458955
          }
        },
        "location": {
          "lat": 37.09024,
          "lng": -95.712891
        },
        "location_type": "APPROXIMATE",
        "viewport": {
          "northeast": {
            "lat": 49.38,
            "lng": -66.94
          },
          "southwest": {
            "lat": 25.82,
            "lng": -124.39
          }
        }
      },
      "place_id": "ChIJCzYy5IS16lQRQrfeQ5K5Oxw",
      "types": [
        "country",
        "political"
      ]
    }
  ],
  "status": "OK"
}
