{
  "results": [
    {
      "address_components": [
        {
          "long_name": "322",
          "short_name": "322",
          "types": [
            "street_number"
          ]
        },
        {
          "long_name": "Regier Avenue",
          "short_name": "Regier Ave",
          "types": [
            "route"
          ]
        },
        {
          "long_name": "Elbing",
          "short_name": "Elbing",
          "types": [
            "locality",
            "political"
          ]
        },
        {
          "long_name": "Fairmount",
          "short_name": "Fairmount",
          "types": [
            "administrative_area_level_3",
            "political"
          ]
        },
        {
          "long_name": "Butler County",
          "short_name": "Butler County",
          "types": [
            "administrative_area_level_2",
            "political"
          ]
        },
        {
          "long_name": "Kansas",
          "short_name": "KS",
          "types": [
            "administrative_area_level_1",
            "political"
          ]
        },
        {
          "long_name": "United States",
          "short_name": "US",
          "types": [
            "country",
            "political"
          ]
        },
        {
          "long_name": "67041",
          "short_name": "67041",
          "types": [
            "postal_code"
          ]
        },
        {
          "long_name": "8827",
          "short_name": "8827",
          "types": [
            "postal_code_suffix"
          ]
        }
      ],
      "formatted_address": "322 Regier Ave, Elbing, KS 67041, USA",
      "geometry": {
        "location": {
          "lat": 38.054187,
          "lng": -97.12749
        },
        "location_type": "ROOFTOP",
        "viewport": {
          "northeast": {
            "lat": 38.05553598029149,
            "lng": -97.1261410197085
          },
          "southwest": {
            "lat": 38.0528380197085,
            "lng": -97.1288389802915
          }
        }
      },
      "place_id": "ChIJDUL4I1cKu4cRgWbWJbSQyOo",
      "types": [
        "street_address"
      ]
    },
    {
      "address_components": [
        {
          "long_name": "Elbing",
          "short_name": "Elbing",
          "types": [
            "locality",
            "political"
          ]
        },
        {
          "long_name": "Fairmount",
          "short_name": "Fairmount",
          "types": [
            "administrative_area_level_3",
            "political"
          ]
        },
        {
          "long_name": "Butler County",
          "short_name": "Butler County",
          "types": [
            "administrative_area_level_2",
            "political"
          ]
        },
        {
          "long_name": "Kansas",
          "short_name": "KS",
          "types": [
            "administrative_area_level_1",
            "political"
          ]
        },
        {
          "long_name": "United States",
          "short_name": "US",
          "types": [
            "country",
            "political"
          ]
        }
      ],
      "formatted_address": "Elbing, KS, USA",
      "geometry": {
        "bounds": {
          "northeast": {
            "lat": 38.058158,
            "lng": -97.124166
          },
          "southwest": {
            "lat": 38.04967389999999,
            "lng": -97.1299549
          }
        },
        "location": {
          "lat": 38.0527925,
          "lng": -97.1278102
        },
        "location_type": "APPROXIMATE",
        "viewport": {
          "northeast": {
            "lat": 38.058158,
            "lng": -97.124166
          },
          "southwest": {
            "lat": 38.04967389999999,
            "lng": -97.1299549
          }
        }
      },
      "place_id": "ChIJ4QbDt1QKu4cR-nFzDOYbnLI",
      "types": [
        "locality",
        "political"
      ]
    },
    {
      "address_components": [
        {
          "long_name": "67041",
          "short_name": "67041",
          "types": [
            "postal_code"
          ]
        },
        {
          "long_name": "Elbing",
          "short_name": "Elbing",
          "types": [
            "locality",
            "political"
          ]
        },
        {
          "long_name": "Fairmount",
          "short_name": "Fairmount",
          "types": [
            "administrative_area_level_3",
            "political"
          ]
        },
        {
          "long_name": "Butler County",
          "short_name": "Butler County",
          "types": [
            "administrative_area_level_2",
            "political"
          ]
        },
        {
          "long_name": "Kansas",
          "short_name": "KS",
          "types": [
            "administrative_area_level_1",
            "political"
          ]
        },
        {
          "long_name": "United States",
          "short_name": "US",
          "types": [
            "country",
            "political"
          ]
        }
      ],
      "formatted_address": "Elbing, KS 67041, USA",
      "geometry": {
        "bounds": {
          "northeast": {
            "lat": 38.0583169,
            "lng": -97.12525079999999
          },
          "southwest": {
            "lat": 38.049766,
            "lng": -97.1344841
          }
        },
        "location": {
          "lat": 38.0544064,
          "lng": -97.12920760000002
        },
        "location_type": "APPROXIMATE",
        "viewport": {
          "northeast": {
            "lat": 38.0583169,
            "lng": -97.12525079999999
          },
          "southwest": {
            "lat": 38.049766,
            "lng": -97.1344841
          }
        }
      },
      "place_id": "ChIJWZigwFYKu4cRXvgLBbWr4lo",
      "types": [
        "postal_code"
      ]
    },
    {
      "address_components": [
        {
          "long_name": "Fairmount",
          "short_name": "Fairmount",
          "types": [
            "administrative_area_level_3",
            "political"
          ]
        },
        {
          "long_name": "Butler County",
          "short_name": "Butler County",
          "types": [
            "administrative_area_level_2",
            "political"
          ]
        },
        {
          "long_name": "Kansas",
          "short_name": "KS",
          "types": [
            "administrative_area_level_1",
            "political"
          ]
        },
        {
          "long_name": "United States",
          "short_name": "US",
          "types": [
            "country",
            "political"
          ]
        }
      ],
      "formatted_address": "Fairmount, KS, USA",
      "geometry": {
        "bounds": {
          "northeast": {
            "lat": 38.0877039,
            "lng": -97.0418698
          },
          "southwest": {
            "lat": 37.9993671,
            "lng": -97.1530459
          }
        },
        "location": {
          "lat": 38.0381947,
          "lng": -97.1144039
        },
        "location_type": "APPROXIMATE",
        "viewport": {
          "northeast": {
            "lat": 38.0877039,
            "lng": -97.0418698
          },
          "southwest": {
            "lat": 37.9993671,
            "lng": -97.1530459
          }
        }
      },
      "place_id": "ChIJlTdfbHQKu4cRNSb-5N_QWmA",
      "types": [
        "administrative_area_level_3",
        "political"
      ]
    },
    {
      "address_components": [
        {
          "long_name": "Butler County",
          "short_name": "Butler County",
          "types": [
            "administrative_area_level_2",
            "political"
          ]
        },
        {
          "long_name": "Kansas",
          "short_name": "KS",
          "types": [
            "administrative_area_level_1",
            "political"
          ]
        },
        {
          "long_name": "United States",
          "short_name": "US",
          "types": [
            "country",
            "political"
          ]
        }
      ],
      "formatted_address": "Butler County, KS, USA",
      "geometry": {
        "bounds": {
          "northeast": {
            "lat": 38.0877039,
            "lng": -96.5227819
          },
          "southwest": {
            "lat": 37.4753999,
            "lng": -97.15344990000001
          }
        },
        "location": {
          "lat": 37.8649441,
          "lng": -96.83509989999999
        },
        "location_type": "APPROXIMATE",
        "viewport": {
          "northeast": {
            "lat": 38.0877039,
            "lng": -96.5227819
          },
          "southwest": {
            "lat": 37.4753999,
            "lng": -97.15344990000001
          }
        }
      },
      "place_id": "ChIJG-mbtg5RuocR6he4ZC926EM",
      "types": [
        "administrative_area_level_2",
        "political"
      ]
    },
    {
      "address_components": [
        {
          "long_name": "Wichita",
          "short_name": "Wichita",
          "types": [
            "political"
          ]
        },
        {
          "long_name": "United States",
          "short_name": "US",
          "types": [
            "country",
            "political"
          ]
        }
      ],
      "formatted_address": "Wichita, USA",
      "geometry": {
        "bounds": {
          "northeast": {
            "lat": 38.174845,
            "lng": -96.52278199999999
          },
          "southwest": {
            "lat": 36.998682,
            "lng": -97.808684
          }
        },
        "location": {
          "lat": 37.56345719999999,
          "lng": -97.6114217
        },
        "location_type": "APPROXIMATE",
        "viewport": {
          "northeast": {
            "lat": 38.174845,
            "lng": -96.52278199999999
          },
          "southwest": {
            "lat": 36.998682,
            "lng": -97.808684
          }
        }
      },
      "place_id": "ChIJBR4vHiP7uocRb5iXYk82f7k",
      "types": [
        "political"
      ]
    },
    {
      "address_components": [
        {
          "long_name": "Kansas",
          "short_name": "KS",
          "types": [
            "administrative_area_level_1",
            "political"
          ]
        },
        {
          "long_name": "United States",
          "short_name": "US",
          "types": [
            "country",
            "political"
          ]
        }
      ],
      "formatted_address": "Kansas, USA",
      "geometry": {
        "bounds": {
          "northeast": {
            "lat": 40.0045419,
            "lng": -94.588387
          },
          "southwest": {
            "lat": 36.9930159,
            "lng": -102.0517688
          }
        },
        "location": {
          "lat": 39.011902,
          "lng": -98.4842465
        },
        "location_type": "APPROXIMATE",
        "viewport": {
          "northeast": {
            "lat": 40.0045419,
            "lng": -94.588387
          },
          "southwest": {
            "lat": 36.9930159,
            "lng": -102.0517688
          }
        }
      },
      "place_id": "ChIJawF8cXEXo4cRXwk-S6m0wmg",
      "types": [
        "administrative_area_level_1",
        "political"
      ]
    },
    {
      "address_components": [
        {
          "long_name": "United States",
          "short_name": "US",
          "types": [
            "country",
            "political"
          ]
        }
      ],
      "formatted_address": "United States",
      "geometry": {
        "bounds": {
          "northeast": {
            "lat": 71.3867745,
            "lng": -66.9502861
          },
          "southwest": {
            "lat": 18.9106768,
            "lng": 172.4458955
          }
        },
        "location": {
          "lat": 37.09024,
          "lng": -95.712891
        },
        "location_type": "APPROXIMATE",
        "viewport": {
          "northeast": {
            "lat": 49.38,
            "lng": -66.94
          },
          "southwest": {
            "lat": 25.82,
            "lng": -124.39
          }
        }
      },
      "place_id": "ChIJCzYy5IS16lQRQrfeQ5K5Oxw",
      "types": [
        "country",
        "political"
      ]
    }
  ],
  "status": "OK"
}
