{
  "results": [
    {
      "address_components": [
        {
          "long_name": "191",
          "short_name": "191",
          "types": [
            "street_number"
          ]
        },
        {
          "long_name": "Granite Street",
          "short_name": "Granite St",
          "types": [
            "route"
          ]
        },
        {
          "long_name": "Old Monroe",
          "short_name": "Old Monroe",
          "types": [
            "locality",
            "political"
          ]
        },
        {
          "long_name": "Monroe Township",
          "short_name": "Monroe Township",
          "types": [
            "administrative_area_level_3",
            "political"
          ]
        },
        {
          "long_name": "Lincoln County",
          "short_name": "Lincoln County",
          "types": [
            "administrative_area_level_2",
            "political"
          ]
        },
        {
          "long_name": "Missouri",
          "short_name": "MO",
          "types": [
            "administrative_area_level_1",
            "political"
          ]
        },
        {
          "long_name": "United States",
          "short_name": "US",
          "types": [
            "country",
            "political"
          ]
        },
        {
          "long_name": "63369",
          "short_name": "63369",
          "types": [
            "postal_code"
          ]
        },
        {
          "long_name": "2617",
          "short_name": "2617",
          "types": [
            "postal_code_suffix"
          ]
        }
      ],
      "formatted_address": "191 Granite St, Old Monroe, MO 63369, USA",
      "geometry": {
        "location": {
          "lat": 38.914913,
          "lng": -90.80181999999999
        },
        "location_type": "ROOFTOP",
        "viewport": {
          "northeast": {
            "lat": 38.91626198029149,
            "lng": -90.8004710197085
          },
          "southwest": {
            "lat": 38.9135640197085,
            "lng": -90.8031689802915
          }
        }
      },
      "place_id": "ChIJZ5JGjJDD3ocRUyE3iJ84g90",
      "types": [
        "street_address"
      ]
    },
    {
      "address_components": [
        {
          "long_name": "Chain of Rocks",
          "short_name": "Chain of Rocks",
          "types": [
            "locality",
            "political"
          ]
        },
        {
          "long_name": "Monroe Township",
          "short_name": "Monroe Township",
          "types": [
            "administrative_area_level_3",
            "political"
          ]
        },
        {
          "long_name": "Lincoln County",
          "short_name": "Lincoln County",
          "types": [
            "administrative_area_level_2",
            "political"
          ]
        },
        {
          "long_name": "Missouri",
          "short_name": "MO",
          "types": [
            "administrative_area_level_1",
            "political"
          ]
        },
        {
          "long_name": "United States",
          "short_name": "US",
          "types": [
            "country",
            "political"
          ]
        },
        {
          "long_name": "63369",
          "short_name": "63369",
          "types": [
            "postal_code"
          ]
        }
      ],
      "formatted_address": "Chain of Rocks, MO 63369, USA",
      "geometry": {
        "bounds": {
          "northeast": {
            "lat": 38.919416,
            "lng": -90.7965858
          },
          "southwest": {
            "lat": 38.9114909,
            "lng": -90.8080389
          }
        },
        "location": {
          "lat": 38.9150505,
          "lng": -90.801518
        },
        "location_type": "APPROXIMATE",
        "viewport": {
          "northeast": {
            "lat": 38.919416,
            "lng": -90.7965858
          },
          "southwest": {
            "lat": 38.9114909,
            "lng": -90.8080389
          }
        }
      },
      "place_id": "ChIJGWCp0JDD3ocR8a3IutI_9NA",
      "types": [
        "locality",
        "political"
      ]
    },
    {
      "address_components": [
        {
          "long_name": "63369",
          "short_name": "63369",
          "types": [
            "postal_code"
          ]
        },
        {
          "long_name": "Old Monroe",
          "short_name": "Old Monroe",
          "types": [
            "locality",
            "political"
          ]
        },
        {
          "long_name": "Missouri",
          "short_name": "MO",
          "types": [
            "administrative_area_level_1",
            "political"
          ]
        },
        {
          "long_name": "United States",
          "short_name": "US",
          "types": [
            "country",
            "political"
          ]
        }
      ],
      "formatted_address": "Old Monroe, MO 63369, USA",
      "geometry": {
        "bounds": {
          "northeast": {
            "lat": 38.994237,
            "lng": -90.6631811
          },
          "southwest": {
            "lat": 38.8757571,
            "lng": -90.849003
          }
        },
        "location": {
          "lat": 38.953888,
          "lng": -90.762788
        },
        "location_type": "APPROXIMATE",
        "viewport": {
          "northeast": {
            "lat": 38.994237,
            "lng": -90.6631811
          },
          "southwest": {
            "lat": 38.8757571,
            "lng": -90.849003
          }
        }
      },
      "place_id": "ChIJ85zvtwTD3ocRYsyzX8ozXb0",
      "types": [
        "postal_code"
      ]
    },
    {
      "address_components": [
        {
          "long_name": "Monroe Township",
          "short_name": "Monroe Township",
          "types": [
            "administrative_area_level_3",
            "political"
          ]
        },
        {
          "long_name": "Lincoln County",
          "short_name": "Lincoln County",
          "types": [
            "administrative_area_level_2",
            "political"
          ]
        },
        {
          "long_name": "Missouri",
          "short_name": "MO",
          "types": [
            "administrative_area_level_1",
            "political"
          ]
        },
        {
          "long_name": "United States",
          "short_name": "US",
          "types": [
            "country",
            "political"
          ]
        }
      ],
      "formatted_address": "Monroe Township, MO, USA",
      "geometry": {
        "bounds": {
          "northeast": {
            "lat": 39.0213,
            "lng": -90.665565
          },
          "southwest": {
            "lat": 38.8757571,
            "lng": -90.9532049
          }
        },
        "location": {
          "lat": 38.9640047,
          "lng": -90.810357
        },
        "location_type": "APPROXIMATE",
        "viewport": {
          "northeast": {
            "lat": 39.0213,
            "lng": -90.665565
          },
          "southwest": {
            "lat": 38.8757571,
            "lng": -90.9532049
          }
        }
      },
      "place_id": "ChIJ1fL7JU_C3ocRhzWXjL-yZko",
      "types": [
        "administrative_area_level_3",
        "political"
      ]
    },
    {
      "address_components": [
        {
          "long_name": "Lincoln County",
          "short_name": "Lincoln County",
          "types": [
            "administrative_area_level_2",
            "political"
          ]
        },
        {
          "long_name": "Missouri",
          "short_name": "MO",
          "types": [
            "administrative_area_level_1",
            "political"
          ]
        },
        {
          "long_name": "United States",
          "short_name": "US",
          "types": [
            "country",
            "political"
          ]
        }
      ],
      "formatted_address": "Lincoln County, MO, USA",
      "geometry": {
        "bounds": {
          "northeast": {
            "lat": 39.2272649,
            "lng": -90.665565
          },
          "southwest": {
            "lat": 38.87086499999999,
            "lng": -91.264287
          }
        },
        "location": {
          "lat": 39.0669568,
          "lng": -90.9820668
        },
        "location_type": "APPROXIMATE",
        "viewport": {
          "northeast": {
            "lat": 39.2272649,
            "lng": -90.665565
          },
          "southwest": {
            "lat": 38.87086499999999,
            "lng": -91.264287
          }
        }
      },
      "place_id": "ChIJ0zFN5hjA3ocRICgMLP-f8dI",
      "types": [
        "administrative_area_level_2",
        "political"
      ]
    },
    {
      "address_components": [
        {
          "long_name": "St. Louis",
          "short_name": "St. Louis",
          "types": [
            "political"
          ]
        },
        {
          "long_name": "United States",
          "short_name": "US",
          "types": [
            "country",
            "political"
          ]
        }
      ],
      "formatted_address": "St. Louis, USA",
      "geometry": {
        "bounds": {
          "northeast": {
            "lat": 39.5233661,
            "lng": -89.138356
          },
          "southwest": {
            "lat": 37.7341961,
            "lng": -91.4186371
          }
        },
        "location": {
          "lat": 38.8196814,
          "lng": -90.4502368
        },
        "location_type": "APPROXIMATE",
        "viewport": {
          "northeast": {
            "lat": 39.5233661,
            "lng": -89.138356
          },
          "southwest": {
            "lat": 37.7341961,
            "lng": -91.4186371
          }
        }
      },
      "place_id": "ChIJneBzzj4z34cRFGg2ez6q57o",
      "types": [
        "political"
      ]
    },
    {
      "address_components": [
        {
          "long_name": "Missouri",
          "short_name": "MO",
          "types": [
            "administrative_area_level_1",
            "political"
          ]
        },
        {
          "long_name": "United States",
          "short_name": "US",
          "types": [
            "country",
            "political"
          ]
        }
      ],
      "formatted_address": "Missouri, USA",
      "geometry": {
        "bounds": {
          "northeast": {
            "lat": 40.61364,
            "lng": -89.09949399999999
          },
          "southwest": {
            "lat": 35.9956829,
            "lng": -95.774704
          }
        },
        "location": {
          "lat": 37.9642529,
          "lng": -91.8318334
        },
        "location_type": "APPROXIMATE",
        "viewport": {
          "northeast": {
            "lat": 40.61364,
            "lng": -89.09949399999999
          },
          "southwest": {
            "lat": 35.9956829,
            "lng": -95.774704
          }
        }
      },
      "place_id": "ChIJfeMiSNXmwIcRcr1mBFnEW7U",
      "types": [
        "administrative_area_level_1",
        "political"
      ]
    },
    {
      "address_components": [
        {
          "long_name": "United States",
          "short_name": "US",
          "types": [
            "country",
            "political"
          ]
        }
      ],
      "formatted_address": "United States",
      "geometry": {
        "bounds": {
          "northeast": {
            "lat": 71.3867745,
            "lng": -66.9502861
          },
          "southwest": {
            "lat": 18.9106768,
            "lng": 172.4458955
          }
        },
        "location": {
          "lat": 37.09024,
          "lng": -95.712891
        },
        "location_type": "APPROXIMATE",
        "viewport": {
          "northeast": {
            "lat": 49.38,
            "lng": -66.94
          },
          "southwest": {
            "lat": 25.82,
            "lng": -124.39
          }
        }
      },
      "place_id": "ChIJCzYy5IS16lQRQrfeQ5K5Oxw",
      "types": [
        "country",
        "political"
      ]
    }
  ],
  "status": "OK"
}
