{
  "results": [
    {
      "address_components": [
        {
          "long_name": "4095",
          "short_name": "4095",
          "types": [
            "street_number"
          ]
        },
        {
          "long_name": "North Srv Road West",
          "short_name": "North Service Rd W",
          "types": [
            "route"
          ]
        },
        {
          "long_name": "Sullivan",
          "short_name": "Sullivan",
          "types": [
            "locality",
            "political"
          ]
        },
        {
          "long_name": "Boone Township",
          "short_name": "Boone Township",
          "types": [
            "administrative_area_level_3",
            "political"
          ]
        },
        {
          "long_name": "Crawford County",
          "short_name": "Crawford County",
          "types": [
            "administrative_area_level_2",
            "political"
          ]
        },
        {
          "long_name": "Missouri",
          "short_name": "MO",
          "types": [
            "administrative_area_level_1",
            "political"
          ]
        },
        {
          "long_name": "United States",
          "short_name": "US",
          "types": [
            "country",
            "political"
          ]
        },
        {
          "long_name": "63080",
          "short_name": "63080",
          "types": [
            "postal_code"
          ]
        },
        {
          "long_name": "2815",
          "short_name": "2815",
          "types": [
            "postal_code_suffix"
          ]
        }
      ],
      "formatted_address": "4095 North Service Rd W, Sullivan, MO 63080, USA",
      "geometry": {
        "location": {
          "lat": 38.1929795,
          "lng": -91.189178
        },
        "location_type": "ROOFTOP",
        "viewport": {
          "northeast": {
            "lat": 38.1943284802915,
            "lng": -91.18782901970849
          },
          "southwest": {
            "lat": 38.1916305197085,
            "lng": -91.1905269802915
          }
        }
      },
      "place_id": "ChIJqd3Lllxi2YcRlAYq8Ekr_bI",
      "types": [
        "street_address"
      ]
    },
    {
      "address_components": [
        {
          "long_name": "West Sullivan",
          "short_name": "West Sullivan",
          "types": [
            "locality",
            "political"
          ]
        },
        {
          "long_name": "Boone Township",
          "short_name": "Boone Township",
          "types": [
            "administrative_area_level_3",
            "political"
          ]
        },
        {
          "long_name": "Crawford County",
          "short_name": "Crawford County",
          "types": [
            "administrative_area_level_2",
            "political"
          ]
        },
        {
          "long_name": "Missouri",
          "short_name": "MO",
          "types": [
            "administrative_area_level_1",
            "political"
          ]
        },
        {
          "long_name": "United States",
          "short_name": "US",
          "types": [
            "country",
            "political"
          ]
        }
      ],
      "formatted_address": "West Sullivan, MO, USA",
      "geometry": {
        "bounds": {
          "northeast": {
            "lat": 38.1990428,
            "lng": -91.186021
          },
          "southwest": {
            "lat": 38.1844981,
            "lng": -91.19948699999999
          }
        },
        "location": {
          "lat": 38.1875484,
          "lng": -91.1959767
        },
        "location_type": "APPROXIMATE",
        "viewport": {
          "northeast": {
            "lat": 38.1990428,
            "lng": -91.186021
          },
          "southwest": {
            "lat": 38.1844981,
            "lng": -91.19948699999999
          }
        }
      },
      "place_id": "ChIJ1_Qh7Wdi2YcRGb32gcSVxrM",
      "types": [
        "locality",
        "political"
      ]
    },
    {
      "address_components": [
        {
          "long_name": "Boone Township",
          "short_name": "Boone Township",
          "types": [
            "administrative_area_level_3",
            "political"
          ]
        },
        {
          "long_name": "Crawford County",
          "short_name": "Crawford County",
          "types": [
            "administrative_area_level_2",
            "political"
          ]
        },
        {
          "long_name": "Missouri",
          "short_name": "MO",
          "types": [
            "administrative_area_level_1",
            "political"
          ]
        },
        {
          "long_name": "United States",
          "short_name": "US",
          "types": [
            "country",
            "political"
          ]
        }
      ],
      "formatted_address": "Boone Township, MO, USA",
      "geometry": {
        "bounds": {
          "northeast": {
            "lat": 38.204243,
            "lng": -91.095219
          },
          "southwest": {
            "lat": 38.1173858,
            "lng": -91.311927
          }
        },
        "location": {
          "lat": 38.1628221,
          "lng": -91.1929114
        },
        "location_type": "APPROXIMATE",
        "viewport": {
          "northeast": {
            "lat": 38.204243,
            "lng": -91.095219
          },
          "southwest": {
            "lat": 38.1173858,
            "lng": -91.311927
          }
        }
      },
      "place_id": "ChIJd6ziwqJi2YcRbtYi_JjF9iE",
      "types": [
        "administrative_area_level_3",
        "political"
      ]
    },
    {
      "address_components": [
        {
          "long_name": "65441",
          "short_name": "65441",
          "types": [
            "postal_code"
          ]
        },
        {
          "long_name": "Bourbon",
          "short_name": "Bourbon",
          "types": [
            "locality",
            "political"
          ]
        },
        {
          "long_name": "Missouri",
          "short_name": "MO",
          "types": [
            "administrative_area_level_1",
            "political"
          ]
        },
        {
          "long_name": "United States",
          "short_name": "US",
          "types": [
            "country",
            "political"
          ]
        }
      ],
      "formatted_address": "Bourbon, MO 65441, USA",
      "geometry": {
        "bounds": {
          "northeast": {
            "lat": 38.225054,
            "lng": -90.975026
          },
          "southwest": {
            "lat": 37.96386200000001,
            "lng": -91.3863799
          }
        },
        "location": {
          "lat": 38.0786535,
          "lng": -91.15449629999999
        },
        "location_type": "APPROXIMATE",
        "viewport": {
          "northeast": {
            "lat": 38.225054,
            "lng": -90.975026
          },
          "southwest": {
            "lat": 37.96386200000001,
            "lng": -91.3863799
          }
        }
      },
      "place_id": "ChIJzx8Tm2V82YcRIYDk1Ult-Qc",
      "types": [
        "postal_code"
      ]
    },
    {
      "address_components": [
        {
          "long_name": "Crawford County",
          "short_name": "Crawford County",
          "types": [
            "administrative_area_level_2",
            "political"
          ]
        },
        {
          "long_name": "Missouri",
          "short_name": "MO",
          "types": [
            "administrative_area_level_1",
            "political"
          ]
        },
        {
          "long_name": "United States",
          "short_name": "US",
          "types": [
            "country",
            "political"
          ]
        }
      ],
      "formatted_address": "Crawford County, MO, USA",
      "geometry": {
        "bounds": {
          "northeast": {
            "lat": 38.2116389,
            "lng": -91.0939411
          },
          "southwest": {
            "lat": 37.6971979,
            "lng": -91.53530479999999
          }
        },
        "location": {
          "lat": 38.0561057,
          "lng": -91.28910359999999
        },
        "location_type": "APPROXIMATE",
        "viewport": {
          "northeast": {
            "lat": 38.2116389,
            "lng": -91.0939411
          },
          "southwest": {
            "lat": 37.6971979,
            "lng": -91.53530479999999
          }
        }
      },
      "place_id": "ChIJw1roeLsm2ocRiJ5DM7XurYA",
      "types": [
        "administrative_area_level_2",
        "political"
      ]
    },
    {
      "address_components": [
        {
          "long_name": "Missouri",
          "short_name": "MO",
          "types": [
            "administrative_area_level_1",
            "political"
          ]
        },
        {
          "long_name": "United States",
          "short_name": "US",
          "types": [
            "country",
            "political"
          ]
        }
      ],
      "formatted_address": "Missouri, USA",
      "geometry": {
        "bounds": {
          "northeast": {
            "lat": 40.61364,
            "lng": -89.09949399999999
          },
          "southwest": {
            "lat": 35.9956829,
            "lng": -95.774704
          }
        },
        "location": {
          "lat": 37.9642529,
          "lng": -91.8318334
        },
        "location_type": "APPROXIMATE",
        "viewport": {
          "northeast": {
            "lat": 40.61364,
            "lng": -89.09949399999999
          },
          "southwest": {
            "lat": 35.9956829,
            "lng": -95.774704
          }
        }
      },
      "place_id": "ChIJfeMiSNXmwIcRcr1mBFnEW7U",
      "types": [
        "administrative_area_level_1",
        "political"
      ]
    },
    {
      "address_components": [
        {
          "long_name": "United States",
          "short_name": "US",
          "types": [
            "country",
            "political"
          ]
        }
      ],
      "formatted_address": "United States",
      "geometry": {
        "bounds": {
          "northeast": {
            "lat": 71.3867745,
            "lng": -66.9502861
          },
          "southwest": {
            "lat": 18.9106768,
            "lng": 172.4458955
          }
        },
        "location": {
          "lat": 37.09024,
          "lng": -95.712891
        },
        "location_type": "APPROXIMATE",
        "viewport": {
          "northeast": {
            "lat": 49.38,
            "lng": -66.94
          },
          "southwest": {
            "lat": 25.82,
            "lng": -124.39
          }
        }
      },
      "place_id": "ChIJCzYy5IS16lQRQrfeQ5K5Oxw",
      "types": [
        "country",
        "political"
      ]
    }
  ],
  "status": "OK"
}
