{
  "results": [
    {
      "address_components": [
        {
          "long_name": "7",
          "short_name": "7",
          "types": [
            "street_number"
          ]
        },
        {
          "long_name": "Delee Avenue",
          "short_name": "Delee Ave",
          "types": [
            "route"
          ]
        },
        {
          "long_name": "Albany",
          "short_name": "Albany",
          "types": [
            "locality",
            "political"
          ]
        },
        {
          "long_name": "Guilderland",
          "short_name": "Guilderland",
          "types": [
            "administrative_area_level_3",
            "political"
          ]
        },
        {
          "long_name": "Albany County",
          "short_name": "Albany County",
          "types": [
            "administrative_area_level_2",
            "political"
          ]
        },
        {
          "long_name": "New York",
          "short_name": "NY",
          "types": [
            "administrative_area_level_1",
            "political"
          ]
        },
        {
          "long_name": "United States",
          "short_name": "US",
          "types": [
            "country",
            "political"
          ]
        },
        {
          "long_name": "12203",
          "short_name": "12203",
          "types": [
            "postal_code"
          ]
        },
        {
          "long_name": "4811",
          "short_name": "4811",
          "types": [
            "postal_code_suffix"
          ]
        }
      ],
      "formatted_address": "7 Delee Ave, Albany, NY 12203, USA",
      "geometry": {
        "location": {
          "lat": 42.688306,
          "lng": -73.874426
        },
        "location_type": "ROOFTOP",
        "viewport": {
          "northeast": {
            "lat": 42.68965498029149,
            "lng": -73.8730770197085
          },
          "southwest": {
            "lat": 42.6869570197085,
            "lng": -73.87577498029151
          }
        }
      },
      "place_id": "ChIJZ8Ig_-R03okR0lYLMQt0hfw",
      "types": [
        "street_address"
      ]
    },
    {
      "address_components": [
        {
          "long_name": "Westmere",
          "short_name": "Westmere",
          "types": [
            "locality",
            "political"
          ]
        },
        {
          "long_name": "Guilderland",
          "short_name": "Guilderland",
          "types": [
            "administrative_area_level_3",
            "political"
          ]
        },
        {
          "long_name": "Albany County",
          "short_name": "Albany County",
          "types": [
            "administrative_area_level_2",
            "political"
          ]
        },
        {
          "long_name": "New York",
          "short_name": "NY",
          "types": [
            "administrative_area_level_1",
            "political"
          ]
        },
        {
          "long_name": "United States",
          "short_name": "US",
          "types": [
            "country",
            "political"
          ]
        }
      ],
      "formatted_address": "Westmere, NY, USA",
      "geometry": {
        "bounds": {
          "northeast": {
            "lat": 42.7027589,
            "lng": -73.843897
          },
          "southwest": {
            "lat": 42.677124,
            "lng": -73.9029889
          }
        },
        "location": {
          "lat": 42.6911891,
          "lng": -73.8687343
        },
        "location_type": "APPROXIMATE",
        "viewport": {
          "northeast": {
            "lat": 42.7027589,
            "lng": -73.843897
          },
          "southwest": {
            "lat": 42.677124,
            "lng": -73.9029889
          }
        }
      },
      "place_id": "ChIJTaz49cF03okR7iK4zpavVLw",
      "types": [
        "locality",
        "political"
      ]
    },
    {
      "address_components": [
        {
          "long_name": "12203",
          "short_name": "12203",
          "types": [
            "postal_code"
          ]
        },
        {
          "long_name": "Albany",
          "short_name": "Albany",
          "types": [
            "locality",
            "political"
          ]
        },
        {
          "long_name": "Albany County",
          "short_name": "Albany County",
          "types": [
            "administrative_area_level_2",
            "political"
          ]
        },
        {
          "long_name": "New York",
          "short_name": "NY",
          "types": [
            "administrative_area_level_1",
            "political"
          ]
        },
        {
          "long_name": "United States",
          "short_name": "US",
          "types": [
            "country",
            "political"
          ]
        }
      ],
      "formatted_address": "Albany, NY 12203, USA",
      "geometry": {
        "bounds": {
          "northeast": {
            "lat": 42.7275489,
            "lng": -73.7653919
          },
          "southwest": {
            "lat": 42.647653,
            "lng": -73.898099
          }
        },
        "location": {
          "lat": 42.6823182,
          "lng": -73.8477874
        },
        "location_type": "APPROXIMATE",
        "viewport": {
          "northeast": {
            "lat": 42.7275489,
            "lng": -73.7653919
          },
          "southwest": {
            "lat": 42.647653,
            "lng": -73.898099
          }
        }
      },
      "place_id": "ChIJfX8FbjAL3okRXAnyqyPamqw",
      "postcode_localities": [
        "Albany",
        "STUYVESANT PLAZA",
        "STUYVSNT PLZ"
      ],
      "types": [
        "postal_code"
      ]
    },
    {
      "address_components": [
        {
          "long_name": "Guilderland",
          "short_name": "Guilderland",
          "types": [
            "administrative_area_level_3",
            "political"
          ]
        },
        {
          "long_name": "Albany County",
          "short_name": "Albany County",
          "types": [
            "administrative_area_level_2",
            "political"
          ]
        },
        {
          "long_name": "New York",
          "short_name": "NY",
          "types": [
            "administrative_area_level_1",
            "political"
          ]
        },
        {
          "long_name": "United States",
          "short_name": "US",
          "types": [
            "country",
            "political"
          ]
        }
      ],
      "formatted_address": "Guilderland, NY, USA",
      "geometry": {
        "bounds": {
          "northeast": {
            "lat": 42.76070989999999,
            "lng": -73.8117141
          },
          "southwest": {
            "lat": 42.65913,
            "lng": -74.106499
          }
        },
        "location": {
          "lat": 42.7126849,
          "lng": -73.95949399999999
        },
        "location_type": "APPROXIMATE",
        "viewport": {
          "northeast": {
            "lat": 42.76070989999999,
            "lng": -73.8117141
          },
          "southwest": {
            "lat": 42.65913,
            "lng": -74.106499
          }
        }
      },
      "place_id": "ChIJCShX0ZR23okRHHP6m6wFCm0",
      "types": [
        "administrative_area_level_3",
        "political"
      ]
    },
    {
      "address_components": [
        {
          "long_name": "Albany County",
          "short_name": "Albany County",
          "types": [
            "administrative_area_level_2",
            "political"
          ]
        },
        {
          "long_name": "New York",
          "short_name": "NY",
          "types": [
            "administrative_area_level_1",
            "political"
          ]
        },
        {
          "long_name": "United States",
          "short_name": "US",
          "types": [
            "country",
            "political"
          ]
        }
      ],
      "formatted_address": "Albany County, NY, USA",
      "geometry": {
        "bounds": {
          "northeast": {
            "lat": 42.8225768,
            "lng": -73.67788279999999
          },
          "southwest": {
            "lat": 42.40712690000001,
            "lng": -74.26486299999999
          }
        },
        "location": {
          "lat": 42.57567969999999,
          "lng": -73.93598209999999
        },
        "location_type": "APPROXIMATE",
        "viewport": {
          "northeast": {
            "lat": 42.8225768,
            "lng": -73.67788279999999
          },
          "southwest": {
            "lat": 42.40712690000001,
            "lng": -74.26486299999999
          }
        }
      },
      "place_id": "ChIJKXDqHfHY3YkR58pus3faMs8",
      "types": [
        "administrative_area_level_2",
        "political"
      ]
    },
    {
      "address_components": [
        {
          "long_name": "New York",
          "short_name": "NY",
          "types": [
            "administrative_area_level_1",
            "political"
          ]
        },
        {
          "long_name": "United States",
          "short_name": "US",
          "types": [
            "country",
            "political"
          ]
        }
      ],
      "formatted_address": "New York, USA",
      "geometry": {
        "bounds": {
          "northeast": {
            "lat": 45.015865,
            "lng": -71.85620639999999
          },
          "southwest": {
            "lat": 40.496091,
            "lng": -79.76214379999999
          }
        },
        "location": {
          "lat": 43.2994285,
          "lng": -74.21793260000001
        },
        "location_type": "APPROXIMATE",
        "viewport": {
          "northeast": {
            "lat": 45.015859,
            "lng": -71.85620639999999
          },
          "southwest": {
            "lat": 40.496091,
            "lng": -79.76214379999999
          }
        }
      },
      "place_id": "ChIJqaUj8fBLzEwRZ5UY3sHGz90",
      "types": [
        "administrative_area_level_1",
        "political"
      ]
    },
    {
      "address_components": [
        {
          "long_name": "United States",
          "short_name": "US",
          "types": [
            "country",
            "political"
          ]
        }
      ],
      "formatted_address": "United States",
      "geometry": {
        "bounds": {
          "northeast": {
            "lat": 71.3867745,
            "lng": -66.9502861
          },
          "southwest": {
            "lat": 18.9106768,
            "lng": 172.4458955
          }
        },
        "location": {
          "lat": 37.09024,
          "lng": -95.712891
        },
        "location_type": "APPROXIMATE",
        "viewport": {
          "northeast": {
            "lat": 49.38,
            "lng": -66.94
          },
          "southwest": {
            "lat": 25.82,
            "lng": -124.39
          }
        }
      },
      "place_id": "ChIJCzYy5IS16lQRQrfeQ5K5Oxw",
      "types": [
        "country",
        "political"
      ]
    }
  ],
  "status": "OK"
}
