{
  "results": [
    {
      "address_components": [
        {
          "long_name": "904",
          "short_name": "904",
          "types": [
            "street_number"
          ]
        },
        {
          "long_name": "North Main Street",
          "short_name": "N Main St",
          "types": [
            "route"
          ]
        },
        {
          "long_name": "Cleveland",
          "short_name": "Cleveland",
          "types": [
            "locality",
            "political"
          ]
        },
        {
          "long_name": "West Dolan Township",
          "short_name": "West Dolan Township",
          "types": [
            "administrative_area_level_3",
            "political"
          ]
        },
        {
          "long_name": "Cass County",
          "short_name": "Cass County",
          "types": [
            "administrative_area_level_2",
            "political"
          ]
        },
        {
          "long_name": "Missouri",
          "short_name": "MO",
          "types": [
            "administrative_area_level_1",
            "political"
          ]
        },
        {
          "long_name": "United States",
          "short_name": "US",
          "types": [
            "country",
            "political"
          ]
        },
        {
          "long_name": "64734",
          "short_name": "64734",
          "types": [
            "postal_code"
          ]
        }
      ],
      "formatted_address": "904 N Main St, Cleveland, MO 64734, USA",
      "geometry": {
        "location": {
          "lat": 38.636021,
          "lng": -94.58610499999999
        },
        "location_type": "ROOFTOP",
        "viewport": {
          "northeast": {
            "lat": 38.6373699802915,
            "lng": -94.58475601970848
          },
          "southwest": {
            "lat": 38.6346720197085,
            "lng": -94.5874539802915
          }
        }
      },
      "place_id": "ChIJdZKFJcPNwIcREN2-skPMzrA",
      "types": [
        "street_address"
      ]
    },
    {
      "address_components": [
        {
          "long_name": "West Line",
          "short_name": "West Line",
          "types": [
            "locality",
            "political"
          ]
        },
        {
          "long_name": "West Dolan Township",
          "short_name": "West Dolan Township",
          "types": [
            "administrative_area_level_3",
            "political"
          ]
        },
        {
          "long_name": "Cass County",
          "short_name": "Cass County",
          "types": [
            "administrative_area_level_2",
            "political"
          ]
        },
        {
          "long_name": "Missouri",
          "short_name": "MO",
          "types": [
            "administrative_area_level_1",
            "political"
          ]
        },
        {
          "long_name": "United States",
          "short_name": "US",
          "types": [
            "country",
            "political"
          ]
        },
        {
          "long_name": "64734",
          "short_name": "64734",
          "types": [
            "postal_code"
          ]
        }
      ],
      "formatted_address": "West Line, MO 64734, USA",
      "geometry": {
        "bounds": {
          "northeast": {
            "lat": 38.643144,
            "lng": -94.5799529
          },
          "southwest": {
            "lat": 38.62679,
            "lng": -94.595964
          }
        },
        "location": {
          "lat": 38.6322335,
          "lng": -94.58412129999999
        },
        "location_type": "APPROXIMATE",
        "viewport": {
          "northeast": {
            "lat": 38.643144,
            "lng": -94.5799529
          },
          "southwest": {
            "lat": 38.62679,
            "lng": -94.595964
          }
        }
      },
      "place_id": "ChIJ9fgrMujNwIcRy6zRKpiooVM",
      "types": [
        "locality",
        "political"
      ]
    },
    {
      "address_components": [
        {
          "long_name": "West Dolan Township",
          "short_name": "West Dolan Township",
          "types": [
            "administrative_area_level_3",
            "political"
          ]
        },
        {
          "long_name": "Cass County",
          "short_name": "Cass County",
          "types": [
            "administrative_area_level_2",
            "political"
          ]
        },
        {
          "long_name": "Missouri",
          "short_name": "MO",
          "types": [
            "administrative_area_level_1",
            "political"
          ]
        },
        {
          "long_name": "United States",
          "short_name": "US",
          "types": [
            "country",
            "political"
          ]
        }
      ],
      "formatted_address": "West Dolan Township, MO, USA",
      "geometry": {
        "bounds": {
          "northeast": {
            "lat": 38.6726189,
            "lng": -94.54000090000001
          },
          "southwest": {
            "lat": 38.5638238,
            "lng": -94.61216689999999
          }
        },
        "location": {
          "lat": 38.6263522,
          "lng": -94.58307889999999
        },
        "location_type": "APPROXIMATE",
        "viewport": {
          "northeast": {
            "lat": 38.6726189,
            "lng": -94.54000090000001
          },
          "southwest": {
            "lat": 38.5638238,
            "lng": -94.61216689999999
          }
        }
      },
      "place_id": "ChIJBaoW5ZDNwIcRVFf-pUMqZB8",
      "types": [
        "administrative_area_level_3",
        "political"
      ]
    },
    {
      "address_components": [
        {
          "long_name": "64734",
          "short_name": "64734",
          "types": [
            "postal_code"
          ]
        },
        {
          "long_name": "Cleveland",
          "short_name": "Cleveland",
          "types": [
            "locality",
            "political"
          ]
        },
        {
          "long_name": "Missouri",
          "short_name": "MO",
          "types": [
            "administrative_area_level_1",
            "political"
          ]
        },
        {
          "long_name": "United States",
          "short_name": "US",
          "types": [
            "country",
            "political"
          ]
        }
      ],
      "formatted_address": "Cleveland, MO 64734, USA",
      "geometry": {
        "bounds": {
          "northeast": {
            "lat": 38.7472341,
            "lng": -94.512193
          },
          "southwest": {
            "lat": 38.5632631,
            "lng": -94.61216689999999
          }
        },
        "location": {
          "lat": 38.6682133,
          "lng": -94.58307889999999
        },
        "location_type": "APPROXIMATE",
        "viewport": {
          "northeast": {
            "lat": 38.7472341,
            "lng": -94.512193
          },
          "southwest": {
            "lat": 38.5632631,
            "lng": -94.61216689999999
          }
        }
      },
      "place_id": "ChIJuw-8nwPOwIcR2LxKFzX-cXI",
      "postcode_localities": [
        "Cleveland",
        "West Line"
      ],
      "types": [
        "postal_code"
      ]
    },
    {
      "address_components": [
        {
          "long_name": "Cass County",
          "short_name": "Cass County",
          "types": [
            "administrative_area_level_2",
            "political"
          ]
        },
        {
          "long_name": "Missouri",
          "short_name": "MO",
          "types": [
            "administrative_area_level_1",
            "political"
          ]
        },
        {
          "long_name": "United States",
          "short_name": "US",
          "types": [
            "country",
            "political"
          ]
        }
      ],
      "formatted_address": "Cass County, MO, USA",
      "geometry": {
        "bounds": {
          "northeast": {
            "lat": 38.8472069,
            "lng": -94.0643171
          },
          "southwest": {
            "lat": 38.445268,
            "lng": -94.61288189999999
          }
        },
        "location": {
          "lat": 38.6574448,
          "lng": -94.315422
        },
        "location_type": "APPROXIMATE",
        "viewport": {
          "northeast": {
            "lat": 38.8472069,
            "lng": -94.0643171
          },
          "southwest": {
            "lat": 38.445268,
            "lng": -94.61288189999999
          }
        }
      },
      "place_id": "ChIJ60VnSicnwYcRCxOFL2boo3I",
      "types": [
        "administrative_area_level_2",
        "political"
      ]
    },
    {
      "address_components": [
        {
          "long_name": "Kansas City",
          "short_name": "Kansas City",
          "types": [
            "political"
          ]
        },
        {
          "long_name": "United States",
          "short_name": "US",
          "types": [
            "country",
            "political"
          ]
        }
      ],
      "formatted_address": "Kansas City, USA",
      "geometry": {
        "bounds": {
          "northeast": {
            "lat": 39.788955,
            "lng": -93.477233
          },
          "southwest": {
            "lat": 38.026143,
            "lng": -95.5090159
          }
        },
        "location": {
          "lat": 39.0653602,
          "lng": -94.5624426
        },
        "location_type": "APPROXIMATE",
        "viewport": {
          "northeast": {
            "lat": 39.788955,
            "lng": -93.477233
          },
          "southwest": {
            "lat": 38.026143,
            "lng": -95.5090159
          }
        }
      },
      "place_id": "ChIJ5176R2TnwIcRX_TpnWkvgMk",
      "types": [
        "political"
      ]
    },
    {
      "address_components": [
        {
          "long_name": "Missouri",
          "short_name": "MO",
          "types": [
            "administrative_area_level_1",
            "political"
          ]
        },
        {
          "long_name": "United States",
          "short_name": "US",
          "types": [
            "country",
            "political"
          ]
        }
      ],
      "formatted_address": "Missouri, USA",
      "geometry": {
        "bounds": {
          "northeast": {
            "lat": 40.61364,
            "lng": -89.09949399999999
          },
          "southwest": {
            "lat": 35.9956829,
            "lng": -95.774704
          }
        },
        "location": {
          "lat": 37.9642529,
          "lng": -91.8318334
        },
        "location_type": "APPROXIMATE",
        "viewport": {
          "northeast": {
            "lat": 40.61364,
            "lng": -89.09949399999999
          },
          "southwest": {
            "lat": 35.9956829,
            "lng": -95.774704
          }
        }
      },
      "place_id": "ChIJfeMiSNXmwIcRcr1mBFnEW7U",
      "types": [
        "administrative_area_level_1",
        "political"
      ]
    },
    {
      "address_components": [
        {
          "long_name": "United States",
          "short_name": "US",
          "types": [
            "country",
            "political"
          ]
        }
      ],
      "formatted_address": "United States",
      "geometry": {
        "bounds": {
          "northeast": {
            "lat": 71.3867745,
            "lng": -66.9502861
          },
          "southwest": {
            "lat": 18.9106768,
            "lng": 172.4458955
          }
        },
        "location": {
          "lat": 37.09024,
          "lng": -95.712891
        },
        "location_type": "APPROXIMATE",
        "viewport": {
          "northeast": {
            "lat": 49.38,
            "lng": -66.94
          },
          "southwest": {
            "lat": 25.82,
            "lng": -124.39
          }
        }
      },
      "place_id": "ChIJCzYy5IS16lQRQrfeQ5K5Oxw",
      "types": [
        "country",
        "political"
      ]
    }
  ],
  "status": "OK"
}
