{
  "results": [
    {
      "address_components": [
        {
          "long_name": "3714",
          "short_name": "3714",
          "types": [
            "street_number"
          ]
        },
        {
          "long_name": "Jordan River Road",
          "short_name": "Jordan River Rd",
          "types": [
            "route"
          ]
        },
        {
          "long_name": "Elmira",
          "short_name": "Elmira",
          "types": [
            "locality",
            "political"
          ]
        },
        {
          "long_name": "Chestonia Township",
          "short_name": "Chestonia Township",
          "types": [
            "administrative_area_level_3",
            "political"
          ]
        },
        {
          "long_name": "Antrim County",
          "short_name": "Antrim County",
          "types": [
            "administrative_area_level_2",
            "political"
          ]
        },
        {
          "long_name": "Michigan",
          "short_name": "MI",
          "types": [
            "administrative_area_level_1",
            "political"
          ]
        },
        {
          "long_name": "United States",
          "short_name": "US",
          "types": [
            "country",
            "political"
          ]
        },
        {
          "long_name": "49730",
          "short_name": "49730",
          "types": [
            "postal_code"
          ]
        }
      ],
      "formatted_address": "3714 Jordan River Rd, Elmira, MI 49730, USA",
      "geometry": {
        "location": {
          "lat": 44.978977,
          "lng": -84.969066
        },
        "location_type": "ROOFTOP",
        "viewport": {
          "northeast": {
            "lat": 44.9803259802915,
            "lng": -84.9677170197085
          },
          "southwest": {
            "lat": 44.9776280197085,
            "lng": -84.97041498029151
          }
        }
      },
      "place_id": "ChIJ-9mqNnSpSk0RxacgBehW3JY",
      "types": [
        "street_address"
      ]
    },
    {
      "address_components": [
        {
          "long_name": "Chestonia Township",
          "short_name": "Chestonia Township",
          "types": [
            "administrative_area_level_3",
            "political"
          ]
        },
        {
          "long_name": "Antrim County",
          "short_name": "Antrim County",
          "types": [
            "administrative_area_level_2",
            "political"
          ]
        },
        {
          "long_name": "Michigan",
          "short_name": "MI",
          "types": [
            "administrative_area_level_1",
            "political"
          ]
        },
        {
          "long_name": "United States",
          "short_name": "US",
          "types": [
            "country",
            "political"
          ]
        }
      ],
      "formatted_address": "Chestonia Township, MI, USA",
      "geometry": {
        "bounds": {
          "northeast": {
            "lat": 45.031701,
            "lng": -84.968248
          },
          "southwest": {
            "lat": 44.9452849,
            "lng": -85.09147999999999
          }
        },
        "location": {
          "lat": 44.985351,
          "lng": -85.0280362
        },
        "location_type": "APPROXIMATE",
        "viewport": {
          "northeast": {
            "lat": 45.031701,
            "lng": -84.968248
          },
          "southwest": {
            "lat": 44.9452849,
            "lng": -85.09147999999999
          }
        }
      },
      "place_id": "ChIJ30nuqu2uSk0RWE6p5ka5P6o",
      "types": [
        "administrative_area_level_3",
        "political"
      ]
    },
    {
      "address_components": [
        {
          "long_name": "49730",
          "short_name": "49730",
          "types": [
            "postal_code"
          ]
        },
        {
          "long_name": "Elmira",
          "short_name": "Elmira",
          "types": [
            "locality",
            "political"
          ]
        },
        {
          "long_name": "Michigan",
          "short_name": "MI",
          "types": [
            "administrative_area_level_1",
            "political"
          ]
        },
        {
          "long_name": "United States",
          "short_name": "US",
          "types": [
            "country",
            "political"
          ]
        }
      ],
      "formatted_address": "Elmira, MI 49730, USA",
      "geometry": {
        "bounds": {
          "northeast": {
            "lat": 45.1847099,
            "lng": -84.7347448
          },
          "southwest": {
            "lat": 44.918917,
            "lng": -84.992993
          }
        },
        "location": {
          "lat": 45.0540601,
          "lng": -84.8895541
        },
        "location_type": "APPROXIMATE",
        "viewport": {
          "northeast": {
            "lat": 45.1847099,
            "lng": -84.7347448
          },
          "southwest": {
            "lat": 44.918917,
            "lng": -84.992993
          }
        }
      },
      "place_id": "ChIJbTWu4zRYNU0RrXP86STYJdk",
      "types": [
        "postal_code"
      ]
    },
    {
      "address_components": [
        {
          "long_name": "Antrim County",
          "short_name": "Antrim County",
          "types": [
            "administrative_area_level_2",
            "political"
          ]
        },
        {
          "long_name": "Michigan",
          "short_name": "MI",
          "types": [
            "administrative_area_level_1",
            "political"
          ]
        },
        {
          "long_name": "United States",
          "short_name": "US",
          "types": [
            "country",
            "political"
          ]
        }
      ],
      "formatted_address": "Antrim County, MI, USA",
      "geometry": {
        "bounds": {
          "northeast": {
            "lat": 45.20776799999999,
            "lng": -84.84730909999999
          },
          "southwest": {
            "lat": 44.8186101,
            "lng": -85.4431268
          }
        },
        "location": {
          "lat": 44.9730441,
          "lng": -85.1769095
        },
        "location_type": "APPROXIMATE",
        "viewport": {
          "northeast": {
            "lat": 45.20776799999999,
            "lng": -84.84730909999999
          },
          "southwest": {
            "lat": 44.8186101,
            "lng": -85.4431268
          }
        }
      },
      "place_id": "ChIJE0nogdy5Sk0RYk2OtEXN7lI",
      "types": [
        "administrative_area_level_2",
        "political"
      ]
    },
    {
      "address_components": [
        {
          "long_name": "Michigan",
          "short_name": "MI",
          "types": [
            "administrative_area_level_1",
            "political"
          ]
        },
        {
          "long_name": "United States",
          "short_name": "US",
          "types": [
            "country",
            "political"
          ]
        }
      ],
      "formatted_address": "Michigan, USA",
      "geometry": {
        "bounds": {
          "northeast": {
            "lat": 48.1986461,
            "lng": -82.413474
          },
          "southwest": {
            "lat": 41.696118,
            "lng": -90.4181358
          }
        },
        "location": {
          "lat": 44.3148443,
          "lng": -85.60236429999999
        },
        "location_type": "APPROXIMATE",
        "viewport": {
          "northeast": {
            "lat": 48.198602,
            "lng": -82.413474
          },
          "southwest": {
            "lat": 41.696118,
            "lng": -90.4181358
          }
        }
      },
      "place_id": "ChIJEQTKxz2qTE0Rs8liellI3Zc",
      "types": [
        "administrative_area_level_1",
        "political"
      ]
    },
    {
      "address_components": [
        {
          "long_name": "United States",
          "short_name": "US",
          "types": [
            "country",
            "political"
          ]
        }
      ],
      "formatted_address": "United States",
      "geometry": {
        "bounds": {
          "northeast": {
            "lat": 71.3867745,
            "lng": -66.9502861
          },
          "southwest": {
            "lat": 18.9106768,
            "lng": 172.4458955
          }
        },
        "location": {
          "lat": 37.09024,
          "lng": -95.712891
        },
        "location_type": "APPROXIMATE",
        "viewport": {
          "northeast": {
            "lat": 49.38,
            "lng": -66.94
          },
          "southwest": {
            "lat": 25.82,
            "lng": -124.39
          }
        }
      },
      "place_id": "ChIJCzYy5IS16lQRQrfeQ5K5Oxw",
      "types": [
        "country",
        "political"
      ]
    }
  ],
  "status": "OK"
}
