{
  "results": [
    {
      "address_components": [
        {
          "long_name": "217",
          "short_name": "217",
          "types": [
            "street_number"
          ]
        },
        {
          "long_name": "La Grange Street",
          "short_name": "La Grange St",
          "types": [
            "route"
          ]
        },
        {
          "long_name": "Lewistown",
          "short_name": "Lewistown",
          "types": [
            "locality",
            "political"
          ]
        },
        {
          "long_name": "La Belle Township",
          "short_name": "La Belle Township",
          "types": [
            "administrative_area_level_3",
            "political"
          ]
        },
        {
          "long_name": "Lewis County",
          "short_name": "Lewis County",
          "types": [
            "administrative_area_level_2",
            "political"
          ]
        },
        {
          "long_name": "Missouri",
          "short_name": "MO",
          "types": [
            "administrative_area_level_1",
            "political"
          ]
        },
        {
          "long_name": "United States",
          "short_name": "US",
          "types": [
            "country",
            "political"
          ]
        },
        {
          "long_name": "63452",
          "short_name": "63452",
          "types": [
            "postal_code"
          ]
        }
      ],
      "formatted_address": "217 La Grange St, Lewistown, MO 63452, USA",
      "geometry": {
        "location": {
          "lat": 40.0846822,
          "lng": -91.8182023
        },
        "location_type": "ROOFTOP",
        "viewport": {
          "northeast": {
            "lat": 40.0860311802915,
            "lng": -91.81685331970849
          },
          "southwest": {
            "lat": 40.0833332197085,
            "lng": -91.8195512802915
          }
        }
      },
      "place_id": "ChIJN8AitI5454cRwQ2kTCHQ_MY",
      "types": [
        "street_address"
      ]
    },
    {
      "address_components": [
        {
          "long_name": "Lewistown",
          "short_name": "Lewistown",
          "types": [
            "locality",
            "political"
          ]
        },
        {
          "long_name": "La Belle Township",
          "short_name": "La Belle Township",
          "types": [
            "administrative_area_level_3",
            "political"
          ]
        },
        {
          "long_name": "Lewis County",
          "short_name": "Lewis County",
          "types": [
            "administrative_area_level_2",
            "political"
          ]
        },
        {
          "long_name": "Missouri",
          "short_name": "MO",
          "types": [
            "administrative_area_level_1",
            "political"
          ]
        },
        {
          "long_name": "United States",
          "short_name": "US",
          "types": [
            "country",
            "political"
          ]
        },
        {
          "long_name": "63452",
          "short_name": "63452",
          "types": [
            "postal_code"
          ]
        }
      ],
      "formatted_address": "Lewistown, MO 63452, USA",
      "geometry": {
        "bounds": {
          "northeast": {
            "lat": 40.0909829,
            "lng": -91.8034188
          },
          "southwest": {
            "lat": 40.078671,
            "lng": -91.8221041
          }
        },
        "location": {
          "lat": 40.086154,
          "lng": -91.8132225
        },
        "location_type": "APPROXIMATE",
        "viewport": {
          "northeast": {
            "lat": 40.0909829,
            "lng": -91.8034188
          },
          "southwest": {
            "lat": 40.078671,
            "lng": -91.8221041
          }
        }
      },
      "place_id": "ChIJr6g5nIx454cRO3BhBRKfROs",
      "types": [
        "locality",
        "political"
      ]
    },
    {
      "address_components": [
        {
          "long_name": "La Belle Township",
          "short_name": "La Belle Township",
          "types": [
            "administrative_area_level_3",
            "political"
          ]
        },
        {
          "long_name": "Lewis County",
          "short_name": "Lewis County",
          "types": [
            "administrative_area_level_2",
            "political"
          ]
        },
        {
          "long_name": "Missouri",
          "short_name": "MO",
          "types": [
            "administrative_area_level_1",
            "political"
          ]
        },
        {
          "long_name": "United States",
          "short_name": "US",
          "types": [
            "country",
            "political"
          ]
        }
      ],
      "formatted_address": "La Belle Township, MO, USA",
      "geometry": {
        "bounds": {
          "northeast": {
            "lat": 40.152881,
            "lng": -91.784264
          },
          "southwest": {
            "lat": 40.049512,
            "lng": -91.95103610000001
          }
        },
        "location": {
          "lat": 40.110052,
          "lng": -91.851343
        },
        "location_type": "APPROXIMATE",
        "viewport": {
          "northeast": {
            "lat": 40.152881,
            "lng": -91.784264
          },
          "southwest": {
            "lat": 40.049512,
            "lng": -91.95103610000001
          }
        }
      },
      "place_id": "ChIJ55sWEDKd54cR3Xj3GkcPGBE",
      "types": [
        "administrative_area_level_3",
        "political"
      ]
    },
    {
      "address_components": [
        {
          "long_name": "63452",
          "short_name": "63452",
          "types": [
            "postal_code"
          ]
        },
        {
          "long_name": "Lewistown",
          "short_name": "Lewistown",
          "types": [
            "locality",
            "political"
          ]
        },
        {
          "long_name": "Lewis County",
          "short_name": "Lewis County",
          "types": [
            "administrative_area_level_2",
            "political"
          ]
        },
        {
          "long_name": "Missouri",
          "short_name": "MO",
          "types": [
            "administrative_area_level_1",
            "political"
          ]
        },
        {
          "long_name": "United States",
          "short_name": "US",
          "types": [
            "country",
            "political"
          ]
        }
      ],
      "formatted_address": "Lewistown, MO 63452, USA",
      "geometry": {
        "bounds": {
          "northeast": {
            "lat": 40.175048,
            "lng": -91.606112
          },
          "southwest": {
            "lat": 39.99767080000001,
            "lng": -91.91340079999999
          }
        },
        "location": {
          "lat": 40.0904834,
          "lng": -91.7928402
        },
        "location_type": "APPROXIMATE",
        "viewport": {
          "northeast": {
            "lat": 40.175048,
            "lng": -91.606112
          },
          "southwest": {
            "lat": 39.99767080000001,
            "lng": -91.91340079999999
          }
        }
      },
      "place_id": "ChIJFZ9ZpkV454cRnwyOKkrpJKM",
      "types": [
        "postal_code"
      ]
    },
    {
      "address_components": [
        {
          "long_name": "Lewis County",
          "short_name": "Lewis County",
          "types": [
            "administrative_area_level_2",
            "political"
          ]
        },
        {
          "long_name": "Missouri",
          "short_name": "MO",
          "types": [
            "administrative_area_level_1",
            "political"
          ]
        },
        {
          "long_name": "United States",
          "short_name": "US",
          "types": [
            "country",
            "political"
          ]
        }
      ],
      "formatted_address": "Lewis County, MO, USA",
      "geometry": {
        "bounds": {
          "northeast": {
            "lat": 40.25721,
            "lng": -91.4355168
          },
          "southwest": {
            "lat": 39.945222,
            "lng": -91.952726
          }
        },
        "location": {
          "lat": 40.0500853,
          "lng": -91.7538817
        },
        "location_type": "APPROXIMATE",
        "viewport": {
          "northeast": {
            "lat": 40.25721,
            "lng": -91.4355168
          },
          "southwest": {
            "lat": 39.945222,
            "lng": -91.952726
          }
        }
      },
      "place_id": "ChIJofT_Vypy54cRe6QXbBzELd4",
      "types": [
        "administrative_area_level_2",
        "political"
      ]
    },
    {
      "address_components": [
        {
          "long_name": "Quincy",
          "short_name": "Quincy",
          "types": [
            "political"
          ]
        },
        {
          "long_name": "United States",
          "short_name": "US",
          "types": [
            "country",
            "political"
          ]
        }
      ],
      "formatted_address": "Quincy, USA",
      "geometry": {
        "bounds": {
          "northeast": {
            "lat": 40.257251,
            "lng": -90.9120411
          },
          "southwest": {
            "lat": 39.756774,
            "lng": -91.952726
          }
        },
        "location": {
          "lat": 40.0543526,
          "lng": -91.44346900000001
        },
        "location_type": "APPROXIMATE",
        "viewport": {
          "northeast": {
            "lat": 40.257251,
            "lng": -90.9120411
          },
          "southwest": {
            "lat": 39.756774,
            "lng": -91.952726
          }
        }
      },
      "place_id": "ChIJm5V-X8dZ54cR0R8UWYCoUyc",
      "types": [
        "political"
      ]
    },
    {
      "address_components": [
        {
          "long_name": "Missouri",
          "short_name": "MO",
          "types": [
            "administrative_area_level_1",
            "political"
          ]
        },
        {
          "long_name": "United States",
          "short_name": "US",
          "types": [
            "country",
            "political"
          ]
        }
      ],
      "formatted_address": "Missouri, USA",
      "geometry": {
        "bounds": {
          "northeast": {
            "lat": 40.61364,
            "lng": -89.09949399999999
          },
          "southwest": {
            "lat": 35.9956829,
            "lng": -95.774704
          }
        },
        "location": {
          "lat": 37.9642529,
          "lng": -91.8318334
        },
        "location_type": "APPROXIMATE",
        "viewport": {
          "northeast": {
            "lat": 40.61364,
            "lng": -89.09949399999999
          },
          "southwest": {
            "lat": 35.9956829,
            "lng": -95.774704
          }
        }
      },
      "place_id": "ChIJfeMiSNXmwIcRcr1mBFnEW7U",
      "types": [
        "administrative_area_level_1",
        "political"
      ]
    },
    {
      "address_components": [
        {
          "long_name": "United States",
          "short_name": "US",
          "types": [
            "country",
            "political"
          ]
        }
      ],
      "formatted_address": "United States",
      "geometry": {
        "bounds": {
          "northeast": {
            "lat": 71.3867745,
            "lng": -66.9502861
          },
          "southwest": {
            "lat": 18.9106768,
            "lng": 172.4458955
          }
        },
        "location": {
          "lat": 37.09024,
          "lng": -95.712891
        },
        "location_type": "APPROXIMATE",
        "viewport": {
          "northeast": {
            "lat": 49.38,
            "lng": -66.94
          },
          "southwest": {
            "lat": 25.82,
            "lng": -124.39
          }
        }
      },
      "place_id": "ChIJCzYy5IS16lQRQrfeQ5K5Oxw",
      "types": [
        "country",
        "political"
      ]
    }
  ],
  "status": "OK"
}
