{
  "results": [
    {
      "address_components": [
        {
          "long_name": "5903",
          "short_name": "5903",
          "types": [
            "street_number"
          ]
        },
        {
          "long_name": "River Road",
          "short_name": "River Rd",
          "types": [
            "route"
          ]
        },
        {
          "long_name": "Limestone",
          "short_name": "Limestone",
          "types": [
            "locality",
            "political"
          ]
        },
        {
          "long_name": "Carrollton",
          "short_name": "Carrollton",
          "types": [
            "administrative_area_level_3",
            "political"
          ]
        },
        {
          "long_name": "Cattaraugus County",
          "short_name": "Cattaraugus County",
          "types": [
            "administrative_area_level_2",
            "political"
          ]
        },
        {
          "long_name": "New York",
          "short_name": "NY",
          "types": [
            "administrative_area_level_1",
            "political"
          ]
        },
        {
          "long_name": "United States",
          "short_name": "US",
          "types": [
            "country",
            "political"
          ]
        },
        {
          "long_name": "14753",
          "short_name": "14753",
          "types": [
            "postal_code"
          ]
        },
        {
          "long_name": "9761",
          "short_name": "9761",
          "types": [
            "postal_code_suffix"
          ]
        }
      ],
      "formatted_address": "5903 River Rd, Limestone, NY 14753, USA",
      "geometry": {
        "location": {
          "lat": 42.023083,
          "lng": -78.628929
        },
        "location_type": "ROOFTOP",
        "viewport": {
          "northeast": {
            "lat": 42.0244319802915,
            "lng": -78.62758001970849
          },
          "southwest": {
            "lat": 42.0217340197085,
            "lng": -78.6302779802915
          }
        }
      },
      "place_id": "ChIJ2Tydm7R_0okRuIvnyFoGlyI",
      "types": [
        "street_address"
      ]
    },
    {
      "address_components": [
        {
          "long_name": "Limestone",
          "short_name": "Limestone",
          "types": [
            "locality",
            "political"
          ]
        },
        {
          "long_name": "Carrollton",
          "short_name": "Carrollton",
          "types": [
            "administrative_area_level_3",
            "political"
          ]
        },
        {
          "long_name": "Cattaraugus County",
          "short_name": "Cattaraugus County",
          "types": [
            "administrative_area_level_2",
            "political"
          ]
        },
        {
          "long_name": "New York",
          "short_name": "NY",
          "types": [
            "administrative_area_level_1",
            "political"
          ]
        },
        {
          "long_name": "United States",
          "short_name": "US",
          "types": [
            "country",
            "political"
          ]
        },
        {
          "long_name": "14753",
          "short_name": "14753",
          "types": [
            "postal_code"
          ]
        }
      ],
      "formatted_address": "Limestone, NY 14753, USA",
      "geometry": {
        "bounds": {
          "northeast": {
            "lat": 42.03304600000001,
            "lng": -78.61951990000001
          },
          "southwest": {
            "lat": 42.011938,
            "lng": -78.6477538
          }
        },
        "location": {
          "lat": 42.0272856,
          "lng": -78.6294717
        },
        "location_type": "APPROXIMATE",
        "viewport": {
          "northeast": {
            "lat": 42.03304600000001,
            "lng": -78.61951990000001
          },
          "southwest": {
            "lat": 42.011938,
            "lng": -78.6477538
          }
        }
      },
      "place_id": "ChIJ89EE3LR_0okR2jfwwEYlBSI",
      "types": [
        "locality",
        "political"
      ]
    },
    {
      "address_components": [
        {
          "long_name": "Carrollton",
          "short_name": "Carrollton",
          "types": [
            "administrative_area_level_3",
            "political"
          ]
        },
        {
          "long_name": "Cattaraugus County",
          "short_name": "Cattaraugus County",
          "types": [
            "administrative_area_level_2",
            "political"
          ]
        },
        {
          "long_name": "New York",
          "short_name": "NY",
          "types": [
            "administrative_area_level_1",
            "political"
          ]
        },
        {
          "long_name": "United States",
          "short_name": "US",
          "types": [
            "country",
            "political"
          ]
        }
      ],
      "formatted_address": "Carrollton, NY, USA",
      "geometry": {
        "bounds": {
          "northeast": {
            "lat": 42.126413,
            "lng": -78.57842
          },
          "southwest": {
            "lat": 41.99875,
            "lng": -78.697251
          }
        },
        "location": {
          "lat": 42.04484009999999,
          "lng": -78.6341996
        },
        "location_type": "APPROXIMATE",
        "viewport": {
          "northeast": {
            "lat": 42.126413,
            "lng": -78.57842
          },
          "southwest": {
            "lat": 41.99875,
            "lng": -78.697251
          }
        }
      },
      "place_id": "ChIJsyXYkwh-0okRJ8HKaiEHyfY",
      "types": [
        "administrative_area_level_3",
        "political"
      ]
    },
    {
      "address_components": [
        {
          "long_name": "14753",
          "short_name": "14753",
          "types": [
            "postal_code"
          ]
        },
        {
          "long_name": "Limestone",
          "short_name": "Limestone",
          "types": [
            "locality",
            "political"
          ]
        },
        {
          "long_name": "New York",
          "short_name": "NY",
          "types": [
            "administrative_area_level_1",
            "political"
          ]
        },
        {
          "long_name": "United States",
          "short_name": "US",
          "types": [
            "country",
            "political"
          ]
        }
      ],
      "formatted_address": "Limestone, NY 14753, USA",
      "geometry": {
        "bounds": {
          "northeast": {
            "lat": 42.126413,
            "lng": -78.5175489
          },
          "southwest": {
            "lat": 41.9985439,
            "lng": -78.73347799999999
          }
        },
        "location": {
          "lat": 42.04484009999999,
          "lng": -78.6341996
        },
        "location_type": "APPROXIMATE",
        "viewport": {
          "northeast": {
            "lat": 42.126413,
            "lng": -78.5175489
          },
          "southwest": {
            "lat": 41.9985439,
            "lng": -78.73347799999999
          }
        }
      },
      "place_id": "ChIJuY-j7Sp80okRkCZYntVbf_U",
      "types": [
        "postal_code"
      ]
    },
    {
      "address_components": [
        {
          "long_name": "Cattaraugus County",
          "short_name": "Cattaraugus County",
          "types": [
            "administrative_area_level_2",
            "political"
          ]
        },
        {
          "long_name": "New York",
          "short_name": "NY",
          "types": [
            "administrative_area_level_1",
            "political"
          ]
        },
        {
          "long_name": "United States",
          "short_name": "US",
          "types": [
            "country",
            "political"
          ]
        }
      ],
      "formatted_address": "Cattaraugus County, NY, USA",
      "geometry": {
        "bounds": {
          "northeast": {
            "lat": 42.543306,
            "lng": -78.30808100000002
          },
          "southwest": {
            "lat": 41.997559,
            "lng": -79.061287
          }
        },
        "location": {
          "lat": 42.2318132,
          "lng": -78.74762079999999
        },
        "location_type": "APPROXIMATE",
        "viewport": {
          "northeast": {
            "lat": 42.543306,
            "lng": -78.30808100000002
          },
          "southwest": {
            "lat": 41.997559,
            "lng": -79.061287
          }
        }
      },
      "place_id": "ChIJO6mJu_oZ14kRCF72TKld9KM",
      "types": [
        "administrative_area_level_2",
        "political"
      ]
    },
    {
      "address_components": [
        {
          "long_name": "Olean",
          "short_name": "Olean",
          "types": [
            "political"
          ]
        },
        {
          "long_name": "United States",
          "short_name": "US",
          "types": [
            "country",
            "political"
          ]
        }
      ],
      "formatted_address": "Olean, USA",
      "geometry": {
        "bounds": {
          "northeast": {
            "lat": 42.54261899999999,
            "lng": -78.3081279
          },
          "southwest": {
            "lat": 41.997559,
            "lng": -79.061287
          }
        },
        "location": {
          "lat": 42.2318132,
          "lng": -78.74762079999999
        },
        "location_type": "APPROXIMATE",
        "viewport": {
          "northeast": {
            "lat": 42.54261899999999,
            "lng": -78.3081279
          },
          "southwest": {
            "lat": 41.997559,
            "lng": -79.061287
          }
        }
      },
      "place_id": "ChIJ82X9DWqK0okR8lymG-e5sdo",
      "types": [
        "political"
      ]
    },
    {
      "address_components": [
        {
          "long_name": "New York",
          "short_name": "NY",
          "types": [
            "administrative_area_level_1",
            "political"
          ]
        },
        {
          "long_name": "United States",
          "short_name": "US",
          "types": [
            "country",
            "political"
          ]
        }
      ],
      "formatted_address": "New York, USA",
      "geometry": {
        "bounds": {
          "northeast": {
            "lat": 45.015865,
            "lng": -71.85620639999999
          },
          "southwest": {
            "lat": 40.496091,
            "lng": -79.76214379999999
          }
        },
        "location": {
          "lat": 43.2994285,
          "lng": -74.21793260000001
        },
        "location_type": "APPROXIMATE",
        "viewport": {
          "northeast": {
            "lat": 45.015859,
            "lng": -71.85620639999999
          },
          "southwest": {
            "lat": 40.496091,
            "lng": -79.76214379999999
          }
        }
      },
      "place_id": "ChIJqaUj8fBLzEwRZ5UY3sHGz90",
      "types": [
        "administrative_area_level_1",
        "political"
      ]
    },
    {
      "address_components": [
        {
          "long_name": "United States",
          "short_name": "US",
          "types": [
            "country",
            "political"
          ]
        }
      ],
      "formatted_address": "United States",
      "geometry": {
        "bounds": {
          "northeast": {
            "lat": 71.3867745,
            "lng": -66.9502861
          },
          "southwest": {
            "lat": 18.9106768,
            "lng": 172.4458955
          }
        },
        "location": {
          "lat": 37.09024,
          "lng": -95.712891
        },
        "location_type": "APPROXIMATE",
        "viewport": {
          "northeast": {
            "lat": 49.38,
            "lng": -66.94
          },
          "southwest": {
            "lat": 25.82,
            "lng": -124.39
          }
        }
      },
      "place_id": "ChIJCzYy5IS16lQRQrfeQ5K5Oxw",
      "types": [
        "country",
        "political"
      ]
    }
  ],
  "status": "OK"
}
