{
  "results": [
    {
      "address_components": [
        {
          "long_name": "2114",
          "short_name": "2114",
          "types": [
            "street_number"
          ]
        },
        {
          "long_name": "Cherry Avenue",
          "short_name": "Cherry Ave",
          "types": [
            "route"
          ]
        },
        {
          "long_name": "St. Louis",
          "short_name": "St. Louis",
          "types": [
            "locality",
            "political"
          ]
        },
        {
          "long_name": "University Township",
          "short_name": "University Township",
          "types": [
            "administrative_area_level_3",
            "political"
          ]
        },
        {
          "long_name": "St. Louis County",
          "short_name": "St Louis County",
          "types": [
            "administrative_area_level_2",
            "political"
          ]
        },
        {
          "long_name": "Missouri",
          "short_name": "MO",
          "types": [
            "administrative_area_level_1",
            "political"
          ]
        },
        {
          "long_name": "United States",
          "short_name": "US",
          "types": [
            "country",
            "political"
          ]
        },
        {
          "long_name": "63121",
          "short_name": "63121",
          "types": [
            "postal_code"
          ]
        }
      ],
      "formatted_address": "2114 Cherry Ave, St. Louis, MO 63121, USA",
      "geometry": {
        "location": {
          "lat": 38.685724,
          "lng": -90.286945
        },
        "location_type": "ROOFTOP",
        "viewport": {
          "northeast": {
            "lat": 38.6870729802915,
            "lng": -90.28559601970849
          },
          "southwest": {
            "lat": 38.6843750197085,
            "lng": -90.28829398029151
          }
        }
      },
      "place_id": "ChIJodr_Q45K34cRoeSWm1xe9yc",
      "types": [
        "street_address"
      ]
    },
    {
      "address_components": [
        {
          "long_name": "Hillsdale",
          "short_name": "Hillsdale",
          "types": [
            "locality",
            "political"
          ]
        },
        {
          "long_name": "University Township",
          "short_name": "University Township",
          "types": [
            "administrative_area_level_3",
            "political"
          ]
        },
        {
          "long_name": "St. Louis County",
          "short_name": "St Louis County",
          "types": [
            "administrative_area_level_2",
            "political"
          ]
        },
        {
          "long_name": "Missouri",
          "short_name": "MO",
          "types": [
            "administrative_area_level_1",
            "political"
          ]
        },
        {
          "long_name": "United States",
          "short_name": "US",
          "types": [
            "country",
            "political"
          ]
        }
      ],
      "formatted_address": "Hillsdale, MO, USA",
      "geometry": {
        "bounds": {
          "northeast": {
            "lat": 38.6912791,
            "lng": -90.2791129
          },
          "southwest": {
            "lat": 38.6803509,
            "lng": -90.294113
          }
        },
        "location": {
          "lat": 38.685386,
          "lng": -90.287593
        },
        "location_type": "APPROXIMATE",
        "viewport": {
          "northeast": {
            "lat": 38.6912791,
            "lng": -90.2791129
          },
          "southwest": {
            "lat": 38.6803509,
            "lng": -90.294113
          }
        }
      },
      "place_id": "ChIJbw-8641K34cRG7fJdWSZ63A",
      "types": [
        "locality",
        "political"
      ]
    },
    {
      "address_components": [
        {
          "long_name": "University Township",
          "short_name": "University Township",
          "types": [
            "administrative_area_level_3",
            "political"
          ]
        },
        {
          "long_name": "St. Louis County",
          "short_name": "St Louis County",
          "types": [
            "administrative_area_level_2",
            "political"
          ]
        },
        {
          "long_name": "Missouri",
          "short_name": "MO",
          "types": [
            "administrative_area_level_1",
            "political"
          ]
        },
        {
          "long_name": "United States",
          "short_name": "US",
          "types": [
            "country",
            "political"
          ]
        }
      ],
      "formatted_address": "University Township, MO, USA",
      "geometry": {
        "bounds": {
          "northeast": {
            "lat": 38.695951,
            "lng": -90.27531309999999
          },
          "southwest": {
            "lat": 38.655989,
            "lng": -90.362577
          }
        },
        "location": {
          "lat": 38.6787496,
          "lng": -90.32308069999999
        },
        "location_type": "APPROXIMATE",
        "viewport": {
          "northeast": {
            "lat": 38.695951,
            "lng": -90.27531309999999
          },
          "southwest": {
            "lat": 38.655989,
            "lng": -90.362577
          }
        }
      },
      "place_id": "ChIJIzl8fhQ134cRWyMIvKj6wAY",
      "types": [
        "administrative_area_level_3",
        "political"
      ]
    },
    {
      "address_components": [
        {
          "long_name": "63121",
          "short_name": "63121",
          "types": [
            "postal_code"
          ]
        },
        {
          "long_name": "St. Louis",
          "short_name": "St. Louis",
          "types": [
            "locality",
            "political"
          ]
        },
        {
          "long_name": "Missouri",
          "short_name": "MO",
          "types": [
            "administrative_area_level_1",
            "political"
          ]
        },
        {
          "long_name": "United States",
          "short_name": "US",
          "types": [
            "country",
            "political"
          ]
        }
      ],
      "formatted_address": "St. Louis, MO 63121, USA",
      "geometry": {
        "bounds": {
          "northeast": {
            "lat": 38.731513,
            "lng": -90.268778
          },
          "southwest": {
            "lat": 38.6827049,
            "lng": -90.3371628
          }
        },
        "location": {
          "lat": 38.7102377,
          "lng": -90.3042778
        },
        "location_type": "APPROXIMATE",
        "viewport": {
          "northeast": {
            "lat": 38.731513,
            "lng": -90.268778
          },
          "southwest": {
            "lat": 38.6827049,
            "lng": -90.3371628
          }
        }
      },
      "place_id": "ChIJY7qaq30134cRvM5gNdgvsFc",
      "postcode_localities": [
        "Normandy",
        "St. Louis"
      ],
      "types": [
        "postal_code"
      ]
    },
    {
      "address_components": [
        {
          "long_name": "St. Louis County",
          "short_name": "St Louis County",
          "types": [
            "administrative_area_level_2",
            "political"
          ]
        },
        {
          "long_name": "Missouri",
          "short_name": "MO",
          "types": [
            "administrative_area_level_1",
            "political"
          ]
        },
        {
          "long_name": "United States",
          "short_name": "US",
          "types": [
            "country",
            "political"
          ]
        }
      ],
      "formatted_address": "St Louis County, MO, USA",
      "geometry": {
        "bounds": {
          "northeast": {
            "lat": 38.8911839,
            "lng": -90.11770709999999
          },
          "southwest": {
            "lat": 38.396902,
            "lng": -90.7365301
          }
        },
        "location": {
          "lat": 38.6103023,
          "lng": -90.4125181
        },
        "location_type": "APPROXIMATE",
        "viewport": {
          "northeast": {
            "lat": 38.8911839,
            "lng": -90.11770709999999
          },
          "southwest": {
            "lat": 38.396902,
            "lng": -90.7365301
          }
        }
      },
      "place_id": "ChIJBe3muPnK2IcRO8QfrOB9Xn0",
      "types": [
        "administrative_area_level_2",
        "political"
      ]
    },
    {
      "address_components": [
        {
          "long_name": "St. Louis",
          "short_name": "St. Louis",
          "types": [
            "political"
          ]
        },
        {
          "long_name": "United States",
          "short_name": "US",
          "types": [
            "country",
            "political"
          ]
        }
      ],
      "formatted_address": "St. Louis, USA",
      "geometry": {
        "bounds": {
          "northeast": {
            "lat": 39.5233661,
            "lng": -89.138356
          },
          "southwest": {
            "lat": 37.7341961,
            "lng": -91.4186371
          }
        },
        "location": {
          "lat": 38.8196814,
          "lng": -90.4502368
        },
        "location_type": "APPROXIMATE",
        "viewport": {
          "northeast": {
            "lat": 39.5233661,
            "lng": -89.138356
          },
          "southwest": {
            "lat": 37.7341961,
            "lng": -91.4186371
          }
        }
      },
      "place_id": "ChIJneBzzj4z34cRFGg2ez6q57o",
      "types": [
        "political"
      ]
    },
    {
      "address_components": [
        {
          "long_name": "Missouri",
          "short_name": "MO",
          "types": [
            "administrative_area_level_1",
            "political"
          ]
        },
        {
          "long_name": "United States",
          "short_name": "US",
          "types": [
            "country",
            "political"
          ]
        }
      ],
      "formatted_address": "Missouri, USA",
      "geometry": {
        "bounds": {
          "northeast": {
            "lat": 40.61364,
            "lng": -89.09949399999999
          },
          "southwest": {
            "lat": 35.9956829,
            "lng": -95.774704
          }
        },
        "location": {
          "lat": 37.9642529,
          "lng": -91.8318334
        },
        "location_type": "APPROXIMATE",
        "viewport": {
          "northeast": {
            "lat": 40.61364,
            "lng": -89.09949399999999
          },
          "southwest": {
            "lat": 35.9956829,
            "lng": -95.774704
          }
        }
      },
      "place_id": "ChIJfeMiSNXmwIcRcr1mBFnEW7U",
      "types": [
        "administrative_area_level_1",
        "political"
      ]
    },
    {
      "address_components": [
        {
          "long_name": "United States",
          "short_name": "US",
          "types": [
            "country",
            "political"
          ]
        }
      ],
      "formatted_address": "United States",
      "geometry": {
        "bounds": {
          "northeast": {
            "lat": 71.3867745,
            "lng": -66.9502861
          },
          "southwest": {
            "lat": 18.9106768,
            "lng": 172.4458955
          }
        },
        "location": {
          "lat": 37.09024,
          "lng": -95.712891
        },
        "location_type": "APPROXIMATE",
        "viewport": {
          "northeast": {
            "lat": 49.38,
            "lng": -66.94
          },
          "southwest": {
            "lat": 25.82,
            "lng": -124.39
          }
        }
      },
      "place_id": "ChIJCzYy5IS16lQRQrfeQ5K5Oxw",
      "types": [
        "country",
        "political"
      ]
    }
  ],
  "status": "OK"
}
