{
  "results": [
    {
      "address_components": [
        {
          "long_name": "55-97",
          "short_name": "55-97",
          "types": [
            "street_number"
          ]
        },
        {
          "long_name": "East 73rd Street",
          "short_name": "E 73rd St",
          "types": [
            "route"
          ]
        },
        {
          "long_name": "Washington Township",
          "short_name": "Washington Township",
          "types": [
            "neighborhood",
            "political"
          ]
        },
        {
          "long_name": "Indianapolis",
          "short_name": "Indianapolis",
          "types": [
            "locality",
            "political"
          ]
        },
        {
          "long_name": "Washington Township",
          "short_name": "Washington Township",
          "types": [
            "administrative_area_level_3",
            "political"
          ]
        },
        {
          "long_name": "Marion County",
          "short_name": "Marion County",
          "types": [
            "administrative_area_level_2",
            "political"
          ]
        },
        {
          "long_name": "Indiana",
          "short_name": "IN",
          "types": [
            "administrative_area_level_1",
            "political"
          ]
        },
        {
          "long_name": "United States",
          "short_name": "US",
          "types": [
            "country",
            "political"
          ]
        },
        {
          "long_name": "46240",
          "short_name": "46240",
          "types": [
            "postal_code"
          ]
        },
        {
          "long_name": "3004",
          "short_name": "3004",
          "types": [
            "postal_code_suffix"
          ]
        }
      ],
      "formatted_address": "55-97 E 73rd St, Indianapolis, IN 46240, USA",
      "geometry": {
        "bounds": {
          "northeast": {
            "lat": 39.887894,
            "lng": -86.155411
          },
          "southwest": {
            "lat": 39.8867379,
            "lng": -86.1578116
          }
        },
        "location": {
          "lat": 39.8873641,
          "lng": -86.1566979
        },
        "location_type": "RANGE_INTERPOLATED",
        "viewport": {
          "northeast": {
            "lat": 39.8886649302915,
            "lng": -86.15526231970851
          },
          "southwest": {
            "lat": 39.8859669697085,
            "lng": -86.15796028029152
          }
        }
      },
      "place_id": "Eiw1NS05NyBFIDczcmQgU3QsIEluZGlhbmFwb2xpcywgSU4gNDYyNDAsIFVTQQ",
      "types": [
        "street_address"
      ]
    },
    {
      "address_components": [
        {
          "long_name": "Meridian Hills",
          "short_name": "Meridian Hills",
          "types": [
            "locality",
            "political"
          ]
        },
        {
          "long_name": "Washington Township",
          "short_name": "Washington Township",
          "types": [
            "administrative_area_level_3",
            "political"
          ]
        },
        {
          "long_name": "Marion County",
          "short_name": "Marion County",
          "types": [
            "administrative_area_level_2",
            "political"
          ]
        },
        {
          "long_name": "Indiana",
          "short_name": "IN",
          "types": [
            "administrative_area_level_1",
            "political"
          ]
        },
        {
          "long_name": "United States",
          "short_name": "US",
          "types": [
            "country",
            "political"
          ]
        }
      ],
      "formatted_address": "Meridian Hills, IN, USA",
      "geometry": {
        "bounds": {
          "northeast": {
            "lat": 39.9015119,
            "lng": -86.1414728
          },
          "southwest": {
            "lat": 39.8725279,
            "lng": -86.1650581
          }
        },
        "location": {
          "lat": 39.8900403,
          "lng": -86.1572104
        },
        "location_type": "APPROXIMATE",
        "viewport": {
          "northeast": {
            "lat": 39.9015119,
            "lng": -86.1414728
          },
          "southwest": {
            "lat": 39.8725279,
            "lng": -86.1650581
          }
        }
      },
      "place_id": "ChIJP33tmxJTa4gR20WwT9W-iCo",
      "types": [
        "locality",
        "political"
      ]
    },
    {
      "address_components": [
        {
          "long_name": "Washington Township",
          "short_name": "Washington Township",
          "types": [
            "neighborhood",
            "political"
          ]
        },
        {
          "long_name": "Indianapolis",
          "short_name": "Indianapolis",
          "types": [
            "locality",
            "political"
          ]
        },
        {
          "long_name": "Washington Township",
          "short_name": "Washington Township",
          "types": [
            "administrative_area_level_3",
            "political"
          ]
        },
        {
          "long_name": "Marion County",
          "short_name": "Marion County",
          "types": [
            "administrative_area_level_2",
            "political"
          ]
        },
        {
          "long_name": "Indiana",
          "short_name": "IN",
          "types": [
            "administrative_area_level_1",
            "political"
          ]
        },
        {
          "long_name": "United States",
          "short_name": "US",
          "types": [
            "country",
            "political"
          ]
        }
      ],
      "formatted_address": "Washington Township, Indianapolis, IN, USA",
      "geometry": {
        "bounds": {
          "northeast": {
            "lat": 39.926939,
            "lng": -86.059985
          },
          "southwest": {
            "lat": 39.823742,
            "lng": -86.21661480000002
          }
        },
        "location": {
          "lat": 39.8957914,
          "lng": -86.1141045
        },
        "location_type": "APPROXIMATE",
        "viewport": {
          "northeast": {
            "lat": 39.926939,
            "lng": -86.059985
          },
          "southwest": {
            "lat": 39.823742,
            "lng": -86.21661480000002
          }
        }
      },
      "place_id": "ChIJHYi1EqpTa4gRqicBBA5nv6Y",
      "types": [
        "neighborhood",
        "political"
      ]
    },
    {
      "address_components": [
        {
          "long_name": "46240",
          "short_name": "46240",
          "types": [
            "postal_code"
          ]
        },
        {
          "long_name": "Indianapolis",
          "short_name": "Indianapolis",
          "types": [
            "locality",
            "political"
          ]
        },
        {
          "long_name": "Indiana",
          "short_name": "IN",
          "types": [
            "administrative_area_level_1",
            "political"
          ]
        },
        {
          "long_name": "United States",
          "short_name": "US",
          "types": [
            "country",
            "political"
          ]
        }
      ],
      "formatted_address": "Indianapolis, IN 46240, USA",
      "geometry": {
        "bounds": {
          "northeast": {
            "lat": 39.930295,
            "lng": -86.0740849
          },
          "southwest": {
            "lat": 39.882238,
            "lng": -86.157866
          }
        },
        "location": {
          "lat": 39.9063963,
          "lng": -86.1242881
        },
        "location_type": "APPROXIMATE",
        "viewport": {
          "northeast": {
            "lat": 39.930295,
            "lng": -86.0740849
          },
          "southwest": {
            "lat": 39.882238,
            "lng": -86.157866
          }
        }
      },
      "place_id": "ChIJ0TvRL8dSa4gRGTQNV9jsDVU",
      "postcode_localities": [
        "Indianapolis",
        "Williams Creek"
      ],
      "types": [
        "postal_code"
      ]
    },
    {
      "address_components": [
        {
          "long_name": "Washington Township",
          "short_name": "Washington Township",
          "types": [
            "administrative_area_level_3",
            "political"
          ]
        },
        {
          "long_name": "Marion County",
          "short_name": "Marion County",
          "types": [
            "administrative_area_level_2",
            "political"
          ]
        },
        {
          "long_name": "Indiana",
          "short_name": "IN",
          "types": [
            "administrative_area_level_1",
            "political"
          ]
        },
        {
          "long_name": "United States",
          "short_name": "US",
          "types": [
            "country",
            "political"
          ]
        }
      ],
      "formatted_address": "Washington Township, IN, USA",
      "geometry": {
        "bounds": {
          "northeast": {
            "lat": 39.9271679,
            "lng": -86.06918900000001
          },
          "southwest": {
            "lat": 39.8237941,
            "lng": -86.2170818
          }
        },
        "location": {
          "lat": 39.8759352,
          "lng": -86.1344697
        },
        "location_type": "APPROXIMATE",
        "viewport": {
          "northeast": {
            "lat": 39.9271679,
            "lng": -86.06918900000001
          },
          "southwest": {
            "lat": 39.8237941,
            "lng": -86.2170818
          }
        }
      },
      "place_id": "ChIJJZg3CqxTa4gR_Cf49EdaKU8",
      "types": [
        "administrative_area_level_3",
        "political"
      ]
    },
    {
      "address_components": [
        {
          "long_name": "Marion County",
          "short_name": "Marion County",
          "types": [
            "administrative_area_level_2",
            "political"
          ]
        },
        {
          "long_name": "Indiana",
          "short_name": "IN",
          "types": [
            "administrative_area_level_1",
            "political"
          ]
        },
        {
          "long_name": "United States",
          "short_name": "US",
          "types": [
            "country",
            "political"
          ]
        }
      ],
      "formatted_address": "Marion County, IN, USA",
      "geometry": {
        "bounds": {
          "northeast": {
            "lat": 39.927392,
            "lng": -85.9373789
          },
          "southwest": {
            "lat": 39.632177,
            "lng": -86.32812109999999
          }
        },
        "location": {
          "lat": 39.83618999999999,
          "lng": -86.17517590000001
        },
        "location_type": "APPROXIMATE",
        "viewport": {
          "northeast": {
            "lat": 39.927392,
            "lng": -85.9373789
          },
          "southwest": {
            "lat": 39.632177,
            "lng": -86.32812109999999
          }
        }
      },
      "place_id": "ChIJsUwSvKZVa4gR8O_1nsKeIbc",
      "types": [
        "administrative_area_level_2",
        "political"
      ]
    },
    {
      "address_components": [
        {
          "long_name": "Indianapolis",
          "short_name": "Indianapolis",
          "types": [
            "political"
          ]
        },
        {
          "long_name": "Indiana",
          "short_name": "IN",
          "types": [
            "administrative_area_level_1",
            "political"
          ]
        },
        {
          "long_name": "United States",
          "short_name": "US",
          "types": [
            "country",
            "political"
          ]
        }
      ],
      "formatted_address": "Indianapolis, IN, USA",
      "geometry": {
        "bounds": {
          "northeast": {
            "lat": 40.218985,
            "lng": -85.5763581
          },
          "southwest": {
            "lat": 39.048355,
            "lng": -87.0149399
          }
        },
        "location": {
          "lat": 39.7616739,
          "lng": -86.41873079999999
        },
        "location_type": "APPROXIMATE",
        "viewport": {
          "northeast": {
            "lat": 40.218985,
            "lng": -85.5763581
          },
          "southwest": {
            "lat": 39.048355,
            "lng": -87.0149399
          }
        }
      },
      "place_id": "ChIJpwnS6GanbIgRYryPufOfANQ",
      "types": [
        "political"
      ]
    },
    {
      "address_components": [
        {
          "long_name": "Indiana",
          "short_name": "IN",
          "types": [
            "administrative_area_level_1",
            "political"
          ]
        },
        {
          "long_name": "United States",
          "short_name": "US",
          "types": [
            "country",
            "political"
          ]
        }
      ],
      "formatted_address": "Indiana, USA",
      "geometry": {
        "bounds": {
          "northeast": {
            "lat": 41.7606971,
            "lng": -84.784662
          },
          "southwest": {
            "lat": 37.7717419,
            "lng": -88.097892
          }
        },
        "location": {
          "lat": 40.2671941,
          "lng": -86.1349019
        },
        "location_type": "APPROXIMATE",
        "viewport": {
          "northeast": {
            "lat": 41.7606971,
            "lng": -84.784662
          },
          "southwest": {
            "lat": 37.7717419,
            "lng": -88.097892
          }
        }
      },
      "place_id": "ChIJHRv42bxQa4gRcuwyy84vEH4",
      "types": [
        "administrative_area_level_1",
        "political"
      ]
    },
    {
      "address_components": [
        {
          "long_name": "United States",
          "short_name": "US",
          "types": [
            "country",
            "political"
          ]
        }
      ],
      "formatted_address": "United States",
      "geometry": {
        "bounds": {
          "northeast": {
            "lat": 71.3867745,
            "lng": -66.9502861
          },
          "southwest": {
            "lat": 18.9106768,
            "lng": 172.4458955
          }
        },
        "location": {
          "lat": 37.09024,
          "lng": -95.712891
        },
        "location_type": "APPROXIMATE",
        "viewport": {
          "northeast": {
            "lat": 49.38,
            "lng": -66.94
          },
          "southwest": {
            "lat": 25.82,
            "lng": -124.39
          }
        }
      },
      "place_id": "ChIJCzYy5IS16lQRQrfeQ5K5Oxw",
      "types": [
        "country",
        "political"
      ]
    }
  ],
  "status": "OK"
}
