{
  "results": [
    {
      "address_components": [
        {
          "long_name": "450",
          "short_name": "450",
          "types": [
            "street_number"
          ]
        },
        {
          "long_name": "West Main Street",
          "short_name": "W Main St",
          "types": [
            "route"
          ]
        },
        {
          "long_name": "New Lebanon",
          "short_name": "New Lebanon",
          "types": [
            "locality",
            "political"
          ]
        },
        {
          "long_name": "Jackson Township",
          "short_name": "Jackson Township",
          "types": [
            "administrative_area_level_3",
            "political"
          ]
        },
        {
          "long_name": "Montgomery County",
          "short_name": "Montgomery County",
          "types": [
            "administrative_area_level_2",
            "political"
          ]
        },
        {
          "long_name": "Ohio",
          "short_name": "OH",
          "types": [
            "administrative_area_level_1",
            "political"
          ]
        },
        {
          "long_name": "United States",
          "short_name": "US",
          "types": [
            "country",
            "political"
          ]
        },
        {
          "long_name": "45345",
          "short_name": "45345",
          "types": [
            "postal_code"
          ]
        },
        {
          "long_name": "1426",
          "short_name": "1426",
          "types": [
            "postal_code_suffix"
          ]
        }
      ],
      "formatted_address": "450 W Main St, New Lebanon, OH 45345, USA",
      "geometry": {
        "location": {
          "lat": 39.7443441,
          "lng": -84.39401409999999
        },
        "location_type": "ROOFTOP",
        "viewport": {
          "northeast": {
            "lat": 39.7456930802915,
            "lng": -84.3926651197085
          },
          "southwest": {
            "lat": 39.7429951197085,
            "lng": -84.3953630802915
          }
        }
      },
      "place_id": "ChIJx1FO9cp7QIgRaCKNW2OTQk8",
      "types": [
        "street_address"
      ]
    },
    {
      "address_components": [
        {
          "long_name": "New Lebanon",
          "short_name": "New Lebanon",
          "types": [
            "locality",
            "political"
          ]
        },
        {
          "long_name": "Montgomery County",
          "short_name": "Montgomery County",
          "types": [
            "administrative_area_level_2",
            "political"
          ]
        },
        {
          "long_name": "Ohio",
          "short_name": "OH",
          "types": [
            "administrative_area_level_1",
            "political"
          ]
        },
        {
          "long_name": "United States",
          "short_name": "US",
          "types": [
            "country",
            "political"
          ]
        },
        {
          "long_name": "45345",
          "short_name": "45345",
          "types": [
            "postal_code"
          ]
        }
      ],
      "formatted_address": "New Lebanon, OH 45345, USA",
      "geometry": {
        "bounds": {
          "northeast": {
            "lat": 39.7528569,
            "lng": -84.373774
          },
          "southwest": {
            "lat": 39.731885,
            "lng": -84.4253959
          }
        },
        "location": {
          "lat": 39.7453337,
          "lng": -84.3849462
        },
        "location_type": "APPROXIMATE",
        "viewport": {
          "northeast": {
            "lat": 39.7528569,
            "lng": -84.373774
          },
          "southwest": {
            "lat": 39.731885,
            "lng": -84.4253959
          }
        }
      },
      "place_id": "ChIJowgzwDV6QIgRUz5Z2FQCdNI",
      "types": [
        "locality",
        "political"
      ]
    },
    {
      "address_components": [
        {
          "long_name": "45345",
          "short_name": "45345",
          "types": [
            "postal_code"
          ]
        },
        {
          "long_name": "New Lebanon",
          "short_name": "New Lebanon",
          "types": [
            "locality",
            "political"
          ]
        },
        {
          "long_name": "Ohio",
          "short_name": "OH",
          "types": [
            "administrative_area_level_1",
            "political"
          ]
        },
        {
          "long_name": "United States",
          "short_name": "US",
          "types": [
            "country",
            "political"
          ]
        }
      ],
      "formatted_address": "New Lebanon, OH 45345, USA",
      "geometry": {
        "bounds": {
          "northeast": {
            "lat": 39.7885829,
            "lng": -84.319097
          },
          "southwest": {
            "lat": 39.7017879,
            "lng": -84.48880700000001
          }
        },
        "location": {
          "lat": 39.7337228,
          "lng": -84.406761
        },
        "location_type": "APPROXIMATE",
        "viewport": {
          "northeast": {
            "lat": 39.7885829,
            "lng": -84.319097
          },
          "southwest": {
            "lat": 39.7017879,
            "lng": -84.48880700000001
          }
        }
      },
      "place_id": "ChIJZUabBUZ6QIgRoEZLY-Ga5l0",
      "types": [
        "postal_code"
      ]
    },
    {
      "address_components": [
        {
          "long_name": "Jackson Township",
          "short_name": "Jackson Township",
          "types": [
            "administrative_area_level_3",
            "political"
          ]
        },
        {
          "long_name": "Montgomery County",
          "short_name": "Montgomery County",
          "types": [
            "administrative_area_level_2",
            "political"
          ]
        },
        {
          "long_name": "Ohio",
          "short_name": "OH",
          "types": [
            "administrative_area_level_1",
            "political"
          ]
        },
        {
          "long_name": "United States",
          "short_name": "US",
          "types": [
            "country",
            "political"
          ]
        }
      ],
      "formatted_address": "Jackson Township, OH, USA",
      "geometry": {
        "bounds": {
          "northeast": {
            "lat": 39.7457889,
            "lng": -84.3664019
          },
          "southwest": {
            "lat": 39.65705,
            "lng": -84.4818848
          }
        },
        "location": {
          "lat": 39.7033899,
          "lng": -84.41726659999999
        },
        "location_type": "APPROXIMATE",
        "viewport": {
          "northeast": {
            "lat": 39.7457889,
            "lng": -84.3664019
          },
          "southwest": {
            "lat": 39.65705,
            "lng": -84.4818848
          }
        }
      },
      "place_id": "ChIJQ0Irirt6QIgR9s78z8iYgsY",
      "types": [
        "administrative_area_level_3",
        "political"
      ]
    },
    {
      "address_components": [
        {
          "long_name": "Montgomery County",
          "short_name": "Montgomery County",
          "types": [
            "administrative_area_level_2",
            "political"
          ]
        },
        {
          "long_name": "Ohio",
          "short_name": "OH",
          "types": [
            "administrative_area_level_1",
            "political"
          ]
        },
        {
          "long_name": "United States",
          "short_name": "US",
          "types": [
            "country",
            "political"
          ]
        }
      ],
      "formatted_address": "Montgomery County, OH, USA",
      "geometry": {
        "bounds": {
          "northeast": {
            "lat": 39.9229798,
            "lng": -84.051039
          },
          "southwest": {
            "lat": 39.577983,
            "lng": -84.48565289999999
          }
        },
        "location": {
          "lat": 39.7620028,
          "lng": -84.3542049
        },
        "location_type": "APPROXIMATE",
        "viewport": {
          "northeast": {
            "lat": 39.9229798,
            "lng": -84.051039
          },
          "southwest": {
            "lat": 39.577983,
            "lng": -84.48565289999999
          }
        }
      },
      "place_id": "ChIJcc4RhY9iQIgRFxRmOJXb_kk",
      "types": [
        "administrative_area_level_2",
        "political"
      ]
    },
    {
      "address_components": [
        {
          "long_name": "Dayton",
          "short_name": "Dayton",
          "types": [
            "political"
          ]
        },
        {
          "long_name": "United States",
          "short_name": "US",
          "types": [
            "country",
            "political"
          ]
        }
      ],
      "formatted_address": "Dayton, USA",
      "geometry": {
        "bounds": {
          "northeast": {
            "lat": 40.20008199999999,
            "lng": -83.64661
          },
          "southwest": {
            "lat": 39.5502529,
            "lng": -84.815156
          }
        },
        "location": {
          "lat": 39.7620028,
          "lng": -84.3542049
        },
        "location_type": "APPROXIMATE",
        "viewport": {
          "northeast": {
            "lat": 40.20008199999999,
            "lng": -83.64661
          },
          "southwest": {
            "lat": 39.5502529,
            "lng": -84.815156
          }
        }
      },
      "place_id": "ChIJHUhBS3iAQIgRfuAqWL17twA",
      "types": [
        "political"
      ]
    },
    {
      "address_components": [
        {
          "long_name": "Ohio",
          "short_name": "OH",
          "types": [
            "administrative_area_level_1",
            "political"
          ]
        },
        {
          "long_name": "United States",
          "short_name": "US",
          "types": [
            "country",
            "political"
          ]
        }
      ],
      "formatted_address": "Ohio, USA",
      "geometry": {
        "bounds": {
          "northeast": {
            "lat": 41.9773019,
            "lng": -80.5182
          },
          "southwest": {
            "lat": 38.4034229,
            "lng": -84.8203049
          }
        },
        "location": {
          "lat": 40.4172871,
          "lng": -82.90712300000001
        },
        "location_type": "APPROXIMATE",
        "viewport": {
          "northeast": {
            "lat": 41.9773019,
            "lng": -80.5182
          },
          "southwest": {
            "lat": 38.4034229,
            "lng": -84.8203049
          }
        }
      },
      "place_id": "ChIJwY5NtXrpNogRFtmfnDlkzeU",
      "types": [
        "administrative_area_level_1",
        "political"
      ]
    },
    {
      "address_components": [
        {
          "long_name": "United States",
          "short_name": "US",
          "types": [
            "country",
            "political"
          ]
        }
      ],
      "formatted_address": "United States",
      "geometry": {
        "bounds": {
          "northeast": {
            "lat": 71.3867745,
            "lng": -66.9502861
          },
          "southwest": {
            "lat": 18.9106768,
            "lng": 172.4458955
          }
        },
        "location": {
          "lat": 37.09024,
          "lng": -95.712891
        },
        "location_type": "APPROXIMATE",
        "viewport": {
          "northeast": {
            "lat": 49.38,
            "lng": -66.94
          },
          "southwest": {
            "lat": 25.82,
            "lng": -124.39
          }
        }
      },
      "place_id": "ChIJCzYy5IS16lQRQrfeQ5K5Oxw",
      "types": [
        "country",
        "political"
      ]
    }
  ],
  "status": "OK"
}
