{
  "results": [
    {
      "address_components": [
        {
          "long_name": "6433-6485",
          "short_name": "6433-6485",
          "types": [
            "street_number"
          ]
        },
        {
          "long_name": "North State Route 7",
          "short_name": "IN-7",
          "types": [
            "route"
          ]
        },
        {
          "long_name": "Scipio",
          "short_name": "Scipio",
          "types": [
            "locality",
            "political"
          ]
        },
        {
          "long_name": "Geneva Township",
          "short_name": "Geneva Township",
          "types": [
            "administrative_area_level_3",
            "political"
          ]
        },
        {
          "long_name": "Jennings County",
          "short_name": "Jennings County",
          "types": [
            "administrative_area_level_2",
            "political"
          ]
        },
        {
          "long_name": "Indiana",
          "short_name": "IN",
          "types": [
            "administrative_area_level_1",
            "political"
          ]
        },
        {
          "long_name": "United States",
          "short_name": "US",
          "types": [
            "country",
            "political"
          ]
        },
        {
          "long_name": "47273",
          "short_name": "47273",
          "types": [
            "postal_code"
          ]
        }
      ],
      "formatted_address": "6433-6485 IN-7, Scipio, IN 47273, USA",
      "geometry": {
        "bounds": {
          "northeast": {
            "lat": 39.0789668,
            "lng": -85.7145828
          },
          "southwest": {
            "lat": 39.0766783,
            "lng": -85.71686609999999
          }
        },
        "location": {
          "lat": 39.0775408,
          "lng": -85.7153656
        },
        "location_type": "RANGE_INTERPOLATED",
        "viewport": {
          "northeast": {
            "lat": 39.0791715302915,
            "lng": -85.7143754697085
          },
          "southwest": {
            "lat": 39.0764735697085,
            "lng": -85.7170734302915
          }
        }
      },
      "place_id": "EiU2NDMzLTY0ODUgSU4tNywgU2NpcGlvLCBJTiA0NzI3MywgVVNB",
      "types": [
        "street_address"
      ]
    },
    {
      "address_components": [
        {
          "long_name": "Scipio",
          "short_name": "Scipio",
          "types": [
            "locality",
            "political"
          ]
        },
        {
          "long_name": "Geneva Township",
          "short_name": "Geneva Township",
          "types": [
            "administrative_area_level_3",
            "political"
          ]
        },
        {
          "long_name": "Jennings County",
          "short_name": "Jennings County",
          "types": [
            "administrative_area_level_2",
            "political"
          ]
        },
        {
          "long_name": "Indiana",
          "short_name": "IN",
          "types": [
            "administrative_area_level_1",
            "political"
          ]
        },
        {
          "long_name": "United States",
          "short_name": "US",
          "types": [
            "country",
            "political"
          ]
        }
      ],
      "formatted_address": "Scipio, IN, USA",
      "geometry": {
        "bounds": {
          "northeast": {
            "lat": 39.087057,
            "lng": -85.696275
          },
          "southwest": {
            "lat": 39.071672,
            "lng": -85.73198800000002
          }
        },
        "location": {
          "lat": 39.078988,
          "lng": -85.7188168
        },
        "location_type": "APPROXIMATE",
        "viewport": {
          "northeast": {
            "lat": 39.087057,
            "lng": -85.696275
          },
          "southwest": {
            "lat": 39.071672,
            "lng": -85.73198800000002
          }
        }
      },
      "place_id": "ChIJz1WlOCaua4gRCWLFlqsfzY4",
      "types": [
        "locality",
        "political"
      ]
    },
    {
      "address_components": [
        {
          "long_name": "47273",
          "short_name": "47273",
          "types": [
            "postal_code"
          ]
        },
        {
          "long_name": "Scipio",
          "short_name": "Scipio",
          "types": [
            "locality",
            "political"
          ]
        },
        {
          "long_name": "Indiana",
          "short_name": "IN",
          "types": [
            "administrative_area_level_1",
            "political"
          ]
        },
        {
          "long_name": "United States",
          "short_name": "US",
          "types": [
            "country",
            "political"
          ]
        }
      ],
      "formatted_address": "Scipio, IN 47273, USA",
      "geometry": {
        "bounds": {
          "northeast": {
            "lat": 39.13073,
            "lng": -85.6704769
          },
          "southwest": {
            "lat": 38.9989238,
            "lng": -85.798926
          }
        },
        "location": {
          "lat": 39.0662276,
          "lng": -85.735897
        },
        "location_type": "APPROXIMATE",
        "viewport": {
          "northeast": {
            "lat": 39.13073,
            "lng": -85.6704769
          },
          "southwest": {
            "lat": 38.9989238,
            "lng": -85.798926
          }
        }
      },
      "place_id": "ChIJJchH_dava4gRKN0t1JsPJ9E",
      "types": [
        "postal_code"
      ]
    },
    {
      "address_components": [
        {
          "long_name": "Geneva Township",
          "short_name": "Geneva Township",
          "types": [
            "administrative_area_level_3",
            "political"
          ]
        },
        {
          "long_name": "Jennings County",
          "short_name": "Jennings County",
          "types": [
            "administrative_area_level_2",
            "political"
          ]
        },
        {
          "long_name": "Indiana",
          "short_name": "IN",
          "types": [
            "administrative_area_level_1",
            "political"
          ]
        },
        {
          "long_name": "United States",
          "short_name": "US",
          "types": [
            "country",
            "political"
          ]
        }
      ],
      "formatted_address": "Geneva Township, IN, USA",
      "geometry": {
        "bounds": {
          "northeast": {
            "lat": 39.1314349,
            "lng": -85.6480371
          },
          "southwest": {
            "lat": 39.0276931,
            "lng": -85.7998339
          }
        },
        "location": {
          "lat": 39.0962941,
          "lng": -85.7051116
        },
        "location_type": "APPROXIMATE",
        "viewport": {
          "northeast": {
            "lat": 39.1314349,
            "lng": -85.6480371
          },
          "southwest": {
            "lat": 39.0276931,
            "lng": -85.7998339
          }
        }
      },
      "place_id": "ChIJmwXmECuua4gRGCVuEKMcer0",
      "types": [
        "administrative_area_level_3",
        "political"
      ]
    },
    {
      "address_components": [
        {
          "long_name": "North Vernon",
          "short_name": "North Vernon",
          "types": [
            "political"
          ]
        },
        {
          "long_name": "Indiana",
          "short_name": "IN",
          "types": [
            "administrative_area_level_1",
            "political"
          ]
        },
        {
          "long_name": "United States",
          "short_name": "US",
          "types": [
            "country",
            "political"
          ]
        }
      ],
      "formatted_address": "North Vernon, IN, USA",
      "geometry": {
        "bounds": {
          "northeast": {
            "lat": 39.195617,
            "lng": -85.439966
          },
          "southwest": {
            "lat": 38.8069859,
            "lng": -85.7998341
          }
        },
        "location": {
          "lat": 38.9914998,
          "lng": -85.684578
        },
        "location_type": "APPROXIMATE",
        "viewport": {
          "northeast": {
            "lat": 39.195617,
            "lng": -85.439966
          },
          "southwest": {
            "lat": 38.8069859,
            "lng": -85.7998341
          }
        }
      },
      "place_id": "ChIJIWi-KWSza4gR0u8ArfiR2_E",
      "types": [
        "political"
      ]
    },
    {
      "address_components": [
        {
          "long_name": "Jennings County",
          "short_name": "Jennings County",
          "types": [
            "administrative_area_level_2",
            "political"
          ]
        },
        {
          "long_name": "Indiana",
          "short_name": "IN",
          "types": [
            "administrative_area_level_1",
            "political"
          ]
        },
        {
          "long_name": "United States",
          "short_name": "US",
          "types": [
            "country",
            "political"
          ]
        }
      ],
      "formatted_address": "Jennings County, IN, USA",
      "geometry": {
        "bounds": {
          "northeast": {
            "lat": 39.195617,
            "lng": -85.4399049
          },
          "southwest": {
            "lat": 38.8069859,
            "lng": -85.7998339
          }
        },
        "location": {
          "lat": 38.9914998,
          "lng": -85.684578
        },
        "location_type": "APPROXIMATE",
        "viewport": {
          "northeast": {
            "lat": 39.195617,
            "lng": -85.4399049
          },
          "southwest": {
            "lat": 38.8069859,
            "lng": -85.7998339
          }
        }
      },
      "place_id": "ChIJJ2pBeIKza4gRD4IHXifSCKE",
      "types": [
        "administrative_area_level_2",
        "political"
      ]
    },
    {
      "address_components": [
        {
          "long_name": "Indiana",
          "short_name": "IN",
          "types": [
            "administrative_area_level_1",
            "political"
          ]
        },
        {
          "long_name": "United States",
          "short_name": "US",
          "types": [
            "country",
            "political"
          ]
        }
      ],
      "formatted_address": "Indiana, USA",
      "geometry": {
        "bounds": {
          "northeast": {
            "lat": 41.7606971,
            "lng": -84.784662
          },
          "southwest": {
            "lat": 37.7717419,
            "lng": -88.097892
          }
        },
        "location": {
          "lat": 40.2671941,
          "lng": -86.1349019
        },
        "location_type": "APPROXIMATE",
        "viewport": {
          "northeast": {
            "lat": 41.7606971,
            "lng": -84.784662
          },
          "southwest": {
            "lat": 37.7717419,
            "lng": -88.097892
          }
        }
      },
      "place_id": "ChIJHRv42bxQa4gRcuwyy84vEH4",
      "types": [
        "administrative_area_level_1",
        "political"
      ]
    },
    {
      "address_components": [
        {
          "long_name": "United States",
          "short_name": "US",
          "types": [
            "country",
            "political"
          ]
        }
      ],
      "formatted_address": "United States",
      "geometry": {
        "bounds": {
          "northeast": {
            "lat": 71.3867745,
            "lng": -66.9502861
          },
          "southwest": {
            "lat": 18.9106768,
            "lng": 172.4458955
          }
        },
        "location": {
          "lat": 37.09024,
          "lng": -95.712891
        },
        "location_type": "APPROXIMATE",
        "viewport": {
          "northeast": {
            "lat": 49.38,
            "lng": -66.94
          },
          "southwest": {
            "lat": 25.82,
            "lng": -124.39
          }
        }
      },
      "place_id": "ChIJCzYy5IS16lQRQrfeQ5K5Oxw",
      "types": [
        "country",
        "political"
      ]
    }
  ],
  "status": "OK"
}
