{
  "results": [
    {
      "address_components": [
        {
          "long_name": "224",
          "short_name": "224",
          "types": [
            "street_number"
          ]
        },
        {
          "long_name": "South State Street",
          "short_name": "S State St",
          "types": [
            "route"
          ]
        },
        {
          "long_name": "South Whitley",
          "short_name": "South Whitley",
          "types": [
            "locality",
            "political"
          ]
        },
        {
          "long_name": "Cleveland Township",
          "short_name": "Cleveland Township",
          "types": [
            "administrative_area_level_3",
            "political"
          ]
        },
        {
          "long_name": "Whitley County",
          "short_name": "Whitley County",
          "types": [
            "administrative_area_level_2",
            "political"
          ]
        },
        {
          "long_name": "Indiana",
          "short_name": "IN",
          "types": [
            "administrative_area_level_1",
            "political"
          ]
        },
        {
          "long_name": "United States",
          "short_name": "US",
          "types": [
            "country",
            "political"
          ]
        },
        {
          "long_name": "46787",
          "short_name": "46787",
          "types": [
            "postal_code"
          ]
        },
        {
          "long_name": "1300",
          "short_name": "1300",
          "types": [
            "postal_code_suffix"
          ]
        }
      ],
      "formatted_address": "224 S State St, South Whitley, IN 46787, USA",
      "geometry": {
        "location": {
          "lat": 41.083717,
          "lng": -85.62755899999999
        },
        "location_type": "ROOFTOP",
        "viewport": {
          "northeast": {
            "lat": 41.0850659802915,
            "lng": -85.6262100197085
          },
          "southwest": {
            "lat": 41.0823680197085,
            "lng": -85.6289079802915
          }
        }
      },
      "place_id": "ChIJ17XzouYsFIgRw5CctGs9MrM",
      "types": [
        "street_address"
      ]
    },
    {
      "address_components": [
        {
          "long_name": "South Whitley",
          "short_name": "South Whitley",
          "types": [
            "locality",
            "political"
          ]
        },
        {
          "long_name": "Cleveland Township",
          "short_name": "Cleveland Township",
          "types": [
            "administrative_area_level_3",
            "political"
          ]
        },
        {
          "long_name": "Whitley County",
          "short_name": "Whitley County",
          "types": [
            "administrative_area_level_2",
            "political"
          ]
        },
        {
          "long_name": "Indiana",
          "short_name": "IN",
          "types": [
            "administrative_area_level_1",
            "political"
          ]
        },
        {
          "long_name": "United States",
          "short_name": "US",
          "types": [
            "country",
            "political"
          ]
        },
        {
          "long_name": "46787",
          "short_name": "46787",
          "types": [
            "postal_code"
          ]
        }
      ],
      "formatted_address": "South Whitley, IN 46787, USA",
      "geometry": {
        "bounds": {
          "northeast": {
            "lat": 41.0952301,
            "lng": -85.614357
          },
          "southwest": {
            "lat": 41.0739919,
            "lng": -85.63828500000001
          }
        },
        "location": {
          "lat": 41.0847677,
          "lng": -85.62803810000001
        },
        "location_type": "APPROXIMATE",
        "viewport": {
          "northeast": {
            "lat": 41.0952301,
            "lng": -85.614357
          },
          "southwest": {
            "lat": 41.0739919,
            "lng": -85.63828500000001
          }
        }
      },
      "place_id": "ChIJWRcFMt4sFIgRETBOFe3P_Ho",
      "types": [
        "locality",
        "political"
      ]
    },
    {
      "address_components": [
        {
          "long_name": "Cleveland Township",
          "short_name": "Cleveland Township",
          "types": [
            "administrative_area_level_3",
            "political"
          ]
        },
        {
          "long_name": "Whitley County",
          "short_name": "Whitley County",
          "types": [
            "administrative_area_level_2",
            "political"
          ]
        },
        {
          "long_name": "Indiana",
          "short_name": "IN",
          "types": [
            "administrative_area_level_1",
            "political"
          ]
        },
        {
          "long_name": "United States",
          "short_name": "US",
          "types": [
            "country",
            "political"
          ]
        }
      ],
      "formatted_address": "Cleveland Township, IN, USA",
      "geometry": {
        "bounds": {
          "northeast": {
            "lat": 41.118853,
            "lng": -85.56645089999999
          },
          "southwest": {
            "lat": 41.0018839,
            "lng": -85.6860331
          }
        },
        "location": {
          "lat": 41.0572324,
          "lng": -85.62292959999999
        },
        "location_type": "APPROXIMATE",
        "viewport": {
          "northeast": {
            "lat": 41.118853,
            "lng": -85.56645089999999
          },
          "southwest": {
            "lat": 41.0018839,
            "lng": -85.6860331
          }
        }
      },
      "place_id": "ChIJ9b2tURQtFIgRupU9v7RgsaE",
      "types": [
        "administrative_area_level_3",
        "political"
      ]
    },
    {
      "address_components": [
        {
          "long_name": "46787",
          "short_name": "46787",
          "types": [
            "postal_code"
          ]
        },
        {
          "long_name": "South Whitley",
          "short_name": "South Whitley",
          "types": [
            "locality",
            "political"
          ]
        },
        {
          "long_name": "Indiana",
          "short_name": "IN",
          "types": [
            "administrative_area_level_1",
            "political"
          ]
        },
        {
          "long_name": "United States",
          "short_name": "US",
          "types": [
            "country",
            "political"
          ]
        }
      ],
      "formatted_address": "South Whitley, IN 46787, USA",
      "geometry": {
        "bounds": {
          "northeast": {
            "lat": 41.16129189999999,
            "lng": -85.528509
          },
          "southwest": {
            "lat": 40.9879001,
            "lng": -85.724148
          }
        },
        "location": {
          "lat": 41.0572324,
          "lng": -85.62292959999999
        },
        "location_type": "APPROXIMATE",
        "viewport": {
          "northeast": {
            "lat": 41.16129189999999,
            "lng": -85.528509
          },
          "southwest": {
            "lat": 40.9879001,
            "lng": -85.724148
          }
        }
      },
      "place_id": "ChIJLVl8yBctFIgRbhHxO5lV_OE",
      "types": [
        "postal_code"
      ]
    },
    {
      "address_components": [
        {
          "long_name": "Whitley County",
          "short_name": "Whitley County",
          "types": [
            "administrative_area_level_2",
            "political"
          ]
        },
        {
          "long_name": "Indiana",
          "short_name": "IN",
          "types": [
            "administrative_area_level_1",
            "political"
          ]
        },
        {
          "long_name": "United States",
          "short_name": "US",
          "types": [
            "country",
            "political"
          ]
        }
      ],
      "formatted_address": "Whitley County, IN, USA",
      "geometry": {
        "bounds": {
          "northeast": {
            "lat": 41.295373,
            "lng": -85.30778099999999
          },
          "southwest": {
            "lat": 41.0018839,
            "lng": -85.6865739
          }
        },
        "location": {
          "lat": 41.1136133,
          "lng": -85.52002399999999
        },
        "location_type": "APPROXIMATE",
        "viewport": {
          "northeast": {
            "lat": 41.295373,
            "lng": -85.30778099999999
          },
          "southwest": {
            "lat": 41.0018839,
            "lng": -85.6865739
          }
        }
      },
      "place_id": "ChIJC87Qi7LXFYgRsK0cVrcvO6o",
      "types": [
        "administrative_area_level_2",
        "political"
      ]
    },
    {
      "address_components": [
        {
          "long_name": "Fort Wayne",
          "short_name": "Fort Wayne",
          "types": [
            "political"
          ]
        },
        {
          "long_name": "United States",
          "short_name": "US",
          "types": [
            "country",
            "political"
          ]
        }
      ],
      "formatted_address": "Fort Wayne, USA",
      "geometry": {
        "bounds": {
          "northeast": {
            "lat": 41.295428,
            "lng": -84.8029349
          },
          "southwest": {
            "lat": 40.566514,
            "lng": -85.6866029
          }
        },
        "location": {
          "lat": 40.9392978,
          "lng": -85.1894045
        },
        "location_type": "APPROXIMATE",
        "viewport": {
          "northeast": {
            "lat": 41.295428,
            "lng": -84.8029349
          },
          "southwest": {
            "lat": 40.566514,
            "lng": -85.6866029
          }
        }
      },
      "place_id": "ChIJb5IiwpPoFYgRtHlDNnAYW7M",
      "types": [
        "political"
      ]
    },
    {
      "address_components": [
        {
          "long_name": "Indiana",
          "short_name": "IN",
          "types": [
            "administrative_area_level_1",
            "political"
          ]
        },
        {
          "long_name": "United States",
          "short_name": "US",
          "types": [
            "country",
            "political"
          ]
        }
      ],
      "formatted_address": "Indiana, USA",
      "geometry": {
        "bounds": {
          "northeast": {
            "lat": 41.7606971,
            "lng": -84.784662
          },
          "southwest": {
            "lat": 37.7717419,
            "lng": -88.097892
          }
        },
        "location": {
          "lat": 40.2671941,
          "lng": -86.1349019
        },
        "location_type": "APPROXIMATE",
        "viewport": {
          "northeast": {
            "lat": 41.7606971,
            "lng": -84.784662
          },
          "southwest": {
            "lat": 37.7717419,
            "lng": -88.097892
          }
        }
      },
      "place_id": "ChIJHRv42bxQa4gRcuwyy84vEH4",
      "types": [
        "administrative_area_level_1",
        "political"
      ]
    },
    {
      "address_components": [
        {
          "long_name": "United States",
          "short_name": "US",
          "types": [
            "country",
            "political"
          ]
        }
      ],
      "formatted_address": "United States",
      "geometry": {
        "bounds": {
          "northeast": {
            "lat": 71.3867745,
            "lng": -66.9502861
          },
          "southwest": {
            "lat": 18.9106768,
            "lng": 172.4458955
          }
        },
        "location": {
          "lat": 37.09024,
          "lng": -95.712891
        },
        "location_type": "APPROXIMATE",
        "viewport": {
          "northeast": {
            "lat": 49.38,
            "lng": -66.94
          },
          "southwest": {
            "lat": 25.82,
            "lng": -124.39
          }
        }
      },
      "place_id": "ChIJCzYy5IS16lQRQrfeQ5K5Oxw",
      "types": [
        "country",
        "political"
      ]
    }
  ],
  "status": "OK"
}
