{
  "results": [
    {
      "address_components": [
        {
          "long_name": "534",
          "short_name": "534",
          "types": [
            "street_number"
          ]
        },
        {
          "long_name": "Chadron Avenue",
          "short_name": "Chadron Ave",
          "types": [
            "route"
          ]
        },
        {
          "long_name": "Chadron",
          "short_name": "Chadron",
          "types": [
            "locality",
            "political"
          ]
        },
        {
          "long_name": "Dawes County",
          "short_name": "Dawes County",
          "types": [
            "administrative_area_level_2",
            "political"
          ]
        },
        {
          "long_name": "Nebraska",
          "short_name": "NE",
          "types": [
            "administrative_area_level_1",
            "political"
          ]
        },
        {
          "long_name": "United States",
          "short_name": "US",
          "types": [
            "country",
            "political"
          ]
        },
        {
          "long_name": "69337",
          "short_name": "69337",
          "types": [
            "postal_code"
          ]
        },
        {
          "long_name": "2637",
          "short_name": "2637",
          "types": [
            "postal_code_suffix"
          ]
        }
      ],
      "formatted_address": "534 Chadron Ave, Chadron, NE 69337, USA",
      "geometry": {
        "location": {
          "lat": 42.8258327,
          "lng": -103.0022762
        },
        "location_type": "ROOFTOP",
        "viewport": {
          "northeast": {
            "lat": 42.8271816802915,
            "lng": -103.0009272197085
          },
          "southwest": {
            "lat": 42.8244837197085,
            "lng": -103.0036251802915
          }
        }
      },
      "place_id": "ChIJpZ6TmQ9ue4cR7xvBbRumwdY",
      "types": [
        "street_address"
      ]
    },
    {
      "address_components": [
        {
          "long_name": "Chadron",
          "short_name": "Chadron",
          "types": [
            "locality",
            "political"
          ]
        },
        {
          "long_name": "Dawes County",
          "short_name": "Dawes County",
          "types": [
            "administrative_area_level_2",
            "political"
          ]
        },
        {
          "long_name": "Nebraska",
          "short_name": "NE",
          "types": [
            "administrative_area_level_1",
            "political"
          ]
        },
        {
          "long_name": "United States",
          "short_name": "US",
          "types": [
            "country",
            "political"
          ]
        },
        {
          "long_name": "69337",
          "short_name": "69337",
          "types": [
            "postal_code"
          ]
        }
      ],
      "formatted_address": "Chadron, NE 69337, USA",
      "geometry": {
        "bounds": {
          "northeast": {
            "lat": 42.84502680000001,
            "lng": -102.979346
          },
          "southwest": {
            "lat": 42.800578,
            "lng": -103.0277491
          }
        },
        "location": {
          "lat": 42.8294187,
          "lng": -102.9999069
        },
        "location_type": "APPROXIMATE",
        "viewport": {
          "northeast": {
            "lat": 42.84502680000001,
            "lng": -102.979346
          },
          "southwest": {
            "lat": 42.800578,
            "lng": -103.0277491
          }
        }
      },
      "place_id": "ChIJ0xoaqQ9ue4cRiYlw4EJikrU",
      "types": [
        "locality",
        "political"
      ]
    },
    {
      "address_components": [
        {
          "long_name": "69337",
          "short_name": "69337",
          "types": [
            "postal_code"
          ]
        },
        {
          "long_name": "Chadron",
          "short_name": "Chadron",
          "types": [
            "locality",
            "political"
          ]
        },
        {
          "long_name": "Nebraska",
          "short_name": "NE",
          "types": [
            "administrative_area_level_1",
            "political"
          ]
        },
        {
          "long_name": "United States",
          "short_name": "US",
          "types": [
            "country",
            "political"
          ]
        }
      ],
      "formatted_address": "Chadron, NE 69337, USA",
      "geometry": {
        "bounds": {
          "northeast": {
            "lat": 43.000947,
            "lng": -102.662344
          },
          "southwest": {
            "lat": 42.53887410000001,
            "lng": -103.404745
          }
        },
        "location": {
          "lat": 42.8301322,
          "lng": -102.8975098
        },
        "location_type": "APPROXIMATE",
        "viewport": {
          "northeast": {
            "lat": 43.000947,
            "lng": -102.662344
          },
          "southwest": {
            "lat": 42.53887410000001,
            "lng": -103.404745
          }
        }
      },
      "place_id": "ChIJAdxg6Pdse4cRe-7-NdeB2Bs",
      "types": [
        "postal_code"
      ]
    },
    {
      "address_components": [
        {
          "long_name": "Dawes County",
          "short_name": "Dawes County",
          "types": [
            "administrative_area_level_2",
            "political"
          ]
        },
        {
          "long_name": "Nebraska",
          "short_name": "NE",
          "types": [
            "administrative_area_level_1",
            "political"
          ]
        },
        {
          "long_name": "United States",
          "short_name": "US",
          "types": [
            "country",
            "political"
          ]
        }
      ],
      "formatted_address": "Dawes County, NE, USA",
      "geometry": {
        "bounds": {
          "northeast": {
            "lat": 43.000947,
            "lng": -102.772858
          },
          "southwest": {
            "lat": 42.437267,
            "lng": -103.5050999
          }
        },
        "location": {
          "lat": 42.6551733,
          "lng": -103.0817903
        },
        "location_type": "APPROXIMATE",
        "viewport": {
          "northeast": {
            "lat": 43.000947,
            "lng": -102.772858
          },
          "southwest": {
            "lat": 42.437267,
            "lng": -103.5050999
          }
        }
      },
      "place_id": "ChIJI42WwpmEeYcRmD_Sfc11ECg",
      "types": [
        "administrative_area_level_2",
        "political"
      ]
    },
    {
      "address_components": [
        {
          "long_name": "Nebraska",
          "short_name": "NE",
          "types": [
            "administrative_area_level_1",
            "political"
          ]
        },
        {
          "long_name": "United States",
          "short_name": "US",
          "types": [
            "country",
            "political"
          ]
        }
      ],
      "formatted_address": "Nebraska, USA",
      "geometry": {
        "bounds": {
          "northeast": {
            "lat": 43.00170689999999,
            "lng": -95.30829000000001
          },
          "southwest": {
            "lat": 39.999932,
            "lng": -104.053514
          }
        },
        "location": {
          "lat": 41.4925374,
          "lng": -99.9018131
        },
        "location_type": "APPROXIMATE",
        "viewport": {
          "northeast": {
            "lat": 43.00170689999999,
            "lng": -95.30829000000001
          },
          "southwest": {
            "lat": 39.999932,
            "lng": -104.053514
          }
        }
      },
      "place_id": "ChIJ7fwMtciNk4cRxArzDwyQJ6E",
      "types": [
        "administrative_area_level_1",
        "political"
      ]
    },
    {
      "address_components": [
        {
          "long_name": "United States",
          "short_name": "US",
          "types": [
            "country",
            "political"
          ]
        }
      ],
      "formatted_address": "United States",
      "geometry": {
        "bounds": {
          "northeast": {
            "lat": 71.3867745,
            "lng": -66.9502861
          },
          "southwest": {
            "lat": 18.9106768,
            "lng": 172.4458955
          }
        },
        "location": {
          "lat": 37.09024,
          "lng": -95.712891
        },
        "location_type": "APPROXIMATE",
        "viewport": {
          "northeast": {
            "lat": 49.38,
            "lng": -66.94
          },
          "southwest": {
            "lat": 25.82,
            "lng": -124.39
          }
        }
      },
      "place_id": "ChIJCzYy5IS16lQRQrfeQ5K5Oxw",
      "types": [
        "country",
        "political"
      ]
    }
  ],
  "status": "OK"
}
