{
  "results": [
    {
      "address_components": [
        {
          "long_name": "149",
          "short_name": "149",
          "types": [
            "street_number"
          ]
        },
        {
          "long_name": "North Main Street",
          "short_name": "N Main St",
          "types": [
            "route"
          ]
        },
        {
          "long_name": "Mount Gilead",
          "short_name": "Mt Gilead",
          "types": [
            "locality",
            "political"
          ]
        },
        {
          "long_name": "Gilead Township",
          "short_name": "Gilead Township",
          "types": [
            "administrative_area_level_3",
            "political"
          ]
        },
        {
          "long_name": "Morrow County",
          "short_name": "Morrow County",
          "types": [
            "administrative_area_level_2",
            "political"
          ]
        },
        {
          "long_name": "Ohio",
          "short_name": "OH",
          "types": [
            "administrative_area_level_1",
            "political"
          ]
        },
        {
          "long_name": "United States",
          "short_name": "US",
          "types": [
            "country",
            "political"
          ]
        },
        {
          "long_name": "43338",
          "short_name": "43338",
          "types": [
            "postal_code"
          ]
        },
        {
          "long_name": "1112",
          "short_name": "1112",
          "types": [
            "postal_code_suffix"
          ]
        }
      ],
      "formatted_address": "149 N Main St, Mt Gilead, OH 43338, USA",
      "geometry": {
        "location": {
          "lat": 40.553241,
          "lng": -82.82758799999999
        },
        "location_type": "ROOFTOP",
        "viewport": {
          "northeast": {
            "lat": 40.5545899802915,
            "lng": -82.82623901970848
          },
          "southwest": {
            "lat": 40.5518920197085,
            "lng": -82.8289369802915
          }
        }
      },
      "place_id": "ChIJf1-I6cmoOYgRKKlVjsyZMRU",
      "types": [
        "street_address"
      ]
    },
    {
      "address_components": [
        {
          "long_name": "Mount Gilead",
          "short_name": "Mt Gilead",
          "types": [
            "locality",
            "political"
          ]
        },
        {
          "long_name": "Gilead Township",
          "short_name": "Gilead Township",
          "types": [
            "administrative_area_level_3",
            "political"
          ]
        },
        {
          "long_name": "Morrow County",
          "short_name": "Morrow County",
          "types": [
            "administrative_area_level_2",
            "political"
          ]
        },
        {
          "long_name": "Ohio",
          "short_name": "OH",
          "types": [
            "administrative_area_level_1",
            "political"
          ]
        },
        {
          "long_name": "United States",
          "short_name": "US",
          "types": [
            "country",
            "political"
          ]
        },
        {
          "long_name": "43338",
          "short_name": "43338",
          "types": [
            "postal_code"
          ]
        }
      ],
      "formatted_address": "Mt Gilead, OH 43338, USA",
      "geometry": {
        "bounds": {
          "northeast": {
            "lat": 40.57567,
            "lng": -82.801018
          },
          "southwest": {
            "lat": 40.5367789,
            "lng": -82.85914609999999
          }
        },
        "location": {
          "lat": 40.5492265,
          "lng": -82.8274014
        },
        "location_type": "APPROXIMATE",
        "viewport": {
          "northeast": {
            "lat": 40.57567,
            "lng": -82.801018
          },
          "southwest": {
            "lat": 40.5367789,
            "lng": -82.85914609999999
          }
        }
      },
      "place_id": "ChIJUQ4ZxLeoOYgRA9DVvQRFE9w",
      "types": [
        "locality",
        "political"
      ]
    },
    {
      "address_components": [
        {
          "long_name": "Gilead Township",
          "short_name": "Gilead Township",
          "types": [
            "administrative_area_level_3",
            "political"
          ]
        },
        {
          "long_name": "Morrow County",
          "short_name": "Morrow County",
          "types": [
            "administrative_area_level_2",
            "political"
          ]
        },
        {
          "long_name": "Ohio",
          "short_name": "OH",
          "types": [
            "administrative_area_level_1",
            "political"
          ]
        },
        {
          "long_name": "United States",
          "short_name": "US",
          "types": [
            "country",
            "political"
          ]
        }
      ],
      "formatted_address": "Gilead Township, OH, USA",
      "geometry": {
        "bounds": {
          "northeast": {
            "lat": 40.6085889,
            "lng": -82.766542
          },
          "southwest": {
            "lat": 40.4947131,
            "lng": -82.8816219
          }
        },
        "location": {
          "lat": 40.5443206,
          "lng": -82.8317486
        },
        "location_type": "APPROXIMATE",
        "viewport": {
          "northeast": {
            "lat": 40.6085889,
            "lng": -82.766542
          },
          "southwest": {
            "lat": 40.4947131,
            "lng": -82.8816219
          }
        }
      },
      "place_id": "ChIJWeGVU8qoOYgR4bAsi3eI1iU",
      "types": [
        "administrative_area_level_3",
        "political"
      ]
    },
    {
      "address_components": [
        {
          "long_name": "43338",
          "short_name": "43338",
          "types": [
            "postal_code"
          ]
        },
        {
          "long_name": "Mount Gilead",
          "short_name": "Mt Gilead",
          "types": [
            "locality",
            "political"
          ]
        },
        {
          "long_name": "Morrow County",
          "short_name": "Morrow County",
          "types": [
            "administrative_area_level_2",
            "political"
          ]
        },
        {
          "long_name": "Ohio",
          "short_name": "OH",
          "types": [
            "administrative_area_level_1",
            "political"
          ]
        },
        {
          "long_name": "United States",
          "short_name": "US",
          "types": [
            "country",
            "political"
          ]
        }
      ],
      "formatted_address": "Mt Gilead, OH 43338, USA",
      "geometry": {
        "bounds": {
          "northeast": {
            "lat": 40.661848,
            "lng": -82.6428518
          },
          "southwest": {
            "lat": 40.4676611,
            "lng": -82.8622911
          }
        },
        "location": {
          "lat": 40.5497252,
          "lng": -82.7562895
        },
        "location_type": "APPROXIMATE",
        "viewport": {
          "northeast": {
            "lat": 40.661848,
            "lng": -82.6428518
          },
          "southwest": {
            "lat": 40.4676611,
            "lng": -82.8622911
          }
        }
      },
      "place_id": "ChIJC7fWdI6vOYgRQCSQnucwfyk",
      "types": [
        "postal_code"
      ]
    },
    {
      "address_components": [
        {
          "long_name": "Morrow County",
          "short_name": "Morrow County",
          "types": [
            "administrative_area_level_2",
            "political"
          ]
        },
        {
          "long_name": "Ohio",
          "short_name": "OH",
          "types": [
            "administrative_area_level_1",
            "political"
          ]
        },
        {
          "long_name": "United States",
          "short_name": "US",
          "types": [
            "country",
            "political"
          ]
        }
      ],
      "formatted_address": "Morrow County, OH, USA",
      "geometry": {
        "bounds": {
          "northeast": {
            "lat": 40.71273,
            "lng": -82.62360900000002
          },
          "southwest": {
            "lat": 40.345076,
            "lng": -83.02207899999999
          }
        },
        "location": {
          "lat": 40.5303751,
          "lng": -82.8007993
        },
        "location_type": "APPROXIMATE",
        "viewport": {
          "northeast": {
            "lat": 40.71273,
            "lng": -82.62360900000002
          },
          "southwest": {
            "lat": 40.345076,
            "lng": -83.02207899999999
          }
        }
      },
      "place_id": "ChIJUwQ_-ye7OYgRQhinYgfhfG8",
      "types": [
        "administrative_area_level_2",
        "political"
      ]
    },
    {
      "address_components": [
        {
          "long_name": "Columbus",
          "short_name": "Columbus",
          "types": [
            "political"
          ]
        },
        {
          "long_name": "Ohio",
          "short_name": "OH",
          "types": [
            "administrative_area_level_1",
            "political"
          ]
        },
        {
          "long_name": "United States",
          "short_name": "US",
          "types": [
            "country",
            "political"
          ]
        }
      ],
      "formatted_address": "Columbus, OH, USA",
      "geometry": {
        "bounds": {
          "northeast": {
            "lat": 40.717162,
            "lng": -82.182857
          },
          "southwest": {
            "lat": 39.4680629,
            "lng": -83.65333
          }
        },
        "location": {
          "lat": 39.9388943,
          "lng": -83.0790865
        },
        "location_type": "APPROXIMATE",
        "viewport": {
          "northeast": {
            "lat": 40.717162,
            "lng": -82.182857
          },
          "southwest": {
            "lat": 39.4680629,
            "lng": -83.65333
          }
        }
      },
      "place_id": "ChIJ04Fl80SKOIgRrDQZTaEfA_c",
      "types": [
        "political"
      ]
    },
    {
      "address_components": [
        {
          "long_name": "Ohio",
          "short_name": "OH",
          "types": [
            "administrative_area_level_1",
            "political"
          ]
        },
        {
          "long_name": "United States",
          "short_name": "US",
          "types": [
            "country",
            "political"
          ]
        }
      ],
      "formatted_address": "Ohio, USA",
      "geometry": {
        "bounds": {
          "northeast": {
            "lat": 41.9773019,
            "lng": -80.5182
          },
          "southwest": {
            "lat": 38.4034229,
            "lng": -84.8203049
          }
        },
        "location": {
          "lat": 40.4172871,
          "lng": -82.90712300000001
        },
        "location_type": "APPROXIMATE",
        "viewport": {
          "northeast": {
            "lat": 41.9773019,
            "lng": -80.5182
          },
          "southwest": {
            "lat": 38.4034229,
            "lng": -84.8203049
          }
        }
      },
      "place_id": "ChIJwY5NtXrpNogRFtmfnDlkzeU",
      "types": [
        "administrative_area_level_1",
        "political"
      ]
    },
    {
      "address_components": [
        {
          "long_name": "United States",
          "short_name": "US",
          "types": [
            "country",
            "political"
          ]
        }
      ],
      "formatted_address": "United States",
      "geometry": {
        "bounds": {
          "northeast": {
            "lat": 71.3867745,
            "lng": -66.9502861
          },
          "southwest": {
            "lat": 18.9106768,
            "lng": 172.4458955
          }
        },
        "location": {
          "lat": 37.09024,
          "lng": -95.712891
        },
        "location_type": "APPROXIMATE",
        "viewport": {
          "northeast": {
            "lat": 49.38,
            "lng": -66.94
          },
          "southwest": {
            "lat": 25.82,
            "lng": -124.39
          }
        }
      },
      "place_id": "ChIJCzYy5IS16lQRQrfeQ5K5Oxw",
      "types": [
        "country",
        "political"
      ]
    }
  ],
  "status": "OK"
}
