{
  "results": [
    {
      "address_components": [
        {
          "long_name": "309",
          "short_name": "309",
          "types": [
            "street_number"
          ]
        },
        {
          "long_name": "South Tell Street",
          "short_name": "S Tell St",
          "types": [
            "route"
          ]
        },
        {
          "long_name": "Enterprise",
          "short_name": "Enterprise",
          "types": [
            "locality",
            "political"
          ]
        },
        {
          "long_name": "Center",
          "short_name": "Center",
          "types": [
            "administrative_area_level_3",
            "political"
          ]
        },
        {
          "long_name": "Dickinson County",
          "short_name": "Dickinson County",
          "types": [
            "administrative_area_level_2",
            "political"
          ]
        },
        {
          "long_name": "Kansas",
          "short_name": "KS",
          "types": [
            "administrative_area_level_1",
            "political"
          ]
        },
        {
          "long_name": "United States",
          "short_name": "US",
          "types": [
            "country",
            "political"
          ]
        },
        {
          "long_name": "67441",
          "short_name": "67441",
          "types": [
            "postal_code"
          ]
        },
        {
          "long_name": "9101",
          "short_name": "9101",
          "types": [
            "postal_code_suffix"
          ]
        }
      ],
      "formatted_address": "309 S Tell St, Enterprise, KS 67441, USA",
      "geometry": {
        "location": {
          "lat": 38.9022999,
          "lng": -97.11642900000001
        },
        "location_type": "ROOFTOP",
        "viewport": {
          "northeast": {
            "lat": 38.9036488802915,
            "lng": -97.11508001970851
          },
          "southwest": {
            "lat": 38.9009509197085,
            "lng": -97.11777798029152
          }
        }
      },
      "place_id": "ChIJTTEnZrb3vIcRQ7eFNNoCIkc",
      "types": [
        "street_address"
      ]
    },
    {
      "address_components": [
        {
          "long_name": "Enterprise",
          "short_name": "Enterprise",
          "types": [
            "locality",
            "political"
          ]
        },
        {
          "long_name": "Center",
          "short_name": "Center",
          "types": [
            "administrative_area_level_3",
            "political"
          ]
        },
        {
          "long_name": "Dickinson County",
          "short_name": "Dickinson County",
          "types": [
            "administrative_area_level_2",
            "political"
          ]
        },
        {
          "long_name": "Kansas",
          "short_name": "KS",
          "types": [
            "administrative_area_level_1",
            "political"
          ]
        },
        {
          "long_name": "United States",
          "short_name": "US",
          "types": [
            "country",
            "political"
          ]
        },
        {
          "long_name": "67441",
          "short_name": "67441",
          "types": [
            "postal_code"
          ]
        }
      ],
      "formatted_address": "Enterprise, KS 67441, USA",
      "geometry": {
        "bounds": {
          "northeast": {
            "lat": 38.907762,
            "lng": -97.106878
          },
          "southwest": {
            "lat": 38.8960269,
            "lng": -97.126969
          }
        },
        "location": {
          "lat": 38.9027781,
          "lng": -97.11696189999999
        },
        "location_type": "APPROXIMATE",
        "viewport": {
          "northeast": {
            "lat": 38.907762,
            "lng": -97.106878
          },
          "southwest": {
            "lat": 38.8960269,
            "lng": -97.126969
          }
        }
      },
      "place_id": "ChIJ864xcLb3vIcROuIKlBNSoFs",
      "types": [
        "locality",
        "political"
      ]
    },
    {
      "address_components": [
        {
          "long_name": "Center",
          "short_name": "Center",
          "types": [
            "administrative_area_level_3",
            "political"
          ]
        },
        {
          "long_name": "Dickinson County",
          "short_name": "Dickinson County",
          "types": [
            "administrative_area_level_2",
            "political"
          ]
        },
        {
          "long_name": "Kansas",
          "short_name": "KS",
          "types": [
            "administrative_area_level_1",
            "political"
          ]
        },
        {
          "long_name": "United States",
          "short_name": "US",
          "types": [
            "country",
            "political"
          ]
        }
      ],
      "formatted_address": "Center, KS, USA",
      "geometry": {
        "bounds": {
          "northeast": {
            "lat": 38.9611389,
            "lng": -97.037255
          },
          "southwest": {
            "lat": 38.8710579,
            "lng": -97.148743
          }
        },
        "location": {
          "lat": 38.9169351,
          "lng": -97.1144039
        },
        "location_type": "APPROXIMATE",
        "viewport": {
          "northeast": {
            "lat": 38.9611389,
            "lng": -97.037255
          },
          "southwest": {
            "lat": 38.8710579,
            "lng": -97.148743
          }
        }
      },
      "place_id": "ChIJ0ZFIp933vIcRW1XYeanDrCE",
      "types": [
        "administrative_area_level_3",
        "political"
      ]
    },
    {
      "address_components": [
        {
          "long_name": "67441",
          "short_name": "67441",
          "types": [
            "postal_code"
          ]
        },
        {
          "long_name": "Enterprise",
          "short_name": "Enterprise",
          "types": [
            "locality",
            "political"
          ]
        },
        {
          "long_name": "Dickinson County",
          "short_name": "Dickinson County",
          "types": [
            "administrative_area_level_2",
            "political"
          ]
        },
        {
          "long_name": "Kansas",
          "short_name": "KS",
          "types": [
            "administrative_area_level_1",
            "political"
          ]
        },
        {
          "long_name": "United States",
          "short_name": "US",
          "types": [
            "country",
            "political"
          ]
        }
      ],
      "formatted_address": "Enterprise, KS 67441, USA",
      "geometry": {
        "bounds": {
          "northeast": {
            "lat": 38.9479429,
            "lng": -97.01948790000002
          },
          "southwest": {
            "lat": 38.7981409,
            "lng": -97.16749879999999
          }
        },
        "location": {
          "lat": 38.8864092,
          "lng": -97.1036396
        },
        "location_type": "APPROXIMATE",
        "viewport": {
          "northeast": {
            "lat": 38.9479429,
            "lng": -97.01948790000002
          },
          "southwest": {
            "lat": 38.7981409,
            "lng": -97.16749879999999
          }
        }
      },
      "place_id": "ChIJhQE3jBr2vIcRMchO8qJvowk",
      "types": [
        "postal_code"
      ]
    },
    {
      "address_components": [
        {
          "long_name": "Dickinson County",
          "short_name": "Dickinson County",
          "types": [
            "administrative_area_level_2",
            "political"
          ]
        },
        {
          "long_name": "Kansas",
          "short_name": "KS",
          "types": [
            "administrative_area_level_1",
            "political"
          ]
        },
        {
          "long_name": "United States",
          "short_name": "US",
          "types": [
            "country",
            "political"
          ]
        }
      ],
      "formatted_address": "Dickinson County, KS, USA",
      "geometry": {
        "bounds": {
          "northeast": {
            "lat": 39.1335129,
            "lng": -96.8900189
          },
          "southwest": {
            "lat": 38.608974,
            "lng": -97.38121489999999
          }
        },
        "location": {
          "lat": 38.85059770000001,
          "lng": -97.179026
        },
        "location_type": "APPROXIMATE",
        "viewport": {
          "northeast": {
            "lat": 39.1335129,
            "lng": -96.8900189
          },
          "southwest": {
            "lat": 38.608974,
            "lng": -97.38121489999999
          }
        }
      },
      "place_id": "ChIJwR4xSrH1vIcRr7rcudH0yRg",
      "types": [
        "administrative_area_level_2",
        "political"
      ]
    },
    {
      "address_components": [
        {
          "long_name": "Kansas",
          "short_name": "KS",
          "types": [
            "administrative_area_level_1",
            "political"
          ]
        },
        {
          "long_name": "United States",
          "short_name": "US",
          "types": [
            "country",
            "political"
          ]
        }
      ],
      "formatted_address": "Kansas, USA",
      "geometry": {
        "bounds": {
          "northeast": {
            "lat": 40.0045419,
            "lng": -94.588387
          },
          "southwest": {
            "lat": 36.9930159,
            "lng": -102.0517688
          }
        },
        "location": {
          "lat": 39.011902,
          "lng": -98.4842465
        },
        "location_type": "APPROXIMATE",
        "viewport": {
          "northeast": {
            "lat": 40.0045419,
            "lng": -94.588387
          },
          "southwest": {
            "lat": 36.9930159,
            "lng": -102.0517688
          }
        }
      },
      "place_id": "ChIJawF8cXEXo4cRXwk-S6m0wmg",
      "types": [
        "administrative_area_level_1",
        "political"
      ]
    },
    {
      "address_components": [
        {
          "long_name": "United States",
          "short_name": "US",
          "types": [
            "country",
            "political"
          ]
        }
      ],
      "formatted_address": "United States",
      "geometry": {
        "bounds": {
          "northeast": {
            "lat": 71.3867745,
            "lng": -66.9502861
          },
          "southwest": {
            "lat": 18.9106768,
            "lng": 172.4458955
          }
        },
        "location": {
          "lat": 37.09024,
          "lng": -95.712891
        },
        "location_type": "APPROXIMATE",
        "viewport": {
          "northeast": {
            "lat": 49.38,
            "lng": -66.94
          },
          "southwest": {
            "lat": 25.82,
            "lng": -124.39
          }
        }
      },
      "place_id": "ChIJCzYy5IS16lQRQrfeQ5K5Oxw",
      "types": [
        "country",
        "political"
      ]
    }
  ],
  "status": "OK"
}
