{
  "results": [
    {
      "address_components": [
        {
          "long_name": "56-64",
          "short_name": "56-64",
          "types": [
            "street_number"
          ]
        },
        {
          "long_name": "Elmer Circle",
          "short_name": "Elmer Cir",
          "types": [
            "route"
          ]
        },
        {
          "long_name": "Truxton",
          "short_name": "Truxton",
          "types": [
            "locality",
            "political"
          ]
        },
        {
          "long_name": "Prairie Township",
          "short_name": "Prairie Township",
          "types": [
            "administrative_area_level_3",
            "political"
          ]
        },
        {
          "long_name": "Lincoln County",
          "short_name": "Lincoln County",
          "types": [
            "administrative_area_level_2",
            "political"
          ]
        },
        {
          "long_name": "Missouri",
          "short_name": "MO",
          "types": [
            "administrative_area_level_1",
            "political"
          ]
        },
        {
          "long_name": "United States",
          "short_name": "US",
          "types": [
            "country",
            "political"
          ]
        },
        {
          "long_name": "63381",
          "short_name": "63381",
          "types": [
            "postal_code"
          ]
        }
      ],
      "formatted_address": "56-64 Elmer Cir, Truxton, MO 63381, USA",
      "geometry": {
        "bounds": {
          "northeast": {
            "lat": 39.0032579,
            "lng": -91.23912829999999
          },
          "southwest": {
            "lat": 39.0021371,
            "lng": -91.2405071
          }
        },
        "location": {
          "lat": 39.0032023,
          "lng": -91.2398712
        },
        "location_type": "RANGE_INTERPOLATED",
        "viewport": {
          "northeast": {
            "lat": 39.00404648029149,
            "lng": -91.2384687197085
          },
          "southwest": {
            "lat": 39.0013485197085,
            "lng": -91.2411666802915
          }
        }
      },
      "place_id": "Eic1Ni02NCBFbG1lciBDaXIsIFRydXh0b24sIE1PIDYzMzgxLCBVU0E",
      "types": [
        "street_address"
      ]
    },
    {
      "address_components": [
        {
          "long_name": "Truxton",
          "short_name": "Truxton",
          "types": [
            "locality",
            "political"
          ]
        },
        {
          "long_name": "Prairie Township",
          "short_name": "Prairie Township",
          "types": [
            "administrative_area_level_3",
            "political"
          ]
        },
        {
          "long_name": "Lincoln County",
          "short_name": "Lincoln County",
          "types": [
            "administrative_area_level_2",
            "political"
          ]
        },
        {
          "long_name": "Missouri",
          "short_name": "MO",
          "types": [
            "administrative_area_level_1",
            "political"
          ]
        },
        {
          "long_name": "United States",
          "short_name": "US",
          "types": [
            "country",
            "political"
          ]
        },
        {
          "long_name": "63381",
          "short_name": "63381",
          "types": [
            "postal_code"
          ]
        }
      ],
      "formatted_address": "Truxton, MO 63381, USA",
      "geometry": {
        "bounds": {
          "northeast": {
            "lat": 39.00695590000001,
            "lng": -91.2354349
          },
          "southwest": {
            "lat": 38.9999508,
            "lng": -91.2452199
          }
        },
        "location": {
          "lat": 39.0019868,
          "lng": -91.2398745
        },
        "location_type": "APPROXIMATE",
        "viewport": {
          "northeast": {
            "lat": 39.00695590000001,
            "lng": -91.2354349
          },
          "southwest": {
            "lat": 38.9999508,
            "lng": -91.2452199
          }
        }
      },
      "place_id": "ChIJRy5Dw0cg3IcRLM9t961-0vA",
      "types": [
        "locality",
        "political"
      ]
    },
    {
      "address_components": [
        {
          "long_name": "Prairie Township",
          "short_name": "Prairie Township",
          "types": [
            "administrative_area_level_3",
            "political"
          ]
        },
        {
          "long_name": "Lincoln County",
          "short_name": "Lincoln County",
          "types": [
            "administrative_area_level_2",
            "political"
          ]
        },
        {
          "long_name": "Missouri",
          "short_name": "MO",
          "types": [
            "administrative_area_level_1",
            "political"
          ]
        },
        {
          "long_name": "United States",
          "short_name": "US",
          "types": [
            "country",
            "political"
          ]
        }
      ],
      "formatted_address": "Prairie Township, MO, USA",
      "geometry": {
        "bounds": {
          "northeast": {
            "lat": 39.072515,
            "lng": -91.168553
          },
          "southwest": {
            "lat": 38.991713,
            "lng": -91.264287
          }
        },
        "location": {
          "lat": 39.0125905,
          "lng": -91.2217459
        },
        "location_type": "APPROXIMATE",
        "viewport": {
          "northeast": {
            "lat": 39.072515,
            "lng": -91.168553
          },
          "southwest": {
            "lat": 38.991713,
            "lng": -91.264287
          }
        }
      },
      "place_id": "ChIJ6S4c6oQg3IcRxSNdU0Pg61c",
      "types": [
        "administrative_area_level_3",
        "political"
      ]
    },
    {
      "address_components": [
        {
          "long_name": "63381",
          "short_name": "63381",
          "types": [
            "postal_code"
          ]
        },
        {
          "long_name": "Truxton",
          "short_name": "Truxton",
          "types": [
            "locality",
            "political"
          ]
        },
        {
          "long_name": "Missouri",
          "short_name": "MO",
          "types": [
            "administrative_area_level_1",
            "political"
          ]
        },
        {
          "long_name": "United States",
          "short_name": "US",
          "types": [
            "country",
            "political"
          ]
        }
      ],
      "formatted_address": "Truxton, MO 63381, USA",
      "geometry": {
        "bounds": {
          "northeast": {
            "lat": 39.040635,
            "lng": -91.195075
          },
          "southwest": {
            "lat": 38.9202259,
            "lng": -91.3396959
          }
        },
        "location": {
          "lat": 39.0020625,
          "lng": -91.2313618
        },
        "location_type": "APPROXIMATE",
        "viewport": {
          "northeast": {
            "lat": 39.040635,
            "lng": -91.195075
          },
          "southwest": {
            "lat": 38.9202259,
            "lng": -91.3396959
          }
        }
      },
      "place_id": "ChIJ_Z1pBuEf3IcRMUy5sPDwGMo",
      "types": [
        "postal_code"
      ]
    },
    {
      "address_components": [
        {
          "long_name": "Lincoln County",
          "short_name": "Lincoln County",
          "types": [
            "administrative_area_level_2",
            "political"
          ]
        },
        {
          "long_name": "Missouri",
          "short_name": "MO",
          "types": [
            "administrative_area_level_1",
            "political"
          ]
        },
        {
          "long_name": "United States",
          "short_name": "US",
          "types": [
            "country",
            "political"
          ]
        }
      ],
      "formatted_address": "Lincoln County, MO, USA",
      "geometry": {
        "bounds": {
          "northeast": {
            "lat": 39.2272649,
            "lng": -90.665565
          },
          "southwest": {
            "lat": 38.87086499999999,
            "lng": -91.264287
          }
        },
        "location": {
          "lat": 39.0669568,
          "lng": -90.9820668
        },
        "location_type": "APPROXIMATE",
        "viewport": {
          "northeast": {
            "lat": 39.2272649,
            "lng": -90.665565
          },
          "southwest": {
            "lat": 38.87086499999999,
            "lng": -91.264287
          }
        }
      },
      "place_id": "ChIJ0zFN5hjA3ocRICgMLP-f8dI",
      "types": [
        "administrative_area_level_2",
        "political"
      ]
    },
    {
      "address_components": [
        {
          "long_name": "St. Louis",
          "short_name": "St. Louis",
          "types": [
            "political"
          ]
        },
        {
          "long_name": "United States",
          "short_name": "US",
          "types": [
            "country",
            "political"
          ]
        }
      ],
      "formatted_address": "St. Louis, USA",
      "geometry": {
        "bounds": {
          "northeast": {
            "lat": 39.5233661,
            "lng": -89.138356
          },
          "southwest": {
            "lat": 37.7341961,
            "lng": -91.4186371
          }
        },
        "location": {
          "lat": 38.8196814,
          "lng": -90.4502368
        },
        "location_type": "APPROXIMATE",
        "viewport": {
          "northeast": {
            "lat": 39.5233661,
            "lng": -89.138356
          },
          "southwest": {
            "lat": 37.7341961,
            "lng": -91.4186371
          }
        }
      },
      "place_id": "ChIJneBzzj4z34cRFGg2ez6q57o",
      "types": [
        "political"
      ]
    },
    {
      "address_components": [
        {
          "long_name": "Missouri",
          "short_name": "MO",
          "types": [
            "administrative_area_level_1",
            "political"
          ]
        },
        {
          "long_name": "United States",
          "short_name": "US",
          "types": [
            "country",
            "political"
          ]
        }
      ],
      "formatted_address": "Missouri, USA",
      "geometry": {
        "bounds": {
          "northeast": {
            "lat": 40.61364,
            "lng": -89.09949399999999
          },
          "southwest": {
            "lat": 35.9956829,
            "lng": -95.774704
          }
        },
        "location": {
          "lat": 37.9642529,
          "lng": -91.8318334
        },
        "location_type": "APPROXIMATE",
        "viewport": {
          "northeast": {
            "lat": 40.61364,
            "lng": -89.09949399999999
          },
          "southwest": {
            "lat": 35.9956829,
            "lng": -95.774704
          }
        }
      },
      "place_id": "ChIJfeMiSNXmwIcRcr1mBFnEW7U",
      "types": [
        "administrative_area_level_1",
        "political"
      ]
    },
    {
      "address_components": [
        {
          "long_name": "United States",
          "short_name": "US",
          "types": [
            "country",
            "political"
          ]
        }
      ],
      "formatted_address": "United States",
      "geometry": {
        "bounds": {
          "northeast": {
            "lat": 71.3867745,
            "lng": -66.9502861
          },
          "southwest": {
            "lat": 18.9106768,
            "lng": 172.4458955
          }
        },
        "location": {
          "lat": 37.09024,
          "lng": -95.712891
        },
        "location_type": "APPROXIMATE",
        "viewport": {
          "northeast": {
            "lat": 49.38,
            "lng": -66.94
          },
          "southwest": {
            "lat": 25.82,
            "lng": -124.39
          }
        }
      },
      "place_id": "ChIJCzYy5IS16lQRQrfeQ5K5Oxw",
      "types": [
        "country",
        "political"
      ]
    }
  ],
  "status": "OK"
}
