{
  "results": [
    {
      "address_components": [
        {
          "long_name": "27",
          "short_name": "27",
          "types": [
            "street_number"
          ]
        },
        {
          "long_name": "Post Avenue",
          "short_name": "Post Ave",
          "types": [
            "route"
          ]
        },
        {
          "long_name": "East Williston",
          "short_name": "East Williston",
          "types": [
            "locality",
            "political"
          ]
        },
        {
          "long_name": "North Hempstead",
          "short_name": "North Hempstead",
          "types": [
            "administrative_area_level_3",
            "political"
          ]
        },
        {
          "long_name": "Nassau County",
          "short_name": "Nassau County",
          "types": [
            "administrative_area_level_2",
            "political"
          ]
        },
        {
          "long_name": "New York",
          "short_name": "NY",
          "types": [
            "administrative_area_level_1",
            "political"
          ]
        },
        {
          "long_name": "United States",
          "short_name": "US",
          "types": [
            "country",
            "political"
          ]
        },
        {
          "long_name": "11596",
          "short_name": "11596",
          "types": [
            "postal_code"
          ]
        },
        {
          "long_name": "2020",
          "short_name": "2020",
          "types": [
            "postal_code_suffix"
          ]
        }
      ],
      "formatted_address": "27 Post Ave, East Williston, NY 11596, USA",
      "geometry": {
        "location": {
          "lat": 40.76067099999999,
          "lng": -73.633374
        },
        "location_type": "ROOFTOP",
        "viewport": {
          "northeast": {
            "lat": 40.7620199802915,
            "lng": -73.63202501970851
          },
          "southwest": {
            "lat": 40.7593220197085,
            "lng": -73.63472298029151
          }
        }
      },
      "place_id": "ChIJia1foeuHwokROZC_0lQsfkg",
      "types": [
        "street_address"
      ]
    },
    {
      "address_components": [
        {
          "long_name": "East Williston",
          "short_name": "East Williston",
          "types": [
            "locality",
            "political"
          ]
        },
        {
          "long_name": "North Hempstead",
          "short_name": "North Hempstead",
          "types": [
            "administrative_area_level_3",
            "political"
          ]
        },
        {
          "long_name": "Nassau County",
          "short_name": "Nassau County",
          "types": [
            "administrative_area_level_2",
            "political"
          ]
        },
        {
          "long_name": "New York",
          "short_name": "NY",
          "types": [
            "administrative_area_level_1",
            "political"
          ]
        },
        {
          "long_name": "United States",
          "short_name": "US",
          "types": [
            "country",
            "political"
          ]
        }
      ],
      "formatted_address": "East Williston, NY, USA",
      "geometry": {
        "bounds": {
          "northeast": {
            "lat": 40.7674109,
            "lng": -73.625338
          },
          "southwest": {
            "lat": 40.753366,
            "lng": -73.640759
          }
        },
        "location": {
          "lat": 40.7584343,
          "lng": -73.63485090000002
        },
        "location_type": "APPROXIMATE",
        "viewport": {
          "northeast": {
            "lat": 40.7674109,
            "lng": -73.625338
          },
          "southwest": {
            "lat": 40.753366,
            "lng": -73.640759
          }
        }
      },
      "place_id": "ChIJtZ8SQuWHwokRcgxurCyUTrE",
      "types": [
        "locality",
        "political"
      ]
    },
    {
      "address_components": [
        {
          "long_name": "11596",
          "short_name": "11596",
          "types": [
            "postal_code"
          ]
        },
        {
          "long_name": "Williston Park",
          "short_name": "Williston Park",
          "types": [
            "locality",
            "political"
          ]
        },
        {
          "long_name": "North Hempstead",
          "short_name": "North Hempstead",
          "types": [
            "administrative_area_level_3",
            "political"
          ]
        },
        {
          "long_name": "Nassau County",
          "short_name": "Nassau County",
          "types": [
            "administrative_area_level_2",
            "political"
          ]
        },
        {
          "long_name": "New York",
          "short_name": "NY",
          "types": [
            "administrative_area_level_1",
            "political"
          ]
        },
        {
          "long_name": "United States",
          "short_name": "US",
          "types": [
            "country",
            "political"
          ]
        }
      ],
      "formatted_address": "Williston Park, NY 11596, USA",
      "geometry": {
        "bounds": {
          "northeast": {
            "lat": 40.7674109,
            "lng": -73.625338
          },
          "southwest": {
            "lat": 40.751875,
            "lng": -73.66056689999999
          }
        },
        "location": {
          "lat": 40.7583894,
          "lng": -73.6447908
        },
        "location_type": "APPROXIMATE",
        "viewport": {
          "northeast": {
            "lat": 40.7674109,
            "lng": -73.625338
          },
          "southwest": {
            "lat": 40.751875,
            "lng": -73.66056689999999
          }
        }
      },
      "place_id": "ChIJtZ8SQuWHwokRTqTmDALyaTg",
      "postcode_localities": [
        "East Williston",
        "Williston Park"
      ],
      "types": [
        "postal_code"
      ]
    },
    {
      "address_components": [
        {
          "long_name": "North Hempstead",
          "short_name": "North Hempstead",
          "types": [
            "administrative_area_level_3",
            "political"
          ]
        },
        {
          "long_name": "Nassau County",
          "short_name": "Nassau County",
          "types": [
            "administrative_area_level_2",
            "political"
          ]
        },
        {
          "long_name": "New York",
          "short_name": "NY",
          "types": [
            "administrative_area_level_1",
            "political"
          ]
        },
        {
          "long_name": "United States",
          "short_name": "US",
          "types": [
            "country",
            "political"
          ]
        }
      ],
      "formatted_address": "North Hempstead, NY, USA",
      "geometry": {
        "bounds": {
          "northeast": {
            "lat": 40.8702434,
            "lng": -73.549553
          },
          "southwest": {
            "lat": 40.72783099999999,
            "lng": -73.7650574
          }
        },
        "location": {
          "lat": 40.8099413,
          "lng": -73.6771662
        },
        "location_type": "APPROXIMATE",
        "viewport": {
          "northeast": {
            "lat": 40.8702434,
            "lng": -73.549553
          },
          "southwest": {
            "lat": 40.72783099999999,
            "lng": -73.7650574
          }
        }
      },
      "place_id": "ChIJDRQO56WGwokR5LZK05ql6qs",
      "types": [
        "administrative_area_level_3",
        "political"
      ]
    },
    {
      "address_components": [
        {
          "long_name": "Nassau County",
          "short_name": "Nassau County",
          "types": [
            "administrative_area_level_2",
            "political"
          ]
        },
        {
          "long_name": "New York",
          "short_name": "NY",
          "types": [
            "administrative_area_level_1",
            "political"
          ]
        },
        {
          "long_name": "United States",
          "short_name": "US",
          "types": [
            "country",
            "political"
          ]
        }
      ],
      "formatted_address": "Nassau County, NY, USA",
      "geometry": {
        "bounds": {
          "northeast": {
            "lat": 40.9478348,
            "lng": -73.4232586
          },
          "southwest": {
            "lat": 40.5730904,
            "lng": -73.7667408
          }
        },
        "location": {
          "lat": 40.6546145,
          "lng": -73.55941279999999
        },
        "location_type": "APPROXIMATE",
        "viewport": {
          "northeast": {
            "lat": 40.9478286,
            "lng": -73.4232586
          },
          "southwest": {
            "lat": 40.5730904,
            "lng": -73.7667408
          }
        }
      },
      "place_id": "ChIJoQxey52xwokRap4G05mKJBs",
      "types": [
        "administrative_area_level_2",
        "political"
      ]
    },
    {
      "address_components": [
        {
          "long_name": "New York",
          "short_name": "NY",
          "types": [
            "administrative_area_level_1",
            "political"
          ]
        },
        {
          "long_name": "United States",
          "short_name": "US",
          "types": [
            "country",
            "political"
          ]
        }
      ],
      "formatted_address": "New York, USA",
      "geometry": {
        "bounds": {
          "northeast": {
            "lat": 45.015865,
            "lng": -71.85620639999999
          },
          "southwest": {
            "lat": 40.496091,
            "lng": -79.76214379999999
          }
        },
        "location": {
          "lat": 43.2994285,
          "lng": -74.21793260000001
        },
        "location_type": "APPROXIMATE",
        "viewport": {
          "northeast": {
            "lat": 45.015859,
            "lng": -71.85620639999999
          },
          "southwest": {
            "lat": 40.496091,
            "lng": -79.76214379999999
          }
        }
      },
      "place_id": "ChIJqaUj8fBLzEwRZ5UY3sHGz90",
      "types": [
        "administrative_area_level_1",
        "political"
      ]
    },
    {
      "address_components": [
        {
          "long_name": "United States",
          "short_name": "US",
          "types": [
            "country",
            "political"
          ]
        }
      ],
      "formatted_address": "United States",
      "geometry": {
        "bounds": {
          "northeast": {
            "lat": 71.3867745,
            "lng": -66.9502861
          },
          "southwest": {
            "lat": 18.9106768,
            "lng": 172.4458955
          }
        },
        "location": {
          "lat": 37.09024,
          "lng": -95.712891
        },
        "location_type": "APPROXIMATE",
        "viewport": {
          "northeast": {
            "lat": 49.38,
            "lng": -66.94
          },
          "southwest": {
            "lat": 25.82,
            "lng": -124.39
          }
        }
      },
      "place_id": "ChIJCzYy5IS16lQRQrfeQ5K5Oxw",
      "types": [
        "country",
        "political"
      ]
    }
  ],
  "status": "OK"
}
