{
  "results": [
    {
      "address_components": [
        {
          "long_name": "Kansas Avenue",
          "short_name": "Kansas Ave",
          "types": [
            "route"
          ]
        },
        {
          "long_name": "Bosworth",
          "short_name": "Bosworth",
          "types": [
            "locality",
            "political"
          ]
        },
        {
          "long_name": "Ridge Township",
          "short_name": "Ridge Township",
          "types": [
            "administrative_area_level_3",
            "political"
          ]
        },
        {
          "long_name": "Carroll County",
          "short_name": "Carroll County",
          "types": [
            "administrative_area_level_2",
            "political"
          ]
        },
        {
          "long_name": "Missouri",
          "short_name": "MO",
          "types": [
            "administrative_area_level_1",
            "political"
          ]
        },
        {
          "long_name": "United States",
          "short_name": "US",
          "types": [
            "country",
            "political"
          ]
        },
        {
          "long_name": "64623",
          "short_name": "64623",
          "types": [
            "postal_code"
          ]
        }
      ],
      "formatted_address": "Kansas Ave, Bosworth, MO 64623, USA",
      "geometry": {
        "bounds": {
          "northeast": {
            "lat": 39.470494,
            "lng": -93.3348244
          },
          "southwest": {
            "lat": 39.4697426,
            "lng": -93.3357463
          }
        },
        "location": {
          "lat": 39.4701183,
          "lng": -93.3352853
        },
        "location_type": "GEOMETRIC_CENTER",
        "viewport": {
          "northeast": {
            "lat": 39.47146728029149,
            "lng": -93.3339363697085
          },
          "southwest": {
            "lat": 39.4687693197085,
            "lng": -93.3366343302915
          }
        }
      },
      "place_id": "ChIJPb3XYNdFwocRz-jxMnjPbNQ",
      "types": [
        "route"
      ]
    },
    {
      "address_components": [
        {
          "long_name": "Bosworth",
          "short_name": "Bosworth",
          "types": [
            "locality",
            "political"
          ]
        },
        {
          "long_name": "Ridge Township",
          "short_name": "Ridge Township",
          "types": [
            "administrative_area_level_3",
            "political"
          ]
        },
        {
          "long_name": "Carroll County",
          "short_name": "Carroll County",
          "types": [
            "administrative_area_level_2",
            "political"
          ]
        },
        {
          "long_name": "Missouri",
          "short_name": "MO",
          "types": [
            "administrative_area_level_1",
            "political"
          ]
        },
        {
          "long_name": "United States",
          "short_name": "US",
          "types": [
            "country",
            "political"
          ]
        },
        {
          "long_name": "64623",
          "short_name": "64623",
          "types": [
            "postal_code"
          ]
        }
      ],
      "formatted_address": "Bosworth, MO 64623, USA",
      "geometry": {
        "bounds": {
          "northeast": {
            "lat": 39.478733,
            "lng": -93.3270119
          },
          "southwest": {
            "lat": 39.4642921,
            "lng": -93.347055
          }
        },
        "location": {
          "lat": 39.469745,
          "lng": -93.3346524
        },
        "location_type": "APPROXIMATE",
        "viewport": {
          "northeast": {
            "lat": 39.478733,
            "lng": -93.3270119
          },
          "southwest": {
            "lat": 39.4642921,
            "lng": -93.347055
          }
        }
      },
      "place_id": "ChIJg9mbKNRFwocRDsn5Zl_nNbg",
      "types": [
        "locality",
        "political"
      ]
    },
    {
      "address_components": [
        {
          "long_name": "Ridge Township",
          "short_name": "Ridge Township",
          "types": [
            "administrative_area_level_3",
            "political"
          ]
        },
        {
          "long_name": "Carroll County",
          "short_name": "Carroll County",
          "types": [
            "administrative_area_level_2",
            "political"
          ]
        },
        {
          "long_name": "Missouri",
          "short_name": "MO",
          "types": [
            "administrative_area_level_1",
            "political"
          ]
        },
        {
          "long_name": "United States",
          "short_name": "US",
          "types": [
            "country",
            "political"
          ]
        }
      ],
      "formatted_address": "Ridge Township, MO, USA",
      "geometry": {
        "bounds": {
          "northeast": {
            "lat": 39.529348,
            "lng": -93.309316
          },
          "southwest": {
            "lat": 39.4424579,
            "lng": -93.42172099999999
          }
        },
        "location": {
          "lat": 39.5001454,
          "lng": -93.35904459999999
        },
        "location_type": "APPROXIMATE",
        "viewport": {
          "northeast": {
            "lat": 39.529348,
            "lng": -93.309316
          },
          "southwest": {
            "lat": 39.4424579,
            "lng": -93.42172099999999
          }
        }
      },
      "place_id": "ChIJkyefE_FGwocR50wJ4EgOzzo",
      "types": [
        "administrative_area_level_3",
        "political"
      ]
    },
    {
      "address_components": [
        {
          "long_name": "64623",
          "short_name": "64623",
          "types": [
            "postal_code"
          ]
        },
        {
          "long_name": "Bosworth",
          "short_name": "Bosworth",
          "types": [
            "locality",
            "political"
          ]
        },
        {
          "long_name": "Missouri",
          "short_name": "MO",
          "types": [
            "administrative_area_level_1",
            "political"
          ]
        },
        {
          "long_name": "United States",
          "short_name": "US",
          "types": [
            "country",
            "political"
          ]
        }
      ],
      "formatted_address": "Bosworth, MO 64623, USA",
      "geometry": {
        "bounds": {
          "northeast": {
            "lat": 39.5478189,
            "lng": -93.21954579999999
          },
          "southwest": {
            "lat": 39.3878549,
            "lng": -93.4349
          }
        },
        "location": {
          "lat": 39.459941,
          "lng": -93.318747
        },
        "location_type": "APPROXIMATE",
        "viewport": {
          "northeast": {
            "lat": 39.5478189,
            "lng": -93.21954579999999
          },
          "southwest": {
            "lat": 39.3878549,
            "lng": -93.4349
          }
        }
      },
      "place_id": "ChIJzYfqpnlGwocRPRL9owqjAFk",
      "types": [
        "postal_code"
      ]
    },
    {
      "address_components": [
        {
          "long_name": "Carroll County",
          "short_name": "Carroll County",
          "types": [
            "administrative_area_level_2",
            "political"
          ]
        },
        {
          "long_name": "Missouri",
          "short_name": "MO",
          "types": [
            "administrative_area_level_1",
            "political"
          ]
        },
        {
          "long_name": "United States",
          "short_name": "US",
          "types": [
            "country",
            "political"
          ]
        }
      ],
      "formatted_address": "Carroll County, MO, USA",
      "geometry": {
        "bounds": {
          "northeast": {
            "lat": 39.615662,
            "lng": -93.104485
          },
          "southwest": {
            "lat": 39.2062619,
            "lng": -93.7592899
          }
        },
        "location": {
          "lat": 39.5166572,
          "lng": -93.5003454
        },
        "location_type": "APPROXIMATE",
        "viewport": {
          "northeast": {
            "lat": 39.615662,
            "lng": -93.104485
          },
          "southwest": {
            "lat": 39.2062619,
            "lng": -93.7592899
          }
        }
      },
      "place_id": "ChIJucowtQAxwocRHg7aV9Ql6zI",
      "types": [
        "administrative_area_level_2",
        "political"
      ]
    },
    {
      "address_components": [
        {
          "long_name": "Missouri",
          "short_name": "MO",
          "types": [
            "administrative_area_level_1",
            "political"
          ]
        },
        {
          "long_name": "United States",
          "short_name": "US",
          "types": [
            "country",
            "political"
          ]
        }
      ],
      "formatted_address": "Missouri, USA",
      "geometry": {
        "bounds": {
          "northeast": {
            "lat": 40.61364,
            "lng": -89.09949399999999
          },
          "southwest": {
            "lat": 35.9956829,
            "lng": -95.774704
          }
        },
        "location": {
          "lat": 37.9642529,
          "lng": -91.8318334
        },
        "location_type": "APPROXIMATE",
        "viewport": {
          "northeast": {
            "lat": 40.61364,
            "lng": -89.09949399999999
          },
          "southwest": {
            "lat": 35.9956829,
            "lng": -95.774704
          }
        }
      },
      "place_id": "ChIJfeMiSNXmwIcRcr1mBFnEW7U",
      "types": [
        "administrative_area_level_1",
        "political"
      ]
    },
    {
      "address_components": [
        {
          "long_name": "United States",
          "short_name": "US",
          "types": [
            "country",
            "political"
          ]
        }
      ],
      "formatted_address": "United States",
      "geometry": {
        "bounds": {
          "northeast": {
            "lat": 71.3867745,
            "lng": -66.9502861
          },
          "southwest": {
            "lat": 18.9106768,
            "lng": 172.4458955
          }
        },
        "location": {
          "lat": 37.09024,
          "lng": -95.712891
        },
        "location_type": "APPROXIMATE",
        "viewport": {
          "northeast": {
            "lat": 49.38,
            "lng": -66.94
          },
          "southwest": {
            "lat": 25.82,
            "lng": -124.39
          }
        }
      },
      "place_id": "ChIJCzYy5IS16lQRQrfeQ5K5Oxw",
      "types": [
        "country",
        "political"
      ]
    }
  ],
  "status": "OK"
}
