{
  "results": [
    {
      "address_components": [
        {
          "long_name": "507",
          "short_name": "507",
          "types": [
            "street_number"
          ]
        },
        {
          "long_name": "West Liberty Street",
          "short_name": "W Liberty St",
          "types": [
            "route"
          ]
        },
        {
          "long_name": "Farmington",
          "short_name": "Farmington",
          "types": [
            "locality",
            "political"
          ]
        },
        {
          "long_name": "St. Francois Township",
          "short_name": "St Francois Township",
          "types": [
            "administrative_area_level_3",
            "political"
          ]
        },
        {
          "long_name": "St. Francois County",
          "short_name": "St Francois County",
          "types": [
            "administrative_area_level_2",
            "political"
          ]
        },
        {
          "long_name": "Missouri",
          "short_name": "MO",
          "types": [
            "administrative_area_level_1",
            "political"
          ]
        },
        {
          "long_name": "United States",
          "short_name": "US",
          "types": [
            "country",
            "political"
          ]
        },
        {
          "long_name": "63640",
          "short_name": "63640",
          "types": [
            "postal_code"
          ]
        },
        {
          "long_name": "1909",
          "short_name": "1909",
          "types": [
            "postal_code_suffix"
          ]
        }
      ],
      "formatted_address": "507 W Liberty St, Farmington, MO 63640, USA",
      "geometry": {
        "location": {
          "lat": 37.782035,
          "lng": -90.42846829999999
        },
        "location_type": "ROOFTOP",
        "viewport": {
          "northeast": {
            "lat": 37.7833839802915,
            "lng": -90.42711931970848
          },
          "southwest": {
            "lat": 37.7806860197085,
            "lng": -90.4298172802915
          }
        }
      },
      "place_id": "ChIJ_-a8ehRF2IcRj_tdZZifJ0Y",
      "types": [
        "street_address"
      ]
    },
    {
      "address_components": [
        {
          "long_name": "Farmington",
          "short_name": "Farmington",
          "types": [
            "locality",
            "political"
          ]
        },
        {
          "long_name": "St. Francois Township",
          "short_name": "St Francois Township",
          "types": [
            "administrative_area_level_3",
            "political"
          ]
        },
        {
          "long_name": "St. Francois County",
          "short_name": "St Francois County",
          "types": [
            "administrative_area_level_2",
            "political"
          ]
        },
        {
          "long_name": "Missouri",
          "short_name": "MO",
          "types": [
            "administrative_area_level_1",
            "political"
          ]
        },
        {
          "long_name": "United States",
          "short_name": "US",
          "types": [
            "country",
            "political"
          ]
        },
        {
          "long_name": "63640",
          "short_name": "63640",
          "types": [
            "postal_code"
          ]
        }
      ],
      "formatted_address": "Farmington, MO 63640, USA",
      "geometry": {
        "bounds": {
          "northeast": {
            "lat": 37.8239741,
            "lng": -90.3895369
          },
          "southwest": {
            "lat": 37.7468,
            "lng": -90.4611061
          }
        },
        "location": {
          "lat": 37.7808846,
          "lng": -90.4217895
        },
        "location_type": "APPROXIMATE",
        "viewport": {
          "northeast": {
            "lat": 37.8239741,
            "lng": -90.3895369
          },
          "southwest": {
            "lat": 37.7468,
            "lng": -90.4611061
          }
        }
      },
      "place_id": "ChIJRUPUf5tD2IcRy6LrAGC1P3s",
      "types": [
        "locality",
        "political"
      ]
    },
    {
      "address_components": [
        {
          "long_name": "St. Francois Township",
          "short_name": "St Francois Township",
          "types": [
            "administrative_area_level_3",
            "political"
          ]
        },
        {
          "long_name": "St. Francois County",
          "short_name": "St Francois County",
          "types": [
            "administrative_area_level_2",
            "political"
          ]
        },
        {
          "long_name": "Missouri",
          "short_name": "MO",
          "types": [
            "administrative_area_level_1",
            "political"
          ]
        },
        {
          "long_name": "United States",
          "short_name": "US",
          "types": [
            "country",
            "political"
          ]
        }
      ],
      "formatted_address": "St Francois Township, MO, USA",
      "geometry": {
        "bounds": {
          "northeast": {
            "lat": 37.8668509,
            "lng": -90.3379349
          },
          "southwest": {
            "lat": 37.7150471,
            "lng": -90.5334989
          }
        },
        "location": {
          "lat": 37.7867424,
          "lng": -90.4313729
        },
        "location_type": "APPROXIMATE",
        "viewport": {
          "northeast": {
            "lat": 37.8668509,
            "lng": -90.3379349
          },
          "southwest": {
            "lat": 37.7150471,
            "lng": -90.5334989
          }
        }
      },
      "place_id": "ChIJ4_vouVxF2IcRctfJPVUAWXo",
      "types": [
        "administrative_area_level_3",
        "political"
      ]
    },
    {
      "address_components": [
        {
          "long_name": "63640",
          "short_name": "63640",
          "types": [
            "postal_code"
          ]
        },
        {
          "long_name": "Farmington",
          "short_name": "Farmington",
          "types": [
            "locality",
            "political"
          ]
        },
        {
          "long_name": "Missouri",
          "short_name": "MO",
          "types": [
            "administrative_area_level_1",
            "political"
          ]
        },
        {
          "long_name": "United States",
          "short_name": "US",
          "types": [
            "country",
            "political"
          ]
        }
      ],
      "formatted_address": "Farmington, MO 63640, USA",
      "geometry": {
        "bounds": {
          "northeast": {
            "lat": 37.9293081,
            "lng": -90.191637
          },
          "southwest": {
            "lat": 37.6318611,
            "lng": -90.534764
          }
        },
        "location": {
          "lat": 37.7655626,
          "lng": -90.4125181
        },
        "location_type": "APPROXIMATE",
        "viewport": {
          "northeast": {
            "lat": 37.9293081,
            "lng": -90.191637
          },
          "southwest": {
            "lat": 37.6318611,
            "lng": -90.534764
          }
        }
      },
      "place_id": "ChIJRUPUf5tD2IcRy24gLT5Dt9M",
      "types": [
        "postal_code"
      ]
    },
    {
      "address_components": [
        {
          "long_name": "St. Francois County",
          "short_name": "St Francois County",
          "types": [
            "administrative_area_level_2",
            "political"
          ]
        },
        {
          "long_name": "Missouri",
          "short_name": "MO",
          "types": [
            "administrative_area_level_1",
            "political"
          ]
        },
        {
          "long_name": "United States",
          "short_name": "US",
          "types": [
            "country",
            "political"
          ]
        }
      ],
      "formatted_address": "St Francois County, MO, USA",
      "geometry": {
        "bounds": {
          "northeast": {
            "lat": 38.076491,
            "lng": -90.11053679999999
          },
          "southwest": {
            "lat": 37.6410391,
            "lng": -90.647874
          }
        },
        "location": {
          "lat": 37.7652755,
          "lng": -90.4879916
        },
        "location_type": "APPROXIMATE",
        "viewport": {
          "northeast": {
            "lat": 38.076491,
            "lng": -90.11053679999999
          },
          "southwest": {
            "lat": 37.6410391,
            "lng": -90.647874
          }
        }
      },
      "place_id": "ChIJnzj9Zdvw2IcRH1imZdP37PE",
      "types": [
        "administrative_area_level_2",
        "political"
      ]
    },
    {
      "address_components": [
        {
          "long_name": "Farmington",
          "short_name": "Farmington",
          "types": [
            "political"
          ]
        },
        {
          "long_name": "Missouri",
          "short_name": "MO",
          "types": [
            "administrative_area_level_1",
            "political"
          ]
        },
        {
          "long_name": "United States",
          "short_name": "US",
          "types": [
            "country",
            "political"
          ]
        }
      ],
      "formatted_address": "Farmington, MO, USA",
      "geometry": {
        "bounds": {
          "northeast": {
            "lat": 38.076491,
            "lng": -90.110537
          },
          "southwest": {
            "lat": 37.641137,
            "lng": -90.647874
          }
        },
        "location": {
          "lat": 37.7652755,
          "lng": -90.4879916
        },
        "location_type": "APPROXIMATE",
        "viewport": {
          "northeast": {
            "lat": 38.076491,
            "lng": -90.110537
          },
          "southwest": {
            "lat": 37.641137,
            "lng": -90.647874
          }
        }
      },
      "place_id": "ChIJF2da3iBQ2IcROBY32gJ-89k",
      "types": [
        "political"
      ]
    },
    {
      "address_components": [
        {
          "long_name": "Missouri",
          "short_name": "MO",
          "types": [
            "administrative_area_level_1",
            "political"
          ]
        },
        {
          "long_name": "United States",
          "short_name": "US",
          "types": [
            "country",
            "political"
          ]
        }
      ],
      "formatted_address": "Missouri, USA",
      "geometry": {
        "bounds": {
          "northeast": {
            "lat": 40.61364,
            "lng": -89.09949399999999
          },
          "southwest": {
            "lat": 35.9956829,
            "lng": -95.774704
          }
        },
        "location": {
          "lat": 37.9642529,
          "lng": -91.8318334
        },
        "location_type": "APPROXIMATE",
        "viewport": {
          "northeast": {
            "lat": 40.61364,
            "lng": -89.09949399999999
          },
          "southwest": {
            "lat": 35.9956829,
            "lng": -95.774704
          }
        }
      },
      "place_id": "ChIJfeMiSNXmwIcRcr1mBFnEW7U",
      "types": [
        "administrative_area_level_1",
        "political"
      ]
    },
    {
      "address_components": [
        {
          "long_name": "United States",
          "short_name": "US",
          "types": [
            "country",
            "political"
          ]
        }
      ],
      "formatted_address": "United States",
      "geometry": {
        "bounds": {
          "northeast": {
            "lat": 71.3867745,
            "lng": -66.9502861
          },
          "southwest": {
            "lat": 18.9106768,
            "lng": 172.4458955
          }
        },
        "location": {
          "lat": 37.09024,
          "lng": -95.712891
        },
        "location_type": "APPROXIMATE",
        "viewport": {
          "northeast": {
            "lat": 49.38,
            "lng": -66.94
          },
          "southwest": {
            "lat": 25.82,
            "lng": -124.39
          }
        }
      },
      "place_id": "ChIJCzYy5IS16lQRQrfeQ5K5Oxw",
      "types": [
        "country",
        "political"
      ]
    }
  ],
  "status": "OK"
}
