{
  "results": [
    {
      "address_components": [
        {
          "long_name": "777-899",
          "short_name": "777-899",
          "types": [
            "street_number"
          ]
        },
        {
          "long_name": "1st Street",
          "short_name": "1st St",
          "types": [
            "route"
          ]
        },
        {
          "long_name": "Chappell",
          "short_name": "Chappell",
          "types": [
            "locality",
            "political"
          ]
        },
        {
          "long_name": "Swan",
          "short_name": "Swan",
          "types": [
            "administrative_area_level_3",
            "political"
          ]
        },
        {
          "long_name": "Deuel County",
          "short_name": "Deuel County",
          "types": [
            "administrative_area_level_2",
            "political"
          ]
        },
        {
          "long_name": "Nebraska",
          "short_name": "NE",
          "types": [
            "administrative_area_level_1",
            "political"
          ]
        },
        {
          "long_name": "United States",
          "short_name": "US",
          "types": [
            "country",
            "political"
          ]
        },
        {
          "long_name": "69129",
          "short_name": "69129",
          "types": [
            "postal_code"
          ]
        },
        {
          "long_name": "6922",
          "short_name": "6922",
          "types": [
            "postal_code_suffix"
          ]
        }
      ],
      "formatted_address": "777-899 1st St, Chappell, NE 69129, USA",
      "geometry": {
        "bounds": {
          "northeast": {
            "lat": 41.0915733,
            "lng": -102.4694921
          },
          "southwest": {
            "lat": 41.0915514,
            "lng": -102.4712835
          }
        },
        "location": {
          "lat": 41.0915522,
          "lng": -102.4699438
        },
        "location_type": "RANGE_INTERPOLATED",
        "viewport": {
          "northeast": {
            "lat": 41.0929113302915,
            "lng": -102.4690388197085
          },
          "southwest": {
            "lat": 41.0902133697085,
            "lng": -102.4717367802915
          }
        }
      },
      "place_id": "Eic3NzctODk5IDFzdCBTdCwgQ2hhcHBlbGwsIE5FIDY5MTI5LCBVU0E",
      "types": [
        "street_address"
      ]
    },
    {
      "address_components": [
        {
          "long_name": "Chappell",
          "short_name": "Chappell",
          "types": [
            "locality",
            "political"
          ]
        },
        {
          "long_name": "Deuel County",
          "short_name": "Deuel County",
          "types": [
            "administrative_area_level_2",
            "political"
          ]
        },
        {
          "long_name": "Nebraska",
          "short_name": "NE",
          "types": [
            "administrative_area_level_1",
            "political"
          ]
        },
        {
          "long_name": "United States",
          "short_name": "US",
          "types": [
            "country",
            "political"
          ]
        },
        {
          "long_name": "69129",
          "short_name": "69129",
          "types": [
            "postal_code"
          ]
        }
      ],
      "formatted_address": "Chappell, NE 69129, USA",
      "geometry": {
        "bounds": {
          "northeast": {
            "lat": 41.098941,
            "lng": -102.458357
          },
          "southwest": {
            "lat": 41.088629,
            "lng": -102.47949
          }
        },
        "location": {
          "lat": 41.0936515,
          "lng": -102.4666996
        },
        "location_type": "APPROXIMATE",
        "viewport": {
          "northeast": {
            "lat": 41.098941,
            "lng": -102.458357
          },
          "southwest": {
            "lat": 41.088629,
            "lng": -102.47949
          }
        }
      },
      "place_id": "ChIJWZPp0DkYcYcRzeDOmYjxVlw",
      "types": [
        "locality",
        "political"
      ]
    },
    {
      "address_components": [
        {
          "long_name": "Swan",
          "short_name": "Swan",
          "types": [
            "administrative_area_level_3",
            "political"
          ]
        },
        {
          "long_name": "Deuel County",
          "short_name": "Deuel County",
          "types": [
            "administrative_area_level_2",
            "political"
          ]
        },
        {
          "long_name": "Nebraska",
          "short_name": "NE",
          "types": [
            "administrative_area_level_1",
            "political"
          ]
        },
        {
          "long_name": "United States",
          "short_name": "US",
          "types": [
            "country",
            "political"
          ]
        }
      ],
      "formatted_address": "Swan, NE, USA",
      "geometry": {
        "bounds": {
          "northeast": {
            "lat": 41.2219619,
            "lng": -102.2270419
          },
          "southwest": {
            "lat": 41.0021889,
            "lng": -102.621033
          }
        },
        "location": {
          "lat": 41.0508549,
          "lng": -102.3922135
        },
        "location_type": "APPROXIMATE",
        "viewport": {
          "northeast": {
            "lat": 41.2219619,
            "lng": -102.2270419
          },
          "southwest": {
            "lat": 41.0021889,
            "lng": -102.621033
          }
        }
      },
      "place_id": "ChIJ_-ftC7sicYcRvFrxqvmL9qo",
      "types": [
        "administrative_area_level_3",
        "political"
      ]
    },
    {
      "address_components": [
        {
          "long_name": "69129",
          "short_name": "69129",
          "types": [
            "postal_code"
          ]
        },
        {
          "long_name": "Chappell",
          "short_name": "Chappell",
          "types": [
            "locality",
            "political"
          ]
        },
        {
          "long_name": "Nebraska",
          "short_name": "NE",
          "types": [
            "administrative_area_level_1",
            "political"
          ]
        },
        {
          "long_name": "United States",
          "short_name": "US",
          "types": [
            "country",
            "political"
          ]
        }
      ],
      "formatted_address": "Chappell, NE 69129, USA",
      "geometry": {
        "bounds": {
          "northeast": {
            "lat": 41.29405089999999,
            "lng": -102.170423
          },
          "southwest": {
            "lat": 41.0021889,
            "lng": -102.621033
          }
        },
        "location": {
          "lat": 41.1302382,
          "lng": -102.3922135
        },
        "location_type": "APPROXIMATE",
        "viewport": {
          "northeast": {
            "lat": 41.29405089999999,
            "lng": -102.170423
          },
          "southwest": {
            "lat": 41.0021889,
            "lng": -102.621033
          }
        }
      },
      "place_id": "ChIJ34yE3uEicYcRvrAuH0FrxmQ",
      "types": [
        "postal_code"
      ]
    },
    {
      "address_components": [
        {
          "long_name": "Deuel County",
          "short_name": "Deuel County",
          "types": [
            "administrative_area_level_2",
            "political"
          ]
        },
        {
          "long_name": "Nebraska",
          "short_name": "NE",
          "types": [
            "administrative_area_level_1",
            "political"
          ]
        },
        {
          "long_name": "United States",
          "short_name": "US",
          "types": [
            "country",
            "political"
          ]
        }
      ],
      "formatted_address": "Deuel County, NE, USA",
      "geometry": {
        "bounds": {
          "northeast": {
            "lat": 41.2220761,
            "lng": -102.0517171
          },
          "southwest": {
            "lat": 41.0021889,
            "lng": -102.621033
          }
        },
        "location": {
          "lat": 41.1401755,
          "lng": -102.3005803
        },
        "location_type": "APPROXIMATE",
        "viewport": {
          "northeast": {
            "lat": 41.2220761,
            "lng": -102.0517171
          },
          "southwest": {
            "lat": 41.0021889,
            "lng": -102.621033
          }
        }
      },
      "place_id": "ChIJQ86jOYElcYcRiU2nPU7430c",
      "types": [
        "administrative_area_level_2",
        "political"
      ]
    },
    {
      "address_components": [
        {
          "long_name": "Nebraska",
          "short_name": "NE",
          "types": [
            "administrative_area_level_1",
            "political"
          ]
        },
        {
          "long_name": "United States",
          "short_name": "US",
          "types": [
            "country",
            "political"
          ]
        }
      ],
      "formatted_address": "Nebraska, USA",
      "geometry": {
        "bounds": {
          "northeast": {
            "lat": 43.00170689999999,
            "lng": -95.30829000000001
          },
          "southwest": {
            "lat": 39.999932,
            "lng": -104.053514
          }
        },
        "location": {
          "lat": 41.4925374,
          "lng": -99.9018131
        },
        "location_type": "APPROXIMATE",
        "viewport": {
          "northeast": {
            "lat": 43.00170689999999,
            "lng": -95.30829000000001
          },
          "southwest": {
            "lat": 39.999932,
            "lng": -104.053514
          }
        }
      },
      "place_id": "ChIJ7fwMtciNk4cRxArzDwyQJ6E",
      "types": [
        "administrative_area_level_1",
        "political"
      ]
    },
    {
      "address_components": [
        {
          "long_name": "United States",
          "short_name": "US",
          "types": [
            "country",
            "political"
          ]
        }
      ],
      "formatted_address": "United States",
      "geometry": {
        "bounds": {
          "northeast": {
            "lat": 71.3867745,
            "lng": -66.9502861
          },
          "southwest": {
            "lat": 18.9106768,
            "lng": 172.4458955
          }
        },
        "location": {
          "lat": 37.09024,
          "lng": -95.712891
        },
        "location_type": "APPROXIMATE",
        "viewport": {
          "northeast": {
            "lat": 49.38,
            "lng": -66.94
          },
          "southwest": {
            "lat": 25.82,
            "lng": -124.39
          }
        }
      },
      "place_id": "ChIJCzYy5IS16lQRQrfeQ5K5Oxw",
      "types": [
        "country",
        "political"
      ]
    }
  ],
  "status": "OK"
}
