{
  "results": [
    {
      "address_components": [
        {
          "long_name": "234",
          "short_name": "234",
          "types": [
            "street_number"
          ]
        },
        {
          "long_name": "Main Street",
          "short_name": "Main St",
          "types": [
            "route"
          ]
        },
        {
          "long_name": "Wilmington",
          "short_name": "Wilmington",
          "types": [
            "locality",
            "political"
          ]
        },
        {
          "long_name": "Liberty Township",
          "short_name": "Liberty Township",
          "types": [
            "administrative_area_level_3",
            "political"
          ]
        },
        {
          "long_name": "Clinton County",
          "short_name": "Clinton County",
          "types": [
            "administrative_area_level_2",
            "political"
          ]
        },
        {
          "long_name": "Ohio",
          "short_name": "OH",
          "types": [
            "administrative_area_level_1",
            "political"
          ]
        },
        {
          "long_name": "United States",
          "short_name": "US",
          "types": [
            "country",
            "political"
          ]
        },
        {
          "long_name": "45177",
          "short_name": "45177",
          "types": [
            "postal_code"
          ]
        }
      ],
      "formatted_address": "234 Main St, Wilmington, OH 45177, USA",
      "geometry": {
        "location": {
          "lat": 39.5523805,
          "lng": -83.7853147
        },
        "location_type": "ROOFTOP",
        "viewport": {
          "northeast": {
            "lat": 39.5537294802915,
            "lng": -83.78396571970849
          },
          "southwest": {
            "lat": 39.5510315197085,
            "lng": -83.7866636802915
          }
        }
      },
      "place_id": "ChIJieeFkJS5QIgRmYGzBYL1A30",
      "types": [
        "street_address"
      ]
    },
    {
      "address_components": [
        {
          "long_name": "Port William",
          "short_name": "Port William",
          "types": [
            "locality",
            "political"
          ]
        },
        {
          "long_name": "Liberty Township",
          "short_name": "Liberty Township",
          "types": [
            "administrative_area_level_3",
            "political"
          ]
        },
        {
          "long_name": "Clinton County",
          "short_name": "Clinton County",
          "types": [
            "administrative_area_level_2",
            "political"
          ]
        },
        {
          "long_name": "Ohio",
          "short_name": "OH",
          "types": [
            "administrative_area_level_1",
            "political"
          ]
        },
        {
          "long_name": "United States",
          "short_name": "US",
          "types": [
            "country",
            "political"
          ]
        }
      ],
      "formatted_address": "Port William, OH, USA",
      "geometry": {
        "bounds": {
          "northeast": {
            "lat": 39.555402,
            "lng": -83.780468
          },
          "southwest": {
            "lat": 39.5486919,
            "lng": -83.789947
          }
        },
        "location": {
          "lat": 39.5520056,
          "lng": -83.78631399999999
        },
        "location_type": "APPROXIMATE",
        "viewport": {
          "northeast": {
            "lat": 39.555402,
            "lng": -83.780468
          },
          "southwest": {
            "lat": 39.5486919,
            "lng": -83.789947
          }
        }
      },
      "place_id": "ChIJzV8zjZS5QIgRt3Yl_hPICs0",
      "types": [
        "locality",
        "political"
      ]
    },
    {
      "address_components": [
        {
          "long_name": "45164",
          "short_name": "45164",
          "types": [
            "postal_code"
          ]
        },
        {
          "long_name": "Port William",
          "short_name": "Port William",
          "types": [
            "locality",
            "political"
          ]
        },
        {
          "long_name": "Ohio",
          "short_name": "OH",
          "types": [
            "administrative_area_level_1",
            "political"
          ]
        },
        {
          "long_name": "United States",
          "short_name": "US",
          "types": [
            "country",
            "political"
          ]
        }
      ],
      "formatted_address": "Port William, OH 45164, USA",
      "geometry": {
        "bounds": {
          "northeast": {
            "lat": 39.5647108,
            "lng": -83.78039
          },
          "southwest": {
            "lat": 39.5500631,
            "lng": -83.804881
          }
        },
        "location": {
          "lat": 39.5558829,
          "lng": -83.7916015
        },
        "location_type": "APPROXIMATE",
        "viewport": {
          "northeast": {
            "lat": 39.5647108,
            "lng": -83.78039
          },
          "southwest": {
            "lat": 39.5500631,
            "lng": -83.804881
          }
        }
      },
      "place_id": "ChIJqarYN5O5QIgRPFOgdgTtwTA",
      "types": [
        "postal_code"
      ]
    },
    {
      "address_components": [
        {
          "long_name": "Liberty Township",
          "short_name": "Liberty Township",
          "types": [
            "administrative_area_level_3",
            "political"
          ]
        },
        {
          "long_name": "Clinton County",
          "short_name": "Clinton County",
          "types": [
            "administrative_area_level_2",
            "political"
          ]
        },
        {
          "long_name": "Ohio",
          "short_name": "OH",
          "types": [
            "administrative_area_level_1",
            "political"
          ]
        },
        {
          "long_name": "United States",
          "short_name": "US",
          "types": [
            "country",
            "political"
          ]
        }
      ],
      "formatted_address": "Liberty Township, OH, USA",
      "geometry": {
        "bounds": {
          "northeast": {
            "lat": 39.56349890000001,
            "lng": -83.7234199
          },
          "southwest": {
            "lat": 39.5090359,
            "lng": -83.88875999999999
          }
        },
        "location": {
          "lat": 39.5391296,
          "lng": -83.81547909999999
        },
        "location_type": "APPROXIMATE",
        "viewport": {
          "northeast": {
            "lat": 39.56349890000001,
            "lng": -83.7234199
          },
          "southwest": {
            "lat": 39.5090359,
            "lng": -83.88875999999999
          }
        }
      },
      "place_id": "ChIJ7XwRnwe5QIgRuMI8WdO_XjQ",
      "types": [
        "administrative_area_level_3",
        "political"
      ]
    },
    {
      "address_components": [
        {
          "long_name": "Wilmington",
          "short_name": "Wilmington",
          "types": [
            "political"
          ]
        },
        {
          "long_name": "Ohio",
          "short_name": "OH",
          "types": [
            "administrative_area_level_1",
            "political"
          ]
        },
        {
          "long_name": "United States",
          "short_name": "US",
          "types": [
            "country",
            "political"
          ]
        }
      ],
      "formatted_address": "Wilmington, OH, USA",
      "geometry": {
        "bounds": {
          "northeast": {
            "lat": 39.569164,
            "lng": -83.57628299999999
          },
          "southwest": {
            "lat": 39.2228469,
            "lng": -84.0067949
          }
        },
        "location": {
          "lat": 39.4067432,
          "lng": -83.8473015
        },
        "location_type": "APPROXIMATE",
        "viewport": {
          "northeast": {
            "lat": 39.569164,
            "lng": -83.57628299999999
          },
          "southwest": {
            "lat": 39.2228469,
            "lng": -84.0067949
          }
        }
      },
      "place_id": "ChIJ2ZtAJ4bGQIgRJLbTelowLf0",
      "types": [
        "political"
      ]
    },
    {
      "address_components": [
        {
          "long_name": "Clinton County",
          "short_name": "Clinton County",
          "types": [
            "administrative_area_level_2",
            "political"
          ]
        },
        {
          "long_name": "Ohio",
          "short_name": "OH",
          "types": [
            "administrative_area_level_1",
            "political"
          ]
        },
        {
          "long_name": "United States",
          "short_name": "US",
          "types": [
            "country",
            "political"
          ]
        }
      ],
      "formatted_address": "Clinton County, OH, USA",
      "geometry": {
        "bounds": {
          "northeast": {
            "lat": 39.5691688,
            "lng": -83.5762859
          },
          "southwest": {
            "lat": 39.222845,
            "lng": -84.006782
          }
        },
        "location": {
          "lat": 39.4067432,
          "lng": -83.8473015
        },
        "location_type": "APPROXIMATE",
        "viewport": {
          "northeast": {
            "lat": 39.5691688,
            "lng": -83.5762859
          },
          "southwest": {
            "lat": 39.222845,
            "lng": -84.006782
          }
        }
      },
      "place_id": "ChIJdWjql3nbQIgReJiV8Eah71Q",
      "types": [
        "administrative_area_level_2",
        "political"
      ]
    },
    {
      "address_components": [
        {
          "long_name": "Ohio",
          "short_name": "OH",
          "types": [
            "administrative_area_level_1",
            "political"
          ]
        },
        {
          "long_name": "United States",
          "short_name": "US",
          "types": [
            "country",
            "political"
          ]
        }
      ],
      "formatted_address": "Ohio, USA",
      "geometry": {
        "bounds": {
          "northeast": {
            "lat": 41.9773019,
            "lng": -80.5182
          },
          "southwest": {
            "lat": 38.4034229,
            "lng": -84.8203049
          }
        },
        "location": {
          "lat": 40.4172871,
          "lng": -82.90712300000001
        },
        "location_type": "APPROXIMATE",
        "viewport": {
          "northeast": {
            "lat": 41.9773019,
            "lng": -80.5182
          },
          "southwest": {
            "lat": 38.4034229,
            "lng": -84.8203049
          }
        }
      },
      "place_id": "ChIJwY5NtXrpNogRFtmfnDlkzeU",
      "types": [
        "administrative_area_level_1",
        "political"
      ]
    },
    {
      "address_components": [
        {
          "long_name": "United States",
          "short_name": "US",
          "types": [
            "country",
            "political"
          ]
        }
      ],
      "formatted_address": "United States",
      "geometry": {
        "bounds": {
          "northeast": {
            "lat": 71.3867745,
            "lng": -66.9502861
          },
          "southwest": {
            "lat": 18.9106768,
            "lng": 172.4458955
          }
        },
        "location": {
          "lat": 37.09024,
          "lng": -95.712891
        },
        "location_type": "APPROXIMATE",
        "viewport": {
          "northeast": {
            "lat": 49.38,
            "lng": -66.94
          },
          "southwest": {
            "lat": 25.82,
            "lng": -124.39
          }
        }
      },
      "place_id": "ChIJCzYy5IS16lQRQrfeQ5K5Oxw",
      "types": [
        "country",
        "political"
      ]
    }
  ],
  "status": "OK"
}
