{
  "results": [
    {
      "address_components": [
        {
          "long_name": "2089",
          "short_name": "2089",
          "types": [
            "street_number"
          ]
        },
        {
          "long_name": "Hendershot Road",
          "short_name": "Hendershot Rd",
          "types": [
            "route"
          ]
        },
        {
          "long_name": "Parma",
          "short_name": "Parma",
          "types": [
            "locality",
            "political"
          ]
        },
        {
          "long_name": "Sandstone Charter Township",
          "short_name": "Sandstone Township",
          "types": [
            "administrative_area_level_3",
            "political"
          ]
        },
        {
          "long_name": "Jackson County",
          "short_name": "Jackson County",
          "types": [
            "administrative_area_level_2",
            "political"
          ]
        },
        {
          "long_name": "Michigan",
          "short_name": "MI",
          "types": [
            "administrative_area_level_1",
            "political"
          ]
        },
        {
          "long_name": "United States",
          "short_name": "US",
          "types": [
            "country",
            "political"
          ]
        },
        {
          "long_name": "49269",
          "short_name": "49269",
          "types": [
            "postal_code"
          ]
        },
        {
          "long_name": "9755",
          "short_name": "9755",
          "types": [
            "postal_code_suffix"
          ]
        }
      ],
      "formatted_address": "2089 Hendershot Rd, Parma, MI 49269, USA",
      "geometry": {
        "location": {
          "lat": 42.2629019,
          "lng": -84.57820799999999
        },
        "location_type": "ROOFTOP",
        "viewport": {
          "northeast": {
            "lat": 42.26425088029149,
            "lng": -84.5768590197085
          },
          "southwest": {
            "lat": 42.26155291970849,
            "lng": -84.5795569802915
          }
        }
      },
      "place_id": "ChIJ77z85SY4PYgR7wgR87FHIEs",
      "types": [
        "street_address"
      ]
    },
    {
      "address_components": [
        {
          "long_name": "Sandstone Charter Township",
          "short_name": "Sandstone Township",
          "types": [
            "administrative_area_level_3",
            "political"
          ]
        },
        {
          "long_name": "Jackson County",
          "short_name": "Jackson County",
          "types": [
            "administrative_area_level_2",
            "political"
          ]
        },
        {
          "long_name": "Michigan",
          "short_name": "MI",
          "types": [
            "administrative_area_level_1",
            "political"
          ]
        },
        {
          "long_name": "United States",
          "short_name": "US",
          "types": [
            "country",
            "political"
          ]
        }
      ],
      "formatted_address": "Sandstone Township, MI, USA",
      "geometry": {
        "bounds": {
          "northeast": {
            "lat": 42.3350179,
            "lng": -84.48274889999999
          },
          "southwest": {
            "lat": 42.24702389999999,
            "lng": -84.60087589999999
          }
        },
        "location": {
          "lat": 42.2839378,
          "lng": -84.54318669999999
        },
        "location_type": "APPROXIMATE",
        "viewport": {
          "northeast": {
            "lat": 42.3350179,
            "lng": -84.48274889999999
          },
          "southwest": {
            "lat": 42.24702389999999,
            "lng": -84.60087589999999
          }
        }
      },
      "place_id": "ChIJkQHlij83PYgR99AMWLzpH1o",
      "types": [
        "administrative_area_level_3",
        "political"
      ]
    },
    {
      "address_components": [
        {
          "long_name": "49269",
          "short_name": "49269",
          "types": [
            "postal_code"
          ]
        },
        {
          "long_name": "Parma",
          "short_name": "Parma",
          "types": [
            "locality",
            "political"
          ]
        },
        {
          "long_name": "Jackson County",
          "short_name": "Jackson County",
          "types": [
            "administrative_area_level_2",
            "political"
          ]
        },
        {
          "long_name": "Michigan",
          "short_name": "MI",
          "types": [
            "administrative_area_level_1",
            "political"
          ]
        },
        {
          "long_name": "United States",
          "short_name": "US",
          "types": [
            "country",
            "political"
          ]
        }
      ],
      "formatted_address": "Parma, MI 49269, USA",
      "geometry": {
        "bounds": {
          "northeast": {
            "lat": 42.3787478,
            "lng": -84.509507
          },
          "southwest": {
            "lat": 42.218233,
            "lng": -84.70834789999999
          }
        },
        "location": {
          "lat": 42.2859231,
          "lng": -84.5850997
        },
        "location_type": "APPROXIMATE",
        "viewport": {
          "northeast": {
            "lat": 42.3787478,
            "lng": -84.509507
          },
          "southwest": {
            "lat": 42.218233,
            "lng": -84.70834789999999
          }
        }
      },
      "place_id": "ChIJB_bxNMQ3PYgRXWsqUizumVk",
      "types": [
        "postal_code"
      ]
    },
    {
      "address_components": [
        {
          "long_name": "Jackson County",
          "short_name": "Jackson County",
          "types": [
            "administrative_area_level_2",
            "political"
          ]
        },
        {
          "long_name": "Michigan",
          "short_name": "MI",
          "types": [
            "administrative_area_level_1",
            "political"
          ]
        },
        {
          "long_name": "United States",
          "short_name": "US",
          "types": [
            "country",
            "political"
          ]
        }
      ],
      "formatted_address": "Jackson County, MI, USA",
      "geometry": {
        "bounds": {
          "northeast": {
            "lat": 42.4248671,
            "lng": -84.130771
          },
          "southwest": {
            "lat": 42.0703368,
            "lng": -84.718632
          }
        },
        "location": {
          "lat": 42.1764362,
          "lng": -84.3542049
        },
        "location_type": "APPROXIMATE",
        "viewport": {
          "northeast": {
            "lat": 42.4248671,
            "lng": -84.130771
          },
          "southwest": {
            "lat": 42.0703368,
            "lng": -84.718632
          }
        }
      },
      "place_id": "ChIJQc6iKWHfPIgRUve3SJMFTvk",
      "types": [
        "administrative_area_level_2",
        "political"
      ]
    },
    {
      "address_components": [
        {
          "long_name": "Jackson",
          "short_name": "Jackson",
          "types": [
            "political"
          ]
        },
        {
          "long_name": "Michigan",
          "short_name": "MI",
          "types": [
            "administrative_area_level_1",
            "political"
          ]
        },
        {
          "long_name": "United States",
          "short_name": "US",
          "types": [
            "country",
            "political"
          ]
        }
      ],
      "formatted_address": "Jackson, MI, USA",
      "geometry": {
        "bounds": {
          "northeast": {
            "lat": 42.4248352,
            "lng": -84.130752
          },
          "southwest": {
            "lat": 42.07038,
            "lng": -84.718639
          }
        },
        "location": {
          "lat": 42.1764362,
          "lng": -84.3542049
        },
        "location_type": "APPROXIMATE",
        "viewport": {
          "northeast": {
            "lat": 42.4248357,
            "lng": -84.130752
          },
          "southwest": {
            "lat": 42.07038,
            "lng": -84.718639
          }
        }
      },
      "place_id": "ChIJ0xAzskQlPYgR4gZgoC0aNDI",
      "types": [
        "political"
      ]
    },
    {
      "address_components": [
        {
          "long_name": "Michigan",
          "short_name": "MI",
          "types": [
            "administrative_area_level_1",
            "political"
          ]
        },
        {
          "long_name": "United States",
          "short_name": "US",
          "types": [
            "country",
            "political"
          ]
        }
      ],
      "formatted_address": "Michigan, USA",
      "geometry": {
        "bounds": {
          "northeast": {
            "lat": 48.1986461,
            "lng": -82.413474
          },
          "southwest": {
            "lat": 41.696118,
            "lng": -90.4181358
          }
        },
        "location": {
          "lat": 44.3148443,
          "lng": -85.60236429999999
        },
        "location_type": "APPROXIMATE",
        "viewport": {
          "northeast": {
            "lat": 48.198602,
            "lng": -82.413474
          },
          "southwest": {
            "lat": 41.696118,
            "lng": -90.4181358
          }
        }
      },
      "place_id": "ChIJEQTKxz2qTE0Rs8liellI3Zc",
      "types": [
        "administrative_area_level_1",
        "political"
      ]
    },
    {
      "address_components": [
        {
          "long_name": "United States",
          "short_name": "US",
          "types": [
            "country",
            "political"
          ]
        }
      ],
      "formatted_address": "United States",
      "geometry": {
        "bounds": {
          "northeast": {
            "lat": 71.3867745,
            "lng": -66.9502861
          },
          "southwest": {
            "lat": 18.9106768,
            "lng": 172.4458955
          }
        },
        "location": {
          "lat": 37.09024,
          "lng": -95.712891
        },
        "location_type": "APPROXIMATE",
        "viewport": {
          "northeast": {
            "lat": 49.38,
            "lng": -66.94
          },
          "southwest": {
            "lat": 25.82,
            "lng": -124.39
          }
        }
      },
      "place_id": "ChIJCzYy5IS16lQRQrfeQ5K5Oxw",
      "types": [
        "country",
        "political"
      ]
    }
  ],
  "status": "OK"
}
