{
  "results": [
    {
      "address_components": [
        {
          "long_name": "Rudolph Road",
          "short_name": "Rudolph Rd",
          "types": [
            "route"
          ]
        },
        {
          "long_name": "Oswego",
          "short_name": "Oswego",
          "types": [
            "locality",
            "political"
          ]
        },
        {
          "long_name": "Oswego",
          "short_name": "Oswego",
          "types": [
            "administrative_area_level_3",
            "political"
          ]
        },
        {
          "long_name": "Oswego County",
          "short_name": "Oswego County",
          "types": [
            "administrative_area_level_2",
            "political"
          ]
        },
        {
          "long_name": "New York",
          "short_name": "NY",
          "types": [
            "administrative_area_level_1",
            "political"
          ]
        },
        {
          "long_name": "United States",
          "short_name": "US",
          "types": [
            "country",
            "political"
          ]
        },
        {
          "long_name": "13126",
          "short_name": "13126",
          "types": [
            "postal_code"
          ]
        }
      ],
      "formatted_address": "Rudolph Rd, Oswego, NY 13126, USA",
      "geometry": {
        "bounds": {
          "northeast": {
            "lat": 43.4543049,
            "lng": -76.5440679
          },
          "southwest": {
            "lat": 43.4542772,
            "lng": -76.54476149999999
          }
        },
        "location": {
          "lat": 43.4542911,
          "lng": -76.54441469999999
        },
        "location_type": "GEOMETRIC_CENTER",
        "viewport": {
          "northeast": {
            "lat": 43.4556400302915,
            "lng": -76.5430657197085
          },
          "southwest": {
            "lat": 43.4529420697085,
            "lng": -76.54576368029151
          }
        }
      },
      "place_id": "ChIJyQfFl6t814kRNUfXmHipiGs",
      "types": [
        "route"
      ]
    },
    {
      "address_components": [
        {
          "long_name": "Oswego",
          "short_name": "Oswego",
          "types": [
            "administrative_area_level_3",
            "political"
          ]
        },
        {
          "long_name": "Oswego County",
          "short_name": "Oswego County",
          "types": [
            "administrative_area_level_2",
            "political"
          ]
        },
        {
          "long_name": "New York",
          "short_name": "NY",
          "types": [
            "administrative_area_level_1",
            "political"
          ]
        },
        {
          "long_name": "United States",
          "short_name": "US",
          "types": [
            "country",
            "political"
          ]
        }
      ],
      "formatted_address": "Oswego, NY, USA",
      "geometry": {
        "bounds": {
          "northeast": {
            "lat": 43.4588027,
            "lng": -76.483597
          },
          "southwest": {
            "lat": 43.367521,
            "lng": -76.6169508
          }
        },
        "location": {
          "lat": 43.3976627,
          "lng": -76.5719414
        },
        "location_type": "APPROXIMATE",
        "viewport": {
          "northeast": {
            "lat": 43.4588027,
            "lng": -76.483597
          },
          "southwest": {
            "lat": 43.367521,
            "lng": -76.6169508
          }
        }
      },
      "place_id": "ChIJu0RyRoBk14kRUC4Pn3p0nzM",
      "types": [
        "administrative_area_level_3",
        "political"
      ]
    },
    {
      "address_components": [
        {
          "long_name": "13126",
          "short_name": "13126",
          "types": [
            "postal_code"
          ]
        },
        {
          "long_name": "Oswego",
          "short_name": "Oswego",
          "types": [
            "locality",
            "political"
          ]
        },
        {
          "long_name": "New York",
          "short_name": "NY",
          "types": [
            "administrative_area_level_1",
            "political"
          ]
        },
        {
          "long_name": "United States",
          "short_name": "US",
          "types": [
            "country",
            "political"
          ]
        }
      ],
      "formatted_address": "Oswego, NY 13126, USA",
      "geometry": {
        "bounds": {
          "northeast": {
            "lat": 43.533662,
            "lng": -76.2706599
          },
          "southwest": {
            "lat": 43.3394149,
            "lng": -76.6353549
          }
        },
        "location": {
          "lat": 43.4244918,
          "lng": -76.4794435
        },
        "location_type": "APPROXIMATE",
        "viewport": {
          "northeast": {
            "lat": 43.533662,
            "lng": -76.2706599
          },
          "southwest": {
            "lat": 43.3394149,
            "lng": -76.6353549
          }
        }
      },
      "place_id": "ChIJDXagjppj14kRlAqPjTrHjQg",
      "types": [
        "postal_code"
      ]
    },
    {
      "address_components": [
        {
          "long_name": "Oswego County",
          "short_name": "Oswego County",
          "types": [
            "administrative_area_level_2",
            "political"
          ]
        },
        {
          "long_name": "New York",
          "short_name": "NY",
          "types": [
            "administrative_area_level_1",
            "political"
          ]
        },
        {
          "long_name": "United States",
          "short_name": "US",
          "types": [
            "country",
            "political"
          ]
        }
      ],
      "formatted_address": "Oswego County, NY, USA",
      "geometry": {
        "bounds": {
          "northeast": {
            "lat": 43.7070179,
            "lng": -75.756213
          },
          "southwest": {
            "lat": 43.16014390000001,
            "lng": -76.6169508
          }
        },
        "location": {
          "lat": 43.482533,
          "lng": -76.17837390000001
        },
        "location_type": "APPROXIMATE",
        "viewport": {
          "northeast": {
            "lat": 43.7070179,
            "lng": -75.756213
          },
          "southwest": {
            "lat": 43.16014390000001,
            "lng": -76.6169508
          }
        }
      },
      "place_id": "ChIJORAViijJ2YkRH4R5J2dm7Y0",
      "types": [
        "administrative_area_level_2",
        "political"
      ]
    },
    {
      "address_components": [
        {
          "long_name": "Syracuse",
          "short_name": "Syracuse",
          "types": [
            "political"
          ]
        },
        {
          "long_name": "New York",
          "short_name": "NY",
          "types": [
            "administrative_area_level_1",
            "political"
          ]
        },
        {
          "long_name": "United States",
          "short_name": "US",
          "types": [
            "country",
            "political"
          ]
        }
      ],
      "formatted_address": "Syracuse, NY, USA",
      "geometry": {
        "bounds": {
          "northeast": {
            "lat": 43.7070179,
            "lng": -75.239972
          },
          "southwest": {
            "lat": 42.723844,
            "lng": -76.6170478
          }
        },
        "location": {
          "lat": 43.114397,
          "lng": -76.2710833
        },
        "location_type": "APPROXIMATE",
        "viewport": {
          "northeast": {
            "lat": 43.7070179,
            "lng": -75.239972
          },
          "southwest": {
            "lat": 42.723844,
            "lng": -76.6170478
          }
        }
      },
      "place_id": "ChIJG1ByhoST2YkRpx440X2eFGo",
      "types": [
        "political"
      ]
    },
    {
      "address_components": [
        {
          "long_name": "New York",
          "short_name": "NY",
          "types": [
            "administrative_area_level_1",
            "political"
          ]
        },
        {
          "long_name": "United States",
          "short_name": "US",
          "types": [
            "country",
            "political"
          ]
        }
      ],
      "formatted_address": "New York, USA",
      "geometry": {
        "bounds": {
          "northeast": {
            "lat": 45.015865,
            "lng": -71.85620639999999
          },
          "southwest": {
            "lat": 40.496091,
            "lng": -79.76214379999999
          }
        },
        "location": {
          "lat": 43.2994285,
          "lng": -74.21793260000001
        },
        "location_type": "APPROXIMATE",
        "viewport": {
          "northeast": {
            "lat": 45.015859,
            "lng": -71.85620639999999
          },
          "southwest": {
            "lat": 40.496091,
            "lng": -79.76214379999999
          }
        }
      },
      "place_id": "ChIJqaUj8fBLzEwRZ5UY3sHGz90",
      "types": [
        "administrative_area_level_1",
        "political"
      ]
    },
    {
      "address_components": [
        {
          "long_name": "United States",
          "short_name": "US",
          "types": [
            "country",
            "political"
          ]
        }
      ],
      "formatted_address": "United States",
      "geometry": {
        "bounds": {
          "northeast": {
            "lat": 71.3867745,
            "lng": -66.9502861
          },
          "southwest": {
            "lat": 18.9106768,
            "lng": 172.4458955
          }
        },
        "location": {
          "lat": 37.09024,
          "lng": -95.712891
        },
        "location_type": "APPROXIMATE",
        "viewport": {
          "northeast": {
            "lat": 49.38,
            "lng": -66.94
          },
          "southwest": {
            "lat": 25.82,
            "lng": -124.39
          }
        }
      },
      "place_id": "ChIJCzYy5IS16lQRQrfeQ5K5Oxw",
      "types": [
        "country",
        "political"
      ]
    }
  ],
  "status": "OK"
}
