{
  "results": [
    {
      "address_components": [
        {
          "long_name": "Quail Run",
          "short_name": "Quail Run",
          "types": [
            "route"
          ]
        },
        {
          "long_name": "Voorheesville",
          "short_name": "Voorheesville",
          "types": [
            "locality",
            "political"
          ]
        },
        {
          "long_name": "New Scotland",
          "short_name": "New Scotland",
          "types": [
            "administrative_area_level_3",
            "political"
          ]
        },
        {
          "long_name": "Albany County",
          "short_name": "Albany County",
          "types": [
            "administrative_area_level_2",
            "political"
          ]
        },
        {
          "long_name": "New York",
          "short_name": "NY",
          "types": [
            "administrative_area_level_1",
            "political"
          ]
        },
        {
          "long_name": "United States",
          "short_name": "US",
          "types": [
            "country",
            "political"
          ]
        },
        {
          "long_name": "12186",
          "short_name": "12186",
          "types": [
            "postal_code"
          ]
        }
      ],
      "formatted_address": "Quail Run, Voorheesville, NY 12186, USA",
      "geometry": {
        "bounds": {
          "northeast": {
            "lat": 42.6524947,
            "lng": -73.93296699999999
          },
          "southwest": {
            "lat": 42.6496964,
            "lng": -73.9341081
          }
        },
        "location": {
          "lat": 42.6510105,
          "lng": -73.93379279999999
        },
        "location_type": "GEOMETRIC_CENTER",
        "viewport": {
          "northeast": {
            "lat": 42.6524947,
            "lng": -73.93218856970849
          },
          "southwest": {
            "lat": 42.6496964,
            "lng": -73.93488653029151
          }
        }
      },
      "place_id": "ChIJ2WOQcFXf3YkRSfl8PNLs7Y8",
      "types": [
        "route"
      ]
    },
    {
      "address_components": [
        {
          "long_name": "Voorheesville",
          "short_name": "Voorheesville",
          "types": [
            "locality",
            "political"
          ]
        },
        {
          "long_name": "New Scotland",
          "short_name": "New Scotland",
          "types": [
            "administrative_area_level_3",
            "political"
          ]
        },
        {
          "long_name": "Albany County",
          "short_name": "Albany County",
          "types": [
            "administrative_area_level_2",
            "political"
          ]
        },
        {
          "long_name": "New York",
          "short_name": "NY",
          "types": [
            "administrative_area_level_1",
            "political"
          ]
        },
        {
          "long_name": "United States",
          "short_name": "US",
          "types": [
            "country",
            "political"
          ]
        },
        {
          "long_name": "12186",
          "short_name": "12186",
          "types": [
            "postal_code"
          ]
        }
      ],
      "formatted_address": "Voorheesville, NY 12186, USA",
      "geometry": {
        "bounds": {
          "northeast": {
            "lat": 42.663499,
            "lng": -73.916271
          },
          "southwest": {
            "lat": 42.6390779,
            "lng": -73.9507619
          }
        },
        "location": {
          "lat": 42.65396700000001,
          "lng": -73.9287365
        },
        "location_type": "APPROXIMATE",
        "viewport": {
          "northeast": {
            "lat": 42.663499,
            "lng": -73.916271
          },
          "southwest": {
            "lat": 42.6390779,
            "lng": -73.9507619
          }
        }
      },
      "place_id": "ChIJT2kXe1Xf3YkR186VIUACm0Q",
      "types": [
        "locality",
        "political"
      ]
    },
    {
      "address_components": [
        {
          "long_name": "12186",
          "short_name": "12186",
          "types": [
            "postal_code"
          ]
        },
        {
          "long_name": "Voorheesville",
          "short_name": "Voorheesville",
          "types": [
            "locality",
            "political"
          ]
        },
        {
          "long_name": "Albany County",
          "short_name": "Albany County",
          "types": [
            "administrative_area_level_2",
            "political"
          ]
        },
        {
          "long_name": "New York",
          "short_name": "NY",
          "types": [
            "administrative_area_level_1",
            "political"
          ]
        },
        {
          "long_name": "United States",
          "short_name": "US",
          "types": [
            "country",
            "political"
          ]
        }
      ],
      "formatted_address": "Voorheesville, NY 12186, USA",
      "geometry": {
        "bounds": {
          "northeast": {
            "lat": 42.6982769,
            "lng": -73.9017788
          },
          "southwest": {
            "lat": 42.54352,
            "lng": -74.0574701
          }
        },
        "location": {
          "lat": 42.6284995,
          "lng": -73.9712488
        },
        "location_type": "APPROXIMATE",
        "viewport": {
          "northeast": {
            "lat": 42.6982769,
            "lng": -73.9017788
          },
          "southwest": {
            "lat": 42.54352,
            "lng": -74.0574701
          }
        }
      },
      "place_id": "ChIJNfQrA-XY3YkRGoKccQXwOL8",
      "types": [
        "postal_code"
      ]
    },
    {
      "address_components": [
        {
          "long_name": "New Scotland",
          "short_name": "New Scotland",
          "types": [
            "administrative_area_level_3",
            "political"
          ]
        },
        {
          "long_name": "Albany County",
          "short_name": "Albany County",
          "types": [
            "administrative_area_level_2",
            "political"
          ]
        },
        {
          "long_name": "New York",
          "short_name": "NY",
          "types": [
            "administrative_area_level_1",
            "political"
          ]
        },
        {
          "long_name": "United States",
          "short_name": "US",
          "types": [
            "country",
            "political"
          ]
        }
      ],
      "formatted_address": "New Scotland, NY, USA",
      "geometry": {
        "bounds": {
          "northeast": {
            "lat": 42.669525,
            "lng": -73.850717
          },
          "southwest": {
            "lat": 42.533093,
            "lng": -74.022216
          }
        },
        "location": {
          "lat": 42.5981618,
          "lng": -73.95949399999999
        },
        "location_type": "APPROXIMATE",
        "viewport": {
          "northeast": {
            "lat": 42.669525,
            "lng": -73.850717
          },
          "southwest": {
            "lat": 42.533093,
            "lng": -74.022216
          }
        }
      },
      "place_id": "ChIJV785dTPZ3YkRnm1CeD7zha4",
      "types": [
        "administrative_area_level_3",
        "political"
      ]
    },
    {
      "address_components": [
        {
          "long_name": "Albany County",
          "short_name": "Albany County",
          "types": [
            "administrative_area_level_2",
            "political"
          ]
        },
        {
          "long_name": "New York",
          "short_name": "NY",
          "types": [
            "administrative_area_level_1",
            "political"
          ]
        },
        {
          "long_name": "United States",
          "short_name": "US",
          "types": [
            "country",
            "political"
          ]
        }
      ],
      "formatted_address": "Albany County, NY, USA",
      "geometry": {
        "bounds": {
          "northeast": {
            "lat": 42.8225768,
            "lng": -73.67788279999999
          },
          "southwest": {
            "lat": 42.40712690000001,
            "lng": -74.26486299999999
          }
        },
        "location": {
          "lat": 42.57567969999999,
          "lng": -73.93598209999999
        },
        "location_type": "APPROXIMATE",
        "viewport": {
          "northeast": {
            "lat": 42.8225768,
            "lng": -73.67788279999999
          },
          "southwest": {
            "lat": 42.40712690000001,
            "lng": -74.26486299999999
          }
        }
      },
      "place_id": "ChIJKXDqHfHY3YkR58pus3faMs8",
      "types": [
        "administrative_area_level_2",
        "political"
      ]
    },
    {
      "address_components": [
        {
          "long_name": "New York",
          "short_name": "NY",
          "types": [
            "administrative_area_level_1",
            "political"
          ]
        },
        {
          "long_name": "United States",
          "short_name": "US",
          "types": [
            "country",
            "political"
          ]
        }
      ],
      "formatted_address": "New York, USA",
      "geometry": {
        "bounds": {
          "northeast": {
            "lat": 45.015865,
            "lng": -71.85620639999999
          },
          "southwest": {
            "lat": 40.496091,
            "lng": -79.76214379999999
          }
        },
        "location": {
          "lat": 43.2994285,
          "lng": -74.21793260000001
        },
        "location_type": "APPROXIMATE",
        "viewport": {
          "northeast": {
            "lat": 45.015859,
            "lng": -71.85620639999999
          },
          "southwest": {
            "lat": 40.496091,
            "lng": -79.76214379999999
          }
        }
      },
      "place_id": "ChIJqaUj8fBLzEwRZ5UY3sHGz90",
      "types": [
        "administrative_area_level_1",
        "political"
      ]
    },
    {
      "address_components": [
        {
          "long_name": "United States",
          "short_name": "US",
          "types": [
            "country",
            "political"
          ]
        }
      ],
      "formatted_address": "United States",
      "geometry": {
        "bounds": {
          "northeast": {
            "lat": 71.3867745,
            "lng": -66.9502861
          },
          "southwest": {
            "lat": 18.9106768,
            "lng": 172.4458955
          }
        },
        "location": {
          "lat": 37.09024,
          "lng": -95.712891
        },
        "location_type": "APPROXIMATE",
        "viewport": {
          "northeast": {
            "lat": 49.38,
            "lng": -66.94
          },
          "southwest": {
            "lat": 25.82,
            "lng": -124.39
          }
        }
      },
      "place_id": "ChIJCzYy5IS16lQRQrfeQ5K5Oxw",
      "types": [
        "country",
        "political"
      ]
    }
  ],
  "status": "OK"
}
