{
  "results": [
    {
      "address_components": [
        {
          "long_name": "260",
          "short_name": "260",
          "types": [
            "street_number"
          ]
        },
        {
          "long_name": "Church Street",
          "short_name": "Church St",
          "types": [
            "route"
          ]
        },
        {
          "long_name": "Montgomery",
          "short_name": "Montgomery",
          "types": [
            "locality",
            "political"
          ]
        },
        {
          "long_name": "Barr Township",
          "short_name": "Barr Township",
          "types": [
            "administrative_area_level_3",
            "political"
          ]
        },
        {
          "long_name": "Daviess County",
          "short_name": "Daviess County",
          "types": [
            "administrative_area_level_2",
            "political"
          ]
        },
        {
          "long_name": "Indiana",
          "short_name": "IN",
          "types": [
            "administrative_area_level_1",
            "political"
          ]
        },
        {
          "long_name": "United States",
          "short_name": "US",
          "types": [
            "country",
            "political"
          ]
        },
        {
          "long_name": "47558",
          "short_name": "47558",
          "types": [
            "postal_code"
          ]
        },
        {
          "long_name": "4521",
          "short_name": "4521",
          "types": [
            "postal_code_suffix"
          ]
        }
      ],
      "formatted_address": "260 Church St, Montgomery, IN 47558, USA",
      "geometry": {
        "location": {
          "lat": 38.664867,
          "lng": -87.04601
        },
        "location_type": "ROOFTOP",
        "viewport": {
          "northeast": {
            "lat": 38.6662159802915,
            "lng": -87.04466101970849
          },
          "southwest": {
            "lat": 38.6635180197085,
            "lng": -87.04735898029149
          }
        }
      },
      "place_id": "ChIJpwO2uXPXbYgRfSno1hZXm9w",
      "types": [
        "street_address"
      ]
    },
    {
      "address_components": [
        {
          "long_name": "Montgomery",
          "short_name": "Montgomery",
          "types": [
            "locality",
            "political"
          ]
        },
        {
          "long_name": "Barr Township",
          "short_name": "Barr Township",
          "types": [
            "administrative_area_level_3",
            "political"
          ]
        },
        {
          "long_name": "Daviess County",
          "short_name": "Daviess County",
          "types": [
            "administrative_area_level_2",
            "political"
          ]
        },
        {
          "long_name": "Indiana",
          "short_name": "IN",
          "types": [
            "administrative_area_level_1",
            "political"
          ]
        },
        {
          "long_name": "United States",
          "short_name": "US",
          "types": [
            "country",
            "political"
          ]
        }
      ],
      "formatted_address": "Montgomery, IN, USA",
      "geometry": {
        "bounds": {
          "northeast": {
            "lat": 38.669739,
            "lng": -87.0427629
          },
          "southwest": {
            "lat": 38.659684,
            "lng": -87.0557049
          }
        },
        "location": {
          "lat": 38.66254929999999,
          "lng": -87.0461181
        },
        "location_type": "APPROXIMATE",
        "viewport": {
          "northeast": {
            "lat": 38.669739,
            "lng": -87.0427629
          },
          "southwest": {
            "lat": 38.659684,
            "lng": -87.0557049
          }
        }
      },
      "place_id": "ChIJYSAgF3HXbYgR8-FMMlCOKEg",
      "types": [
        "locality",
        "political"
      ]
    },
    {
      "address_components": [
        {
          "long_name": "47558",
          "short_name": "47558",
          "types": [
            "postal_code"
          ]
        },
        {
          "long_name": "Montgomery",
          "short_name": "Montgomery",
          "types": [
            "locality",
            "political"
          ]
        },
        {
          "long_name": "Daviess County",
          "short_name": "Daviess County",
          "types": [
            "administrative_area_level_2",
            "political"
          ]
        },
        {
          "long_name": "Indiana",
          "short_name": "IN",
          "types": [
            "administrative_area_level_1",
            "political"
          ]
        },
        {
          "long_name": "United States",
          "short_name": "US",
          "types": [
            "country",
            "political"
          ]
        }
      ],
      "formatted_address": "Montgomery, IN 47558, USA",
      "geometry": {
        "bounds": {
          "northeast": {
            "lat": 38.7463709,
            "lng": -86.96377
          },
          "southwest": {
            "lat": 38.524745,
            "lng": -87.1092328
          }
        },
        "location": {
          "lat": 38.6367018,
          "lng": -87.0424393
        },
        "location_type": "APPROXIMATE",
        "viewport": {
          "northeast": {
            "lat": 38.7463709,
            "lng": -86.96377
          },
          "southwest": {
            "lat": 38.524745,
            "lng": -87.1092328
          }
        }
      },
      "place_id": "ChIJ-zMoHpbXbYgRN_TGWBUmDgA",
      "types": [
        "postal_code"
      ]
    },
    {
      "address_components": [
        {
          "long_name": "Barr Township",
          "short_name": "Barr Township",
          "types": [
            "administrative_area_level_3",
            "political"
          ]
        },
        {
          "long_name": "Daviess County",
          "short_name": "Daviess County",
          "types": [
            "administrative_area_level_2",
            "political"
          ]
        },
        {
          "long_name": "Indiana",
          "short_name": "IN",
          "types": [
            "administrative_area_level_1",
            "political"
          ]
        },
        {
          "long_name": "United States",
          "short_name": "US",
          "types": [
            "country",
            "political"
          ]
        }
      ],
      "formatted_address": "Barr Township, IN, USA",
      "geometry": {
        "bounds": {
          "northeast": {
            "lat": 38.7307658,
            "lng": -86.9233309
          },
          "southwest": {
            "lat": 38.611584,
            "lng": -87.0927959
          }
        },
        "location": {
          "lat": 38.6571521,
          "lng": -87.0224442
        },
        "location_type": "APPROXIMATE",
        "viewport": {
          "northeast": {
            "lat": 38.7307658,
            "lng": -86.9233309
          },
          "southwest": {
            "lat": 38.611584,
            "lng": -87.0927959
          }
        }
      },
      "place_id": "ChIJqzQCmO7WbYgRaB2OtCONDKw",
      "types": [
        "administrative_area_level_3",
        "political"
      ]
    },
    {
      "address_components": [
        {
          "long_name": "Washington",
          "short_name": "Washington",
          "types": [
            "political"
          ]
        },
        {
          "long_name": "Indiana",
          "short_name": "IN",
          "types": [
            "administrative_area_level_1",
            "political"
          ]
        },
        {
          "long_name": "United States",
          "short_name": "US",
          "types": [
            "country",
            "political"
          ]
        }
      ],
      "formatted_address": "Washington, IN, USA",
      "geometry": {
        "bounds": {
          "northeast": {
            "lat": 38.9042091,
            "lng": -86.90410899999999
          },
          "southwest": {
            "lat": 38.4904531,
            "lng": -87.279415
          }
        },
        "location": {
          "lat": 38.7020241,
          "lng": -87.14228949999999
        },
        "location_type": "APPROXIMATE",
        "viewport": {
          "northeast": {
            "lat": 38.9042091,
            "lng": -86.90410899999999
          },
          "southwest": {
            "lat": 38.4904531,
            "lng": -87.279415
          }
        }
      },
      "place_id": "ChIJkX8C0gLabYgRqfMYrJIpczQ",
      "types": [
        "political"
      ]
    },
    {
      "address_components": [
        {
          "long_name": "Daviess County",
          "short_name": "Daviess County",
          "types": [
            "administrative_area_level_2",
            "political"
          ]
        },
        {
          "long_name": "Indiana",
          "short_name": "IN",
          "types": [
            "administrative_area_level_1",
            "political"
          ]
        },
        {
          "long_name": "United States",
          "short_name": "US",
          "types": [
            "country",
            "political"
          ]
        }
      ],
      "formatted_address": "Daviess County, IN, USA",
      "geometry": {
        "bounds": {
          "northeast": {
            "lat": 38.904196,
            "lng": -86.90412289999999
          },
          "southwest": {
            "lat": 38.49037,
            "lng": -87.279415
          }
        },
        "location": {
          "lat": 38.7020241,
          "lng": -87.14228949999999
        },
        "location_type": "APPROXIMATE",
        "viewport": {
          "northeast": {
            "lat": 38.904196,
            "lng": -86.90412289999999
          },
          "southwest": {
            "lat": 38.49037,
            "lng": -87.279415
          }
        }
      },
      "place_id": "ChIJE_9QATrabYgRL8NN1vVVlj8",
      "types": [
        "administrative_area_level_2",
        "political"
      ]
    },
    {
      "address_components": [
        {
          "long_name": "Indiana",
          "short_name": "IN",
          "types": [
            "administrative_area_level_1",
            "political"
          ]
        },
        {
          "long_name": "United States",
          "short_name": "US",
          "types": [
            "country",
            "political"
          ]
        }
      ],
      "formatted_address": "Indiana, USA",
      "geometry": {
        "bounds": {
          "northeast": {
            "lat": 41.7606971,
            "lng": -84.784662
          },
          "southwest": {
            "lat": 37.7717419,
            "lng": -88.097892
          }
        },
        "location": {
          "lat": 40.2671941,
          "lng": -86.1349019
        },
        "location_type": "APPROXIMATE",
        "viewport": {
          "northeast": {
            "lat": 41.7606971,
            "lng": -84.784662
          },
          "southwest": {
            "lat": 37.7717419,
            "lng": -88.097892
          }
        }
      },
      "place_id": "ChIJHRv42bxQa4gRcuwyy84vEH4",
      "types": [
        "administrative_area_level_1",
        "political"
      ]
    },
    {
      "address_components": [
        {
          "long_name": "United States",
          "short_name": "US",
          "types": [
            "country",
            "political"
          ]
        }
      ],
      "formatted_address": "United States",
      "geometry": {
        "bounds": {
          "northeast": {
            "lat": 71.3867745,
            "lng": -66.9502861
          },
          "southwest": {
            "lat": 18.9106768,
            "lng": 172.4458955
          }
        },
        "location": {
          "lat": 37.09024,
          "lng": -95.712891
        },
        "location_type": "APPROXIMATE",
        "viewport": {
          "northeast": {
            "lat": 49.38,
            "lng": -66.94
          },
          "southwest": {
            "lat": 25.82,
            "lng": -124.39
          }
        }
      },
      "place_id": "ChIJCzYy5IS16lQRQrfeQ5K5Oxw",
      "types": [
        "country",
        "political"
      ]
    }
  ],
  "status": "OK"
}
