{
  "results": [
    {
      "address_components": [
        {
          "long_name": "309",
          "short_name": "309",
          "types": [
            "street_number"
          ]
        },
        {
          "long_name": "West Vine Street",
          "short_name": "W Vine St",
          "types": [
            "route"
          ]
        },
        {
          "long_name": "Coldwater",
          "short_name": "Coldwater",
          "types": [
            "locality",
            "political"
          ]
        },
        {
          "long_name": "Butler Township",
          "short_name": "Butler Township",
          "types": [
            "administrative_area_level_3",
            "political"
          ]
        },
        {
          "long_name": "Mercer County",
          "short_name": "Mercer County",
          "types": [
            "administrative_area_level_2",
            "political"
          ]
        },
        {
          "long_name": "Ohio",
          "short_name": "OH",
          "types": [
            "administrative_area_level_1",
            "political"
          ]
        },
        {
          "long_name": "United States",
          "short_name": "US",
          "types": [
            "country",
            "political"
          ]
        },
        {
          "long_name": "45828",
          "short_name": "45828",
          "types": [
            "postal_code"
          ]
        },
        {
          "long_name": "1148",
          "short_name": "1148",
          "types": [
            "postal_code_suffix"
          ]
        }
      ],
      "formatted_address": "309 W Vine St, Coldwater, OH 45828, USA",
      "geometry": {
        "location": {
          "lat": 40.483237,
          "lng": -84.6316499
        },
        "location_type": "ROOFTOP",
        "viewport": {
          "northeast": {
            "lat": 40.48458598029149,
            "lng": -84.6303009197085
          },
          "southwest": {
            "lat": 40.4818880197085,
            "lng": -84.63299888029151
          }
        }
      },
      "place_id": "ChIJZ3aWJOzKP4gR7yxs91An4Ho",
      "types": [
        "street_address"
      ]
    },
    {
      "address_components": [
        {
          "long_name": "Coldwater",
          "short_name": "Coldwater",
          "types": [
            "locality",
            "political"
          ]
        },
        {
          "long_name": "Butler Township",
          "short_name": "Butler Township",
          "types": [
            "administrative_area_level_3",
            "political"
          ]
        },
        {
          "long_name": "Mercer County",
          "short_name": "Mercer County",
          "types": [
            "administrative_area_level_2",
            "political"
          ]
        },
        {
          "long_name": "Ohio",
          "short_name": "OH",
          "types": [
            "administrative_area_level_1",
            "political"
          ]
        },
        {
          "long_name": "United States",
          "short_name": "US",
          "types": [
            "country",
            "political"
          ]
        },
        {
          "long_name": "45828",
          "short_name": "45828",
          "types": [
            "postal_code"
          ]
        }
      ],
      "formatted_address": "Coldwater, OH 45828, USA",
      "geometry": {
        "bounds": {
          "northeast": {
            "lat": 40.4946201,
            "lng": -84.616342
          },
          "southwest": {
            "lat": 40.4708479,
            "lng": -84.64777409999999
          }
        },
        "location": {
          "lat": 40.4797688,
          "lng": -84.62829099999999
        },
        "location_type": "APPROXIMATE",
        "viewport": {
          "northeast": {
            "lat": 40.4946201,
            "lng": -84.616342
          },
          "southwest": {
            "lat": 40.4708479,
            "lng": -84.64777409999999
          }
        }
      },
      "place_id": "ChIJoXJo5YzKP4gR4TAETQCWJVM",
      "types": [
        "locality",
        "political"
      ]
    },
    {
      "address_components": [
        {
          "long_name": "Butler Township",
          "short_name": "Butler Township",
          "types": [
            "administrative_area_level_3",
            "political"
          ]
        },
        {
          "long_name": "Mercer County",
          "short_name": "Mercer County",
          "types": [
            "administrative_area_level_2",
            "political"
          ]
        },
        {
          "long_name": "Ohio",
          "short_name": "OH",
          "types": [
            "administrative_area_level_1",
            "political"
          ]
        },
        {
          "long_name": "United States",
          "short_name": "US",
          "types": [
            "country",
            "political"
          ]
        }
      ],
      "formatted_address": "Butler Township, OH, USA",
      "geometry": {
        "bounds": {
          "northeast": {
            "lat": 40.523684,
            "lng": -84.57133979999999
          },
          "southwest": {
            "lat": 40.4431249,
            "lng": -84.6888369
          }
        },
        "location": {
          "lat": 40.4897407,
          "lng": -84.6269824
        },
        "location_type": "APPROXIMATE",
        "viewport": {
          "northeast": {
            "lat": 40.523684,
            "lng": -84.57133979999999
          },
          "southwest": {
            "lat": 40.4431249,
            "lng": -84.6888369
          }
        }
      },
      "place_id": "ChIJScSqQ-zKP4gR-l-4Ybg8dvY",
      "types": [
        "administrative_area_level_3",
        "political"
      ]
    },
    {
      "address_components": [
        {
          "long_name": "45828",
          "short_name": "45828",
          "types": [
            "postal_code"
          ]
        },
        {
          "long_name": "Coldwater",
          "short_name": "Coldwater",
          "types": [
            "locality",
            "political"
          ]
        },
        {
          "long_name": "Mercer County",
          "short_name": "Mercer County",
          "types": [
            "administrative_area_level_2",
            "political"
          ]
        },
        {
          "long_name": "Ohio",
          "short_name": "OH",
          "types": [
            "administrative_area_level_1",
            "political"
          ]
        },
        {
          "long_name": "United States",
          "short_name": "US",
          "types": [
            "country",
            "political"
          ]
        }
      ],
      "formatted_address": "Coldwater, OH 45828, USA",
      "geometry": {
        "bounds": {
          "northeast": {
            "lat": 40.545451,
            "lng": -84.58872509999999
          },
          "southwest": {
            "lat": 40.4431249,
            "lng": -84.7845269
          }
        },
        "location": {
          "lat": 40.4820072,
          "lng": -84.6792931
        },
        "location_type": "APPROXIMATE",
        "viewport": {
          "northeast": {
            "lat": 40.545451,
            "lng": -84.58872509999999
          },
          "southwest": {
            "lat": 40.4431249,
            "lng": -84.7845269
          }
        }
      },
      "place_id": "ChIJ_UKpymjLP4gRt6hmfxSKuUA",
      "types": [
        "postal_code"
      ]
    },
    {
      "address_components": [
        {
          "long_name": "Celina",
          "short_name": "Celina",
          "types": [
            "political"
          ]
        },
        {
          "long_name": "United States",
          "short_name": "US",
          "types": [
            "country",
            "political"
          ]
        }
      ],
      "formatted_address": "Celina, USA",
      "geometry": {
        "bounds": {
          "northeast": {
            "lat": 40.728272,
            "lng": -84.434426
          },
          "southwest": {
            "lat": 40.3518211,
            "lng": -84.8045041
          }
        },
        "location": {
          "lat": 40.59405479999999,
          "lng": -84.68974949999999
        },
        "location_type": "APPROXIMATE",
        "viewport": {
          "northeast": {
            "lat": 40.728272,
            "lng": -84.434426
          },
          "southwest": {
            "lat": 40.3518211,
            "lng": -84.8045041
          }
        }
      },
      "place_id": "ChIJoyaWiBI1PogReo88aq-gPug",
      "types": [
        "political"
      ]
    },
    {
      "address_components": [
        {
          "long_name": "Mercer County",
          "short_name": "Mercer County",
          "types": [
            "administrative_area_level_2",
            "political"
          ]
        },
        {
          "long_name": "Ohio",
          "short_name": "OH",
          "types": [
            "administrative_area_level_1",
            "political"
          ]
        },
        {
          "long_name": "United States",
          "short_name": "US",
          "types": [
            "country",
            "political"
          ]
        }
      ],
      "formatted_address": "Mercer County, OH, USA",
      "geometry": {
        "bounds": {
          "northeast": {
            "lat": 40.728306,
            "lng": -84.43163179999999
          },
          "southwest": {
            "lat": 40.3517209,
            "lng": -84.804239
          }
        },
        "location": {
          "lat": 40.59405479999999,
          "lng": -84.68974949999999
        },
        "location_type": "APPROXIMATE",
        "viewport": {
          "northeast": {
            "lat": 40.728306,
            "lng": -84.43163179999999
          },
          "southwest": {
            "lat": 40.3517209,
            "lng": -84.804239
          }
        }
      },
      "place_id": "ChIJNWZwoBVTPogRJ3vbJqog7GY",
      "types": [
        "administrative_area_level_2",
        "political"
      ]
    },
    {
      "address_components": [
        {
          "long_name": "Ohio",
          "short_name": "OH",
          "types": [
            "administrative_area_level_1",
            "political"
          ]
        },
        {
          "long_name": "United States",
          "short_name": "US",
          "types": [
            "country",
            "political"
          ]
        }
      ],
      "formatted_address": "Ohio, USA",
      "geometry": {
        "bounds": {
          "northeast": {
            "lat": 41.9773019,
            "lng": -80.5182
          },
          "southwest": {
            "lat": 38.4034229,
            "lng": -84.8203049
          }
        },
        "location": {
          "lat": 40.4172871,
          "lng": -82.90712300000001
        },
        "location_type": "APPROXIMATE",
        "viewport": {
          "northeast": {
            "lat": 41.9773019,
            "lng": -80.5182
          },
          "southwest": {
            "lat": 38.4034229,
            "lng": -84.8203049
          }
        }
      },
      "place_id": "ChIJwY5NtXrpNogRFtmfnDlkzeU",
      "types": [
        "administrative_area_level_1",
        "political"
      ]
    },
    {
      "address_components": [
        {
          "long_name": "United States",
          "short_name": "US",
          "types": [
            "country",
            "political"
          ]
        }
      ],
      "formatted_address": "United States",
      "geometry": {
        "bounds": {
          "northeast": {
            "lat": 71.3867745,
            "lng": -66.9502861
          },
          "southwest": {
            "lat": 18.9106768,
            "lng": 172.4458955
          }
        },
        "location": {
          "lat": 37.09024,
          "lng": -95.712891
        },
        "location_type": "APPROXIMATE",
        "viewport": {
          "northeast": {
            "lat": 49.38,
            "lng": -66.94
          },
          "southwest": {
            "lat": 25.82,
            "lng": -124.39
          }
        }
      },
      "place_id": "ChIJCzYy5IS16lQRQrfeQ5K5Oxw",
      "types": [
        "country",
        "political"
      ]
    }
  ],
  "status": "OK"
}
