{
  "results": [
    {
      "address_components": [
        {
          "long_name": "105",
          "short_name": "105",
          "types": [
            "street_number"
          ]
        },
        {
          "long_name": "SSR O",
          "short_name": "SSR O",
          "types": [
            "route"
          ]
        },
        {
          "long_name": "Oronogo",
          "short_name": "Oronogo",
          "types": [
            "locality",
            "political"
          ]
        },
        {
          "long_name": "Mineral Township",
          "short_name": "Mineral Township",
          "types": [
            "administrative_area_level_3",
            "political"
          ]
        },
        {
          "long_name": "Jasper County",
          "short_name": "Jasper County",
          "types": [
            "administrative_area_level_2",
            "political"
          ]
        },
        {
          "long_name": "Missouri",
          "short_name": "MO",
          "types": [
            "administrative_area_level_1",
            "political"
          ]
        },
        {
          "long_name": "United States",
          "short_name": "US",
          "types": [
            "country",
            "political"
          ]
        },
        {
          "long_name": "64855",
          "short_name": "64855",
          "types": [
            "postal_code"
          ]
        }
      ],
      "formatted_address": "105 SSR O, Oronogo, MO 64855, USA",
      "geometry": {
        "location": {
          "lat": 37.23724199999999,
          "lng": -94.417434
        },
        "location_type": "ROOFTOP",
        "viewport": {
          "northeast": {
            "lat": 37.2385909802915,
            "lng": -94.41608501970849
          },
          "southwest": {
            "lat": 37.2358930197085,
            "lng": -94.41878298029151
          }
        }
      },
      "place_id": "ChIJ_Uuu7z_Vx4cR4CpQkgXjqLM",
      "types": [
        "street_address"
      ]
    },
    {
      "address_components": [
        {
          "long_name": "Alba",
          "short_name": "Alba",
          "types": [
            "locality",
            "political"
          ]
        },
        {
          "long_name": "Mineral Township",
          "short_name": "Mineral Township",
          "types": [
            "administrative_area_level_3",
            "political"
          ]
        },
        {
          "long_name": "Jasper County",
          "short_name": "Jasper County",
          "types": [
            "administrative_area_level_2",
            "political"
          ]
        },
        {
          "long_name": "Missouri",
          "short_name": "MO",
          "types": [
            "administrative_area_level_1",
            "political"
          ]
        },
        {
          "long_name": "United States",
          "short_name": "US",
          "types": [
            "country",
            "political"
          ]
        }
      ],
      "formatted_address": "Alba, MO, USA",
      "geometry": {
        "bounds": {
          "northeast": {
            "lat": 37.2422479,
            "lng": -94.413185
          },
          "southwest": {
            "lat": 37.2318511,
            "lng": -94.42375799999999
          }
        },
        "location": {
          "lat": 37.2383894,
          "lng": -94.4174489
        },
        "location_type": "APPROXIMATE",
        "viewport": {
          "northeast": {
            "lat": 37.2422479,
            "lng": -94.413185
          },
          "southwest": {
            "lat": 37.2318511,
            "lng": -94.42375799999999
          }
        }
      },
      "place_id": "ChIJ0YpEVxXVx4cRQevSH-ZpLKU",
      "types": [
        "locality",
        "political"
      ]
    },
    {
      "address_components": [
        {
          "long_name": "64830",
          "short_name": "64830",
          "types": [
            "postal_code"
          ]
        },
        {
          "long_name": "Alba",
          "short_name": "Alba",
          "types": [
            "locality",
            "political"
          ]
        },
        {
          "long_name": "Mineral Township",
          "short_name": "Mineral Township",
          "types": [
            "administrative_area_level_3",
            "political"
          ]
        },
        {
          "long_name": "Jasper County",
          "short_name": "Jasper County",
          "types": [
            "administrative_area_level_2",
            "political"
          ]
        },
        {
          "long_name": "Missouri",
          "short_name": "MO",
          "types": [
            "administrative_area_level_1",
            "political"
          ]
        },
        {
          "long_name": "United States",
          "short_name": "US",
          "types": [
            "country",
            "political"
          ]
        }
      ],
      "formatted_address": "Alba, MO 64830, USA",
      "geometry": {
        "bounds": {
          "northeast": {
            "lat": 37.2399489,
            "lng": -94.41645489999999
          },
          "southwest": {
            "lat": 37.233141,
            "lng": -94.42000980000002
          }
        },
        "location": {
          "lat": 37.2357699,
          "lng": -94.4175659
        },
        "location_type": "APPROXIMATE",
        "viewport": {
          "northeast": {
            "lat": 37.2399489,
            "lng": -94.41645489999999
          },
          "southwest": {
            "lat": 37.233141,
            "lng": -94.42000980000002
          }
        }
      },
      "place_id": "ChIJe704VxXVx4cRyFjkwnCW3Lg",
      "types": [
        "postal_code"
      ]
    },
    {
      "address_components": [
        {
          "long_name": "Mineral Township",
          "short_name": "Mineral Township",
          "types": [
            "administrative_area_level_3",
            "political"
          ]
        },
        {
          "long_name": "Jasper County",
          "short_name": "Jasper County",
          "types": [
            "administrative_area_level_2",
            "political"
          ]
        },
        {
          "long_name": "Missouri",
          "short_name": "MO",
          "types": [
            "administrative_area_level_1",
            "political"
          ]
        },
        {
          "long_name": "United States",
          "short_name": "US",
          "types": [
            "country",
            "political"
          ]
        }
      ],
      "formatted_address": "Mineral Township, MO, USA",
      "geometry": {
        "bounds": {
          "northeast": {
            "lat": 37.258397,
            "lng": -94.39907
          },
          "southwest": {
            "lat": 37.1550461,
            "lng": -94.510047
          }
        },
        "location": {
          "lat": 37.1921236,
          "lng": -94.4593791
        },
        "location_type": "APPROXIMATE",
        "viewport": {
          "northeast": {
            "lat": 37.258397,
            "lng": -94.39907
          },
          "southwest": {
            "lat": 37.1550461,
            "lng": -94.510047
          }
        }
      },
      "place_id": "ChIJ1dr0Amd_yIcRba1B4nPUCp0",
      "types": [
        "administrative_area_level_3",
        "political"
      ]
    },
    {
      "address_components": [
        {
          "long_name": "Jasper County",
          "short_name": "Jasper County",
          "types": [
            "administrative_area_level_2",
            "political"
          ]
        },
        {
          "long_name": "Missouri",
          "short_name": "MO",
          "types": [
            "administrative_area_level_1",
            "political"
          ]
        },
        {
          "long_name": "United States",
          "short_name": "US",
          "types": [
            "country",
            "political"
          ]
        }
      ],
      "formatted_address": "Jasper County, MO, USA",
      "geometry": {
        "bounds": {
          "northeast": {
            "lat": 37.364173,
            "lng": -94.05231309999999
          },
          "southwest": {
            "lat": 37.048127,
            "lng": -94.6184579
          }
        },
        "location": {
          "lat": 37.17455650000001,
          "lng": -94.35651299999999
        },
        "location_type": "APPROXIMATE",
        "viewport": {
          "northeast": {
            "lat": 37.364173,
            "lng": -94.05231309999999
          },
          "southwest": {
            "lat": 37.048127,
            "lng": -94.6184579
          }
        }
      },
      "place_id": "ChIJQbU6TfIoxocRTrzoDWs-CLc",
      "types": [
        "administrative_area_level_2",
        "political"
      ]
    },
    {
      "address_components": [
        {
          "long_name": "Joplin",
          "short_name": "Joplin",
          "types": [
            "political"
          ]
        },
        {
          "long_name": "United States",
          "short_name": "US",
          "types": [
            "country",
            "political"
          ]
        }
      ],
      "formatted_address": "Joplin, USA",
      "geometry": {
        "bounds": {
          "northeast": {
            "lat": 37.364355,
            "lng": -94.05237199999999
          },
          "southwest": {
            "lat": 36.747867,
            "lng": -94.61865809999999
          }
        },
        "location": {
          "lat": 37.0505583,
          "lng": -94.2333355
        },
        "location_type": "APPROXIMATE",
        "viewport": {
          "northeast": {
            "lat": 37.364355,
            "lng": -94.05237199999999
          },
          "southwest": {
            "lat": 36.747867,
            "lng": -94.61865809999999
          }
        }
      },
      "place_id": "ChIJRa5ZQCOGyIcR3FvsNK6zNFI",
      "types": [
        "political"
      ]
    },
    {
      "address_components": [
        {
          "long_name": "Missouri",
          "short_name": "MO",
          "types": [
            "administrative_area_level_1",
            "political"
          ]
        },
        {
          "long_name": "United States",
          "short_name": "US",
          "types": [
            "country",
            "political"
          ]
        }
      ],
      "formatted_address": "Missouri, USA",
      "geometry": {
        "bounds": {
          "northeast": {
            "lat": 40.61364,
            "lng": -89.09949399999999
          },
          "southwest": {
            "lat": 35.9956829,
            "lng": -95.774704
          }
        },
        "location": {
          "lat": 37.9642529,
          "lng": -91.8318334
        },
        "location_type": "APPROXIMATE",
        "viewport": {
          "northeast": {
            "lat": 40.61364,
            "lng": -89.09949399999999
          },
          "southwest": {
            "lat": 35.9956829,
            "lng": -95.774704
          }
        }
      },
      "place_id": "ChIJfeMiSNXmwIcRcr1mBFnEW7U",
      "types": [
        "administrative_area_level_1",
        "political"
      ]
    },
    {
      "address_components": [
        {
          "long_name": "United States",
          "short_name": "US",
          "types": [
            "country",
            "political"
          ]
        }
      ],
      "formatted_address": "United States",
      "geometry": {
        "bounds": {
          "northeast": {
            "lat": 71.3867745,
            "lng": -66.9502861
          },
          "southwest": {
            "lat": 18.9106768,
            "lng": 172.4458955
          }
        },
        "location": {
          "lat": 37.09024,
          "lng": -95.712891
        },
        "location_type": "APPROXIMATE",
        "viewport": {
          "northeast": {
            "lat": 49.38,
            "lng": -66.94
          },
          "southwest": {
            "lat": 25.82,
            "lng": -124.39
          }
        }
      },
      "place_id": "ChIJCzYy5IS16lQRQrfeQ5K5Oxw",
      "types": [
        "country",
        "political"
      ]
    }
  ],
  "status": "OK"
}
