{
  "results": [
    {
      "address_components": [
        {
          "long_name": "1139-1157",
          "short_name": "1139-1157",
          "types": [
            "street_number"
          ]
        },
        {
          "long_name": "West Broadway Street",
          "short_name": "MO-116",
          "types": [
            "route"
          ]
        },
        {
          "long_name": "Plattsburg",
          "short_name": "Plattsburg",
          "types": [
            "locality",
            "political"
          ]
        },
        {
          "long_name": "Concord Township",
          "short_name": "Concord Township",
          "types": [
            "administrative_area_level_3",
            "political"
          ]
        },
        {
          "long_name": "Clinton County",
          "short_name": "Clinton County",
          "types": [
            "administrative_area_level_2",
            "political"
          ]
        },
        {
          "long_name": "Missouri",
          "short_name": "MO",
          "types": [
            "administrative_area_level_1",
            "political"
          ]
        },
        {
          "long_name": "United States",
          "short_name": "US",
          "types": [
            "country",
            "political"
          ]
        },
        {
          "long_name": "64477",
          "short_name": "64477",
          "types": [
            "postal_code"
          ]
        }
      ],
      "formatted_address": "1139-1157 W Broadway St, Plattsburg, MO 64477, USA",
      "geometry": {
        "bounds": {
          "northeast": {
            "lat": 39.5647528,
            "lng": -94.4613849
          },
          "southwest": {
            "lat": 39.5646534,
            "lng": -94.46184530000001
          }
        },
        "location": {
          "lat": 39.5646495,
          "lng": -94.46143649999999
        },
        "location_type": "RANGE_INTERPOLATED",
        "viewport": {
          "northeast": {
            "lat": 39.5660520802915,
            "lng": -94.46026611970849
          },
          "southwest": {
            "lat": 39.5633541197085,
            "lng": -94.4629640802915
          }
        }
      },
      "place_id": "EjIxMTM5LTExNTcgVyBCcm9hZHdheSBTdCwgUGxhdHRzYnVyZywgTU8gNjQ0NzcsIFVTQQ",
      "types": [
        "street_address"
      ]
    },
    {
      "address_components": [
        {
          "long_name": "Plattsburg",
          "short_name": "Plattsburg",
          "types": [
            "locality",
            "political"
          ]
        },
        {
          "long_name": "Concord Township",
          "short_name": "Concord Township",
          "types": [
            "administrative_area_level_3",
            "political"
          ]
        },
        {
          "long_name": "Clinton County",
          "short_name": "Clinton County",
          "types": [
            "administrative_area_level_2",
            "political"
          ]
        },
        {
          "long_name": "Missouri",
          "short_name": "MO",
          "types": [
            "administrative_area_level_1",
            "political"
          ]
        },
        {
          "long_name": "United States",
          "short_name": "US",
          "types": [
            "country",
            "political"
          ]
        }
      ],
      "formatted_address": "Plattsburg, MO, USA",
      "geometry": {
        "bounds": {
          "northeast": {
            "lat": 39.5830419,
            "lng": -94.4428398
          },
          "southwest": {
            "lat": 39.546425,
            "lng": -94.490612
          }
        },
        "location": {
          "lat": 39.5655549,
          "lng": -94.4480059
        },
        "location_type": "APPROXIMATE",
        "viewport": {
          "northeast": {
            "lat": 39.5830419,
            "lng": -94.4428398
          },
          "southwest": {
            "lat": 39.546425,
            "lng": -94.490612
          }
        }
      },
      "place_id": "ChIJZeFm84o1wIcRcZq0mWaWRYw",
      "types": [
        "locality",
        "political"
      ]
    },
    {
      "address_components": [
        {
          "long_name": "Concord Township",
          "short_name": "Concord Township",
          "types": [
            "administrative_area_level_3",
            "political"
          ]
        },
        {
          "long_name": "Clinton County",
          "short_name": "Clinton County",
          "types": [
            "administrative_area_level_2",
            "political"
          ]
        },
        {
          "long_name": "Missouri",
          "short_name": "MO",
          "types": [
            "administrative_area_level_1",
            "political"
          ]
        },
        {
          "long_name": "United States",
          "short_name": "US",
          "types": [
            "country",
            "political"
          ]
        }
      ],
      "formatted_address": "Concord Township, MO, USA",
      "geometry": {
        "bounds": {
          "northeast": {
            "lat": 39.645224,
            "lng": -94.355914
          },
          "southwest": {
            "lat": 39.528115,
            "lng": -94.49089300000001
          }
        },
        "location": {
          "lat": 39.58869139999999,
          "lng": -94.4182089
        },
        "location_type": "APPROXIMATE",
        "viewport": {
          "northeast": {
            "lat": 39.645224,
            "lng": -94.355914
          },
          "southwest": {
            "lat": 39.528115,
            "lng": -94.49089300000001
          }
        }
      },
      "place_id": "ChIJESBNVRM1wIcRA_sQlrZLqHs",
      "types": [
        "administrative_area_level_3",
        "political"
      ]
    },
    {
      "address_components": [
        {
          "long_name": "64477",
          "short_name": "64477",
          "types": [
            "postal_code"
          ]
        },
        {
          "long_name": "Plattsburg",
          "short_name": "Plattsburg",
          "types": [
            "locality",
            "political"
          ]
        },
        {
          "long_name": "Missouri",
          "short_name": "MO",
          "types": [
            "administrative_area_level_1",
            "political"
          ]
        },
        {
          "long_name": "United States",
          "short_name": "US",
          "types": [
            "country",
            "political"
          ]
        }
      ],
      "formatted_address": "Plattsburg, MO 64477, USA",
      "geometry": {
        "bounds": {
          "northeast": {
            "lat": 39.7445979,
            "lng": -94.2409441
          },
          "southwest": {
            "lat": 39.45519,
            "lng": -94.5457129
          }
        },
        "location": {
          "lat": 39.5871219,
          "lng": -94.4593791
        },
        "location_type": "APPROXIMATE",
        "viewport": {
          "northeast": {
            "lat": 39.683428,
            "lng": -94.37469
          },
          "southwest": {
            "lat": 39.45519,
            "lng": -94.5457129
          }
        }
      },
      "place_id": "ChIJqUGAqwQ1wIcRmUow-d4hOq4",
      "types": [
        "postal_code"
      ]
    },
    {
      "address_components": [
        {
          "long_name": "Clinton County",
          "short_name": "Clinton County",
          "types": [
            "administrative_area_level_2",
            "political"
          ]
        },
        {
          "long_name": "Missouri",
          "short_name": "MO",
          "types": [
            "administrative_area_level_1",
            "political"
          ]
        },
        {
          "long_name": "United States",
          "short_name": "US",
          "types": [
            "country",
            "political"
          ]
        }
      ],
      "formatted_address": "Clinton County, MO, USA",
      "geometry": {
        "bounds": {
          "northeast": {
            "lat": 39.747954,
            "lng": -94.2057339
          },
          "southwest": {
            "lat": 39.4546819,
            "lng": -94.60243
          }
        },
        "location": {
          "lat": 39.6481768,
          "lng": -94.479976
        },
        "location_type": "APPROXIMATE",
        "viewport": {
          "northeast": {
            "lat": 39.747954,
            "lng": -94.2057339
          },
          "southwest": {
            "lat": 39.4546819,
            "lng": -94.60243
          }
        }
      },
      "place_id": "ChIJi7df4Y80wIcRUmERgsBHSxs",
      "types": [
        "administrative_area_level_2",
        "political"
      ]
    },
    {
      "address_components": [
        {
          "long_name": "Kansas City",
          "short_name": "Kansas City",
          "types": [
            "political"
          ]
        },
        {
          "long_name": "United States",
          "short_name": "US",
          "types": [
            "country",
            "political"
          ]
        }
      ],
      "formatted_address": "Kansas City, USA",
      "geometry": {
        "bounds": {
          "northeast": {
            "lat": 39.788955,
            "lng": -93.477233
          },
          "southwest": {
            "lat": 38.026143,
            "lng": -95.5090159
          }
        },
        "location": {
          "lat": 39.0653602,
          "lng": -94.5624426
        },
        "location_type": "APPROXIMATE",
        "viewport": {
          "northeast": {
            "lat": 39.788955,
            "lng": -93.477233
          },
          "southwest": {
            "lat": 38.026143,
            "lng": -95.5090159
          }
        }
      },
      "place_id": "ChIJ5176R2TnwIcRX_TpnWkvgMk",
      "types": [
        "political"
      ]
    },
    {
      "address_components": [
        {
          "long_name": "Missouri",
          "short_name": "MO",
          "types": [
            "administrative_area_level_1",
            "political"
          ]
        },
        {
          "long_name": "United States",
          "short_name": "US",
          "types": [
            "country",
            "political"
          ]
        }
      ],
      "formatted_address": "Missouri, USA",
      "geometry": {
        "bounds": {
          "northeast": {
            "lat": 40.61364,
            "lng": -89.09949399999999
          },
          "southwest": {
            "lat": 35.9956829,
            "lng": -95.774704
          }
        },
        "location": {
          "lat": 37.9642529,
          "lng": -91.8318334
        },
        "location_type": "APPROXIMATE",
        "viewport": {
          "northeast": {
            "lat": 40.61364,
            "lng": -89.09949399999999
          },
          "southwest": {
            "lat": 35.9956829,
            "lng": -95.774704
          }
        }
      },
      "place_id": "ChIJfeMiSNXmwIcRcr1mBFnEW7U",
      "types": [
        "administrative_area_level_1",
        "political"
      ]
    },
    {
      "address_components": [
        {
          "long_name": "United States",
          "short_name": "US",
          "types": [
            "country",
            "political"
          ]
        }
      ],
      "formatted_address": "United States",
      "geometry": {
        "bounds": {
          "northeast": {
            "lat": 71.3867745,
            "lng": -66.9502861
          },
          "southwest": {
            "lat": 18.9106768,
            "lng": 172.4458955
          }
        },
        "location": {
          "lat": 37.09024,
          "lng": -95.712891
        },
        "location_type": "APPROXIMATE",
        "viewport": {
          "northeast": {
            "lat": 49.38,
            "lng": -66.94
          },
          "southwest": {
            "lat": 25.82,
            "lng": -124.39
          }
        }
      },
      "place_id": "ChIJCzYy5IS16lQRQrfeQ5K5Oxw",
      "types": [
        "country",
        "political"
      ]
    }
  ],
  "status": "OK"
}
