{
  "results": [
    {
      "address_components": [
        {
          "long_name": "301-399",
          "short_name": "301-399",
          "types": [
            "street_number"
          ]
        },
        {
          "long_name": "South Vine Street",
          "short_name": "S Vine St",
          "types": [
            "route"
          ]
        },
        {
          "long_name": "Maryville",
          "short_name": "Maryville",
          "types": [
            "locality",
            "political"
          ]
        },
        {
          "long_name": "Polk Township",
          "short_name": "Polk Township",
          "types": [
            "administrative_area_level_3",
            "political"
          ]
        },
        {
          "long_name": "Nodaway County",
          "short_name": "Nodaway County",
          "types": [
            "administrative_area_level_2",
            "political"
          ]
        },
        {
          "long_name": "Missouri",
          "short_name": "MO",
          "types": [
            "administrative_area_level_1",
            "political"
          ]
        },
        {
          "long_name": "United States",
          "short_name": "US",
          "types": [
            "country",
            "political"
          ]
        },
        {
          "long_name": "64468",
          "short_name": "64468",
          "types": [
            "postal_code"
          ]
        },
        {
          "long_name": "2355",
          "short_name": "2355",
          "types": [
            "postal_code_suffix"
          ]
        }
      ],
      "formatted_address": "301-399 S Vine St, Maryville, MO 64468, USA",
      "geometry": {
        "bounds": {
          "northeast": {
            "lat": 40.3438605,
            "lng": -94.8705706
          },
          "southwest": {
            "lat": 40.3429686,
            "lng": -94.8706168
          }
        },
        "location": {
          "lat": 40.3437598,
          "lng": -94.87055699999999
        },
        "location_type": "RANGE_INTERPOLATED",
        "viewport": {
          "northeast": {
            "lat": 40.34476353029149,
            "lng": -94.86924471970849
          },
          "southwest": {
            "lat": 40.3420655697085,
            "lng": -94.8719426802915
          }
        }
      },
      "place_id": "EiszMDEtMzk5IFMgVmluZSBTdCwgTWFyeXZpbGxlLCBNTyA2NDQ2OCwgVVNB",
      "types": [
        "street_address"
      ]
    },
    {
      "address_components": [
        {
          "long_name": "Maryville",
          "short_name": "Maryville",
          "types": [
            "locality",
            "political"
          ]
        },
        {
          "long_name": "Polk Township",
          "short_name": "Polk Township",
          "types": [
            "administrative_area_level_3",
            "political"
          ]
        },
        {
          "long_name": "Nodaway County",
          "short_name": "Nodaway County",
          "types": [
            "administrative_area_level_2",
            "political"
          ]
        },
        {
          "long_name": "Missouri",
          "short_name": "MO",
          "types": [
            "administrative_area_level_1",
            "political"
          ]
        },
        {
          "long_name": "United States",
          "short_name": "US",
          "types": [
            "country",
            "political"
          ]
        },
        {
          "long_name": "64468",
          "short_name": "64468",
          "types": [
            "postal_code"
          ]
        }
      ],
      "formatted_address": "Maryville, MO 64468, USA",
      "geometry": {
        "bounds": {
          "northeast": {
            "lat": 40.386026,
            "lng": -94.80722899999999
          },
          "southwest": {
            "lat": 40.3128521,
            "lng": -94.90037090000001
          }
        },
        "location": {
          "lat": 40.3461017,
          "lng": -94.8724706
        },
        "location_type": "APPROXIMATE",
        "viewport": {
          "northeast": {
            "lat": 40.386026,
            "lng": -94.80722899999999
          },
          "southwest": {
            "lat": 40.3128521,
            "lng": -94.90037090000001
          }
        }
      },
      "place_id": "ChIJnX03UODE6ocRWT3wun6Fkmk",
      "types": [
        "locality",
        "political"
      ]
    },
    {
      "address_components": [
        {
          "long_name": "Polk Township",
          "short_name": "Polk Township",
          "types": [
            "administrative_area_level_3",
            "political"
          ]
        },
        {
          "long_name": "Nodaway County",
          "short_name": "Nodaway County",
          "types": [
            "administrative_area_level_2",
            "political"
          ]
        },
        {
          "long_name": "Missouri",
          "short_name": "MO",
          "types": [
            "administrative_area_level_1",
            "political"
          ]
        },
        {
          "long_name": "United States",
          "short_name": "US",
          "types": [
            "country",
            "political"
          ]
        }
      ],
      "formatted_address": "Polk Township, MO, USA",
      "geometry": {
        "bounds": {
          "northeast": {
            "lat": 40.4336569,
            "lng": -94.75948090000001
          },
          "southwest": {
            "lat": 40.271683,
            "lng": -94.97083909999999
          }
        },
        "location": {
          "lat": 40.329746,
          "lng": -94.8520636
        },
        "location_type": "APPROXIMATE",
        "viewport": {
          "northeast": {
            "lat": 40.4336569,
            "lng": -94.75948090000001
          },
          "southwest": {
            "lat": 40.271683,
            "lng": -94.97083909999999
          }
        }
      },
      "place_id": "ChIJHf-G4RbF6ocR4dqasodJ9-E",
      "types": [
        "administrative_area_level_3",
        "political"
      ]
    },
    {
      "address_components": [
        {
          "long_name": "64468",
          "short_name": "64468",
          "types": [
            "postal_code"
          ]
        },
        {
          "long_name": "Maryville",
          "short_name": "Maryville",
          "types": [
            "locality",
            "political"
          ]
        },
        {
          "long_name": "Nodaway County",
          "short_name": "Nodaway County",
          "types": [
            "administrative_area_level_2",
            "political"
          ]
        },
        {
          "long_name": "Missouri",
          "short_name": "MO",
          "types": [
            "administrative_area_level_1",
            "political"
          ]
        },
        {
          "long_name": "United States",
          "short_name": "US",
          "types": [
            "country",
            "political"
          ]
        }
      ],
      "formatted_address": "Maryville, MO 64468, USA",
      "geometry": {
        "bounds": {
          "northeast": {
            "lat": 40.4485429,
            "lng": -94.7371479
          },
          "southwest": {
            "lat": 40.2161309,
            "lng": -95.009694
          }
        },
        "location": {
          "lat": 40.349238,
          "lng": -94.8728093
        },
        "location_type": "APPROXIMATE",
        "viewport": {
          "northeast": {
            "lat": 40.4485429,
            "lng": -94.7371479
          },
          "southwest": {
            "lat": 40.2161309,
            "lng": -95.009694
          }
        }
      },
      "place_id": "ChIJodlg33HF6ocRnMGAVyC7OC8",
      "types": [
        "postal_code"
      ]
    },
    {
      "address_components": [
        {
          "long_name": "Nodaway County",
          "short_name": "Nodaway County",
          "types": [
            "administrative_area_level_2",
            "political"
          ]
        },
        {
          "long_name": "Missouri",
          "short_name": "MO",
          "types": [
            "administrative_area_level_1",
            "political"
          ]
        },
        {
          "long_name": "United States",
          "short_name": "US",
          "types": [
            "country",
            "political"
          ]
        }
      ],
      "formatted_address": "Nodaway County, MO, USA",
      "geometry": {
        "bounds": {
          "northeast": {
            "lat": 40.578488,
            "lng": -94.59848690000001
          },
          "southwest": {
            "lat": 40.1261269,
            "lng": -95.20240009999999
          }
        },
        "location": {
          "lat": 40.2907281,
          "lng": -94.81059549999999
        },
        "location_type": "APPROXIMATE",
        "viewport": {
          "northeast": {
            "lat": 40.578488,
            "lng": -94.59848690000001
          },
          "southwest": {
            "lat": 40.1261269,
            "lng": -95.20240009999999
          }
        }
      },
      "place_id": "ChIJJTflPxzF6ocR8bF2TAPBcWU",
      "types": [
        "administrative_area_level_2",
        "political"
      ]
    },
    {
      "address_components": [
        {
          "long_name": "Maryville",
          "short_name": "Maryville",
          "types": [
            "political"
          ]
        },
        {
          "long_name": "United States",
          "short_name": "US",
          "types": [
            "country",
            "political"
          ]
        }
      ],
      "formatted_address": "Maryville, USA",
      "geometry": {
        "bounds": {
          "northeast": {
            "lat": 40.5785299,
            "lng": -94.59848699999999
          },
          "southwest": {
            "lat": 40.126161,
            "lng": -95.20242619999999
          }
        },
        "location": {
          "lat": 40.2907281,
          "lng": -94.81059549999999
        },
        "location_type": "APPROXIMATE",
        "viewport": {
          "northeast": {
            "lat": 40.5785299,
            "lng": -94.59848699999999
          },
          "southwest": {
            "lat": 40.126161,
            "lng": -95.20242619999999
          }
        }
      },
      "place_id": "ChIJm7Q8J1DF6ocRDTWHJSY8s-o",
      "types": [
        "political"
      ]
    },
    {
      "address_components": [
        {
          "long_name": "Missouri",
          "short_name": "MO",
          "types": [
            "administrative_area_level_1",
            "political"
          ]
        },
        {
          "long_name": "United States",
          "short_name": "US",
          "types": [
            "country",
            "political"
          ]
        }
      ],
      "formatted_address": "Missouri, USA",
      "geometry": {
        "bounds": {
          "northeast": {
            "lat": 40.61364,
            "lng": -89.09949399999999
          },
          "southwest": {
            "lat": 35.9956829,
            "lng": -95.774704
          }
        },
        "location": {
          "lat": 37.9642529,
          "lng": -91.8318334
        },
        "location_type": "APPROXIMATE",
        "viewport": {
          "northeast": {
            "lat": 40.61364,
            "lng": -89.09949399999999
          },
          "southwest": {
            "lat": 35.9956829,
            "lng": -95.774704
          }
        }
      },
      "place_id": "ChIJfeMiSNXmwIcRcr1mBFnEW7U",
      "types": [
        "administrative_area_level_1",
        "political"
      ]
    },
    {
      "address_components": [
        {
          "long_name": "United States",
          "short_name": "US",
          "types": [
            "country",
            "political"
          ]
        }
      ],
      "formatted_address": "United States",
      "geometry": {
        "bounds": {
          "northeast": {
            "lat": 71.3867745,
            "lng": -66.9502861
          },
          "southwest": {
            "lat": 18.9106768,
            "lng": 172.4458955
          }
        },
        "location": {
          "lat": 37.09024,
          "lng": -95.712891
        },
        "location_type": "APPROXIMATE",
        "viewport": {
          "northeast": {
            "lat": 49.38,
            "lng": -66.94
          },
          "southwest": {
            "lat": 25.82,
            "lng": -124.39
          }
        }
      },
      "place_id": "ChIJCzYy5IS16lQRQrfeQ5K5Oxw",
      "types": [
        "country",
        "political"
      ]
    }
  ],
  "status": "OK"
}
