{
  "results": [
    {
      "address_components": [
        {
          "long_name": "262-298",
          "short_name": "262-298",
          "types": [
            "street_number"
          ]
        },
        {
          "long_name": "West Commercial Street",
          "short_name": "State Hwy P",
          "types": [
            "route"
          ]
        },
        {
          "long_name": "Senath",
          "short_name": "Senath",
          "types": [
            "locality",
            "political"
          ]
        },
        {
          "long_name": "Salem Township",
          "short_name": "Salem Township",
          "types": [
            "administrative_area_level_3",
            "political"
          ]
        },
        {
          "long_name": "Dunklin County",
          "short_name": "Dunklin County",
          "types": [
            "administrative_area_level_2",
            "political"
          ]
        },
        {
          "long_name": "Missouri",
          "short_name": "MO",
          "types": [
            "administrative_area_level_1",
            "political"
          ]
        },
        {
          "long_name": "United States",
          "short_name": "US",
          "types": [
            "country",
            "political"
          ]
        },
        {
          "long_name": "63876",
          "short_name": "63876",
          "types": [
            "postal_code"
          ]
        }
      ],
      "formatted_address": "262-298 W Commercial St, Senath, MO 63876, USA",
      "geometry": {
        "bounds": {
          "northeast": {
            "lat": 36.134099,
            "lng": -90.1612239
          },
          "southwest": {
            "lat": 36.134082,
            "lng": -90.1621529
          }
        },
        "location": {
          "lat": 36.1340693,
          "lng": -90.1613562
        },
        "location_type": "RANGE_INTERPOLATED",
        "viewport": {
          "northeast": {
            "lat": 36.1354394802915,
            "lng": -90.16033941970848
          },
          "southwest": {
            "lat": 36.1327415197085,
            "lng": -90.1630373802915
          }
        }
      },
      "place_id": "Ei4yNjItMjk4IFcgQ29tbWVyY2lhbCBTdCwgU2VuYXRoLCBNTyA2Mzg3NiwgVVNB",
      "types": [
        "street_address"
      ]
    },
    {
      "address_components": [
        {
          "long_name": "Senath",
          "short_name": "Senath",
          "types": [
            "locality",
            "political"
          ]
        },
        {
          "long_name": "Salem Township",
          "short_name": "Salem Township",
          "types": [
            "administrative_area_level_3",
            "political"
          ]
        },
        {
          "long_name": "Dunklin County",
          "short_name": "Dunklin County",
          "types": [
            "administrative_area_level_2",
            "political"
          ]
        },
        {
          "long_name": "Missouri",
          "short_name": "MO",
          "types": [
            "administrative_area_level_1",
            "political"
          ]
        },
        {
          "long_name": "United States",
          "short_name": "US",
          "types": [
            "country",
            "political"
          ]
        },
        {
          "long_name": "63876",
          "short_name": "63876",
          "types": [
            "postal_code"
          ]
        }
      ],
      "formatted_address": "Senath, MO 63876, USA",
      "geometry": {
        "bounds": {
          "northeast": {
            "lat": 36.1449939,
            "lng": -90.14783
          },
          "southwest": {
            "lat": 36.1231098,
            "lng": -90.1730659
          }
        },
        "location": {
          "lat": 36.13423360000001,
          "lng": -90.1598183
        },
        "location_type": "APPROXIMATE",
        "viewport": {
          "northeast": {
            "lat": 36.1449939,
            "lng": -90.14783
          },
          "southwest": {
            "lat": 36.1231098,
            "lng": -90.1730659
          }
        }
      },
      "place_id": "ChIJp0VmOYgQ1ocRafx9VBIzmmU",
      "types": [
        "locality",
        "political"
      ]
    },
    {
      "address_components": [
        {
          "long_name": "63876",
          "short_name": "63876",
          "types": [
            "postal_code"
          ]
        },
        {
          "long_name": "Senath",
          "short_name": "Senath",
          "types": [
            "locality",
            "political"
          ]
        },
        {
          "long_name": "Missouri",
          "short_name": "MO",
          "types": [
            "administrative_area_level_1",
            "political"
          ]
        },
        {
          "long_name": "United States",
          "short_name": "US",
          "types": [
            "country",
            "political"
          ]
        }
      ],
      "formatted_address": "Senath, MO 63876, USA",
      "geometry": {
        "bounds": {
          "northeast": {
            "lat": 36.2078178,
            "lng": -90.07365
          },
          "southwest": {
            "lat": 36.031875,
            "lng": -90.255901
          }
        },
        "location": {
          "lat": 36.1544228,
          "lng": -90.1682271
        },
        "location_type": "APPROXIMATE",
        "viewport": {
          "northeast": {
            "lat": 36.2078178,
            "lng": -90.07365
          },
          "southwest": {
            "lat": 36.031875,
            "lng": -90.255901
          }
        }
      },
      "place_id": "ChIJqeAIDfUQ1ocRyI8D_2AIH_k",
      "types": [
        "postal_code"
      ]
    },
    {
      "address_components": [
        {
          "long_name": "Salem Township",
          "short_name": "Salem Township",
          "types": [
            "administrative_area_level_3",
            "political"
          ]
        },
        {
          "long_name": "Dunklin County",
          "short_name": "Dunklin County",
          "types": [
            "administrative_area_level_2",
            "political"
          ]
        },
        {
          "long_name": "Missouri",
          "short_name": "MO",
          "types": [
            "administrative_area_level_1",
            "political"
          ]
        },
        {
          "long_name": "United States",
          "short_name": "US",
          "types": [
            "country",
            "political"
          ]
        }
      ],
      "formatted_address": "Salem Township, MO, USA",
      "geometry": {
        "bounds": {
          "northeast": {
            "lat": 36.200076,
            "lng": -90.105102
          },
          "southwest": {
            "lat": 35.996772,
            "lng": -90.248734
          }
        },
        "location": {
          "lat": 36.1109042,
          "lng": -90.20571079999999
        },
        "location_type": "APPROXIMATE",
        "viewport": {
          "northeast": {
            "lat": 36.200076,
            "lng": -90.105102
          },
          "southwest": {
            "lat": 35.996772,
            "lng": -90.248734
          }
        }
      },
      "place_id": "ChIJc33Siy8Q1ocRtvb6aJsbg54",
      "types": [
        "administrative_area_level_3",
        "political"
      ]
    },
    {
      "address_components": [
        {
          "long_name": "Kennett",
          "short_name": "Kennett",
          "types": [
            "political"
          ]
        },
        {
          "long_name": "United States",
          "short_name": "US",
          "types": [
            "country",
            "political"
          ]
        }
      ],
      "formatted_address": "Kennett, USA",
      "geometry": {
        "bounds": {
          "northeast": {
            "lat": 36.6308199,
            "lng": -89.95366399999999
          },
          "southwest": {
            "lat": 35.9956829,
            "lng": -90.37789
          }
        },
        "location": {
          "lat": 36.2196795,
          "lng": -90.0373201
        },
        "location_type": "APPROXIMATE",
        "viewport": {
          "northeast": {
            "lat": 36.6308199,
            "lng": -89.95366399999999
          },
          "southwest": {
            "lat": 35.9956829,
            "lng": -90.37789
          }
        }
      },
      "place_id": "ChIJmUQVBw0i1ocRFm3fnpaIsdA",
      "types": [
        "political"
      ]
    },
    {
      "address_components": [
        {
          "long_name": "Dunklin County",
          "short_name": "Dunklin County",
          "types": [
            "administrative_area_level_2",
            "political"
          ]
        },
        {
          "long_name": "Missouri",
          "short_name": "MO",
          "types": [
            "administrative_area_level_1",
            "political"
          ]
        },
        {
          "long_name": "United States",
          "short_name": "US",
          "types": [
            "country",
            "political"
          ]
        }
      ],
      "formatted_address": "Dunklin County, MO, USA",
      "geometry": {
        "bounds": {
          "northeast": {
            "lat": 36.631212,
            "lng": -89.953627
          },
          "southwest": {
            "lat": 35.9956829,
            "lng": -90.37789
          }
        },
        "location": {
          "lat": 36.2364268,
          "lng": -90.055447
        },
        "location_type": "APPROXIMATE",
        "viewport": {
          "northeast": {
            "lat": 36.631212,
            "lng": -89.953627
          },
          "southwest": {
            "lat": 35.9956829,
            "lng": -90.37789
          }
        }
      },
      "place_id": "ChIJPYAw5iUk1ocR3rwrJ4xNBrE",
      "types": [
        "administrative_area_level_2",
        "political"
      ]
    },
    {
      "address_components": [
        {
          "long_name": "Missouri",
          "short_name": "MO",
          "types": [
            "administrative_area_level_1",
            "political"
          ]
        },
        {
          "long_name": "United States",
          "short_name": "US",
          "types": [
            "country",
            "political"
          ]
        }
      ],
      "formatted_address": "Missouri, USA",
      "geometry": {
        "bounds": {
          "northeast": {
            "lat": 40.61364,
            "lng": -89.09949399999999
          },
          "southwest": {
            "lat": 35.9956829,
            "lng": -95.774704
          }
        },
        "location": {
          "lat": 37.9642529,
          "lng": -91.8318334
        },
        "location_type": "APPROXIMATE",
        "viewport": {
          "northeast": {
            "lat": 40.61364,
            "lng": -89.09949399999999
          },
          "southwest": {
            "lat": 35.9956829,
            "lng": -95.774704
          }
        }
      },
      "place_id": "ChIJfeMiSNXmwIcRcr1mBFnEW7U",
      "types": [
        "administrative_area_level_1",
        "political"
      ]
    },
    {
      "address_components": [
        {
          "long_name": "United States",
          "short_name": "US",
          "types": [
            "country",
            "political"
          ]
        }
      ],
      "formatted_address": "United States",
      "geometry": {
        "bounds": {
          "northeast": {
            "lat": 71.3867745,
            "lng": -66.9502861
          },
          "southwest": {
            "lat": 18.9106768,
            "lng": 172.4458955
          }
        },
        "location": {
          "lat": 37.09024,
          "lng": -95.712891
        },
        "location_type": "APPROXIMATE",
        "viewport": {
          "northeast": {
            "lat": 49.38,
            "lng": -66.94
          },
          "southwest": {
            "lat": 25.82,
            "lng": -124.39
          }
        }
      },
      "place_id": "ChIJCzYy5IS16lQRQrfeQ5K5Oxw",
      "types": [
        "country",
        "political"
      ]
    }
  ],
  "status": "OK"
}
