{
  "results": [
    {
      "address_components": [
        {
          "long_name": "210",
          "short_name": "210",
          "types": [
            "street_number"
          ]
        },
        {
          "long_name": "Center Avenue",
          "short_name": "Center Ave",
          "types": [
            "route"
          ]
        },
        {
          "long_name": "Republican City",
          "short_name": "Republican City",
          "types": [
            "locality",
            "political"
          ]
        },
        {
          "long_name": "Mullally",
          "short_name": "Mullally",
          "types": [
            "administrative_area_level_3",
            "political"
          ]
        },
        {
          "long_name": "Harlan County",
          "short_name": "Harlan County",
          "types": [
            "administrative_area_level_2",
            "political"
          ]
        },
        {
          "long_name": "Nebraska",
          "short_name": "NE",
          "types": [
            "administrative_area_level_1",
            "political"
          ]
        },
        {
          "long_name": "United States",
          "short_name": "US",
          "types": [
            "country",
            "political"
          ]
        },
        {
          "long_name": "68971",
          "short_name": "68971",
          "types": [
            "postal_code"
          ]
        },
        {
          "long_name": "7110",
          "short_name": "7110",
          "types": [
            "postal_code_suffix"
          ]
        }
      ],
      "formatted_address": "210 Center Ave, Republican City, NE 68971, USA",
      "geometry": {
        "location": {
          "lat": 40.0987678,
          "lng": -99.222146
        },
        "location_type": "ROOFTOP",
        "viewport": {
          "northeast": {
            "lat": 40.1001167802915,
            "lng": -99.2207970197085
          },
          "southwest": {
            "lat": 40.0974188197085,
            "lng": -99.2234949802915
          }
        }
      },
      "place_id": "ChIJK-53W5syn4cRIMxjWRDp1tc",
      "types": [
        "street_address"
      ]
    },
    {
      "address_components": [
        {
          "long_name": "Republican City",
          "short_name": "Republican City",
          "types": [
            "locality",
            "political"
          ]
        },
        {
          "long_name": "Mullally",
          "short_name": "Mullally",
          "types": [
            "administrative_area_level_3",
            "political"
          ]
        },
        {
          "long_name": "Harlan County",
          "short_name": "Harlan County",
          "types": [
            "administrative_area_level_2",
            "political"
          ]
        },
        {
          "long_name": "Nebraska",
          "short_name": "NE",
          "types": [
            "administrative_area_level_1",
            "political"
          ]
        },
        {
          "long_name": "United States",
          "short_name": "US",
          "types": [
            "country",
            "political"
          ]
        }
      ],
      "formatted_address": "Republican City, NE, USA",
      "geometry": {
        "bounds": {
          "northeast": {
            "lat": 40.103667,
            "lng": -99.21707099999999
          },
          "southwest": {
            "lat": 40.0933431,
            "lng": -99.227019
          }
        },
        "location": {
          "lat": 40.0997338,
          "lng": -99.2203698
        },
        "location_type": "APPROXIMATE",
        "viewport": {
          "northeast": {
            "lat": 40.103667,
            "lng": -99.21707099999999
          },
          "southwest": {
            "lat": 40.0933431,
            "lng": -99.227019
          }
        }
      },
      "place_id": "ChIJf1LW60Uqn4cRGut2W0st_Nc",
      "types": [
        "locality",
        "political"
      ]
    },
    {
      "address_components": [
        {
          "long_name": "Mullally",
          "short_name": "Mullally",
          "types": [
            "administrative_area_level_3",
            "political"
          ]
        },
        {
          "long_name": "Harlan County",
          "short_name": "Harlan County",
          "types": [
            "administrative_area_level_2",
            "political"
          ]
        },
        {
          "long_name": "Nebraska",
          "short_name": "NE",
          "types": [
            "administrative_area_level_1",
            "political"
          ]
        },
        {
          "long_name": "United States",
          "short_name": "US",
          "types": [
            "country",
            "political"
          ]
        }
      ],
      "formatted_address": "Mullally, NE, USA",
      "geometry": {
        "bounds": {
          "northeast": {
            "lat": 40.1764579,
            "lng": -99.1791228
          },
          "southwest": {
            "lat": 40.089081,
            "lng": -99.29233409999999
          }
        },
        "location": {
          "lat": 40.1219002,
          "lng": -99.2563859
        },
        "location_type": "APPROXIMATE",
        "viewport": {
          "northeast": {
            "lat": 40.1764579,
            "lng": -99.1791228
          },
          "southwest": {
            "lat": 40.089081,
            "lng": -99.29233409999999
          }
        }
      },
      "place_id": "ChIJ8bYnwqctn4cRVepvA64h2tA",
      "types": [
        "administrative_area_level_3",
        "political"
      ]
    },
    {
      "address_components": [
        {
          "long_name": "68971",
          "short_name": "68971",
          "types": [
            "postal_code"
          ]
        },
        {
          "long_name": "Republican City",
          "short_name": "Republican City",
          "types": [
            "locality",
            "political"
          ]
        },
        {
          "long_name": "Nebraska",
          "short_name": "NE",
          "types": [
            "administrative_area_level_1",
            "political"
          ]
        },
        {
          "long_name": "United States",
          "short_name": "US",
          "types": [
            "country",
            "political"
          ]
        }
      ],
      "formatted_address": "Republican City, NE 68971, USA",
      "geometry": {
        "bounds": {
          "northeast": {
            "lat": 40.2344639,
            "lng": -99.178985
          },
          "southwest": {
            "lat": 40.0018121,
            "lng": -99.32995389999999
          }
        },
        "location": {
          "lat": 40.1219002,
          "lng": -99.2563859
        },
        "location_type": "APPROXIMATE",
        "viewport": {
          "northeast": {
            "lat": 40.2344639,
            "lng": -99.178985
          },
          "southwest": {
            "lat": 40.0018121,
            "lng": -99.32995389999999
          }
        }
      },
      "place_id": "ChIJf1LW60Uqn4cRkza81gbX2Dc",
      "postcode_localities": [
        "Huntley",
        "REPUB CITY",
        "Republican City"
      ],
      "types": [
        "postal_code"
      ]
    },
    {
      "address_components": [
        {
          "long_name": "Harlan County",
          "short_name": "Harlan County",
          "types": [
            "administrative_area_level_2",
            "political"
          ]
        },
        {
          "long_name": "Nebraska",
          "short_name": "NE",
          "types": [
            "administrative_area_level_1",
            "political"
          ]
        },
        {
          "long_name": "United States",
          "short_name": "US",
          "types": [
            "country",
            "political"
          ]
        }
      ],
      "formatted_address": "Harlan County, NE, USA",
      "geometry": {
        "bounds": {
          "northeast": {
            "lat": 40.351591,
            "lng": -99.178975
          },
          "southwest": {
            "lat": 40.0017911,
            "lng": -99.63072110000002
          }
        },
        "location": {
          "lat": 40.1665848,
          "lng": -99.456155
        },
        "location_type": "APPROXIMATE",
        "viewport": {
          "northeast": {
            "lat": 40.351591,
            "lng": -99.178975
          },
          "southwest": {
            "lat": 40.0017911,
            "lng": -99.63072110000002
          }
        }
      },
      "place_id": "ChIJOWDwomfZnocRKcCGec6fG5w",
      "types": [
        "administrative_area_level_2",
        "political"
      ]
    },
    {
      "address_components": [
        {
          "long_name": "Nebraska",
          "short_name": "NE",
          "types": [
            "administrative_area_level_1",
            "political"
          ]
        },
        {
          "long_name": "United States",
          "short_name": "US",
          "types": [
            "country",
            "political"
          ]
        }
      ],
      "formatted_address": "Nebraska, USA",
      "geometry": {
        "bounds": {
          "northeast": {
            "lat": 43.00170689999999,
            "lng": -95.30829000000001
          },
          "southwest": {
            "lat": 39.999932,
            "lng": -104.053514
          }
        },
        "location": {
          "lat": 41.4925374,
          "lng": -99.9018131
        },
        "location_type": "APPROXIMATE",
        "viewport": {
          "northeast": {
            "lat": 43.00170689999999,
            "lng": -95.30829000000001
          },
          "southwest": {
            "lat": 39.999932,
            "lng": -104.053514
          }
        }
      },
      "place_id": "ChIJ7fwMtciNk4cRxArzDwyQJ6E",
      "types": [
        "administrative_area_level_1",
        "political"
      ]
    },
    {
      "address_components": [
        {
          "long_name": "United States",
          "short_name": "US",
          "types": [
            "country",
            "political"
          ]
        }
      ],
      "formatted_address": "United States",
      "geometry": {
        "bounds": {
          "northeast": {
            "lat": 71.3867745,
            "lng": -66.9502861
          },
          "southwest": {
            "lat": 18.9106768,
            "lng": 172.4458955
          }
        },
        "location": {
          "lat": 37.09024,
          "lng": -95.712891
        },
        "location_type": "APPROXIMATE",
        "viewport": {
          "northeast": {
            "lat": 49.38,
            "lng": -66.94
          },
          "southwest": {
            "lat": 25.82,
            "lng": -124.39
          }
        }
      },
      "place_id": "ChIJCzYy5IS16lQRQrfeQ5K5Oxw",
      "types": [
        "country",
        "political"
      ]
    }
  ],
  "status": "OK"
}
