{
  "results": [
    {
      "address_components": [
        {
          "long_name": "199",
          "short_name": "199",
          "types": [
            "street_number"
          ]
        },
        {
          "long_name": "Huber Street",
          "short_name": "Huber St",
          "types": [
            "route"
          ]
        },
        {
          "long_name": "Bluffton",
          "short_name": "Bluffton",
          "types": [
            "locality",
            "political"
          ]
        },
        {
          "long_name": "Richland Township",
          "short_name": "Richland Township",
          "types": [
            "administrative_area_level_3",
            "political"
          ]
        },
        {
          "long_name": "Allen County",
          "short_name": "Allen County",
          "types": [
            "administrative_area_level_2",
            "political"
          ]
        },
        {
          "long_name": "Ohio",
          "short_name": "OH",
          "types": [
            "administrative_area_level_1",
            "political"
          ]
        },
        {
          "long_name": "United States",
          "short_name": "US",
          "types": [
            "country",
            "political"
          ]
        },
        {
          "long_name": "45817",
          "short_name": "45817",
          "types": [
            "postal_code"
          ]
        },
        {
          "long_name": "1338",
          "short_name": "1338",
          "types": [
            "postal_code_suffix"
          ]
        }
      ],
      "formatted_address": "199 Huber St, Bluffton, OH 45817, USA",
      "geometry": {
        "location": {
          "lat": 40.891418,
          "lng": -83.886184
        },
        "location_type": "ROOFTOP",
        "viewport": {
          "northeast": {
            "lat": 40.8927669802915,
            "lng": -83.88483501970849
          },
          "southwest": {
            "lat": 40.89006901970851,
            "lng": -83.88753298029151
          }
        }
      },
      "place_id": "ChIJwZCQvTO8PogR3NQC6jK3pCo",
      "types": [
        "street_address"
      ]
    },
    {
      "address_components": [
        {
          "long_name": "Bluffton",
          "short_name": "Bluffton",
          "types": [
            "locality",
            "political"
          ]
        },
        {
          "long_name": "Allen County",
          "short_name": "Allen County",
          "types": [
            "administrative_area_level_2",
            "political"
          ]
        },
        {
          "long_name": "Ohio",
          "short_name": "OH",
          "types": [
            "administrative_area_level_1",
            "political"
          ]
        },
        {
          "long_name": "United States",
          "short_name": "US",
          "types": [
            "country",
            "political"
          ]
        },
        {
          "long_name": "45817",
          "short_name": "45817",
          "types": [
            "postal_code"
          ]
        }
      ],
      "formatted_address": "Bluffton, OH 45817, USA",
      "geometry": {
        "bounds": {
          "northeast": {
            "lat": 40.905945,
            "lng": -83.85707579999999
          },
          "southwest": {
            "lat": 40.8761949,
            "lng": -83.9143991
          }
        },
        "location": {
          "lat": 40.8953301,
          "lng": -83.8888288
        },
        "location_type": "APPROXIMATE",
        "viewport": {
          "northeast": {
            "lat": 40.905945,
            "lng": -83.85707579999999
          },
          "southwest": {
            "lat": 40.8761949,
            "lng": -83.9143991
          }
        }
      },
      "place_id": "ChIJUwxfENO9PogRcDTdOgcIU7c",
      "types": [
        "locality",
        "political"
      ]
    },
    {
      "address_components": [
        {
          "long_name": "Richland Township",
          "short_name": "Richland Township",
          "types": [
            "administrative_area_level_3",
            "political"
          ]
        },
        {
          "long_name": "Allen County",
          "short_name": "Allen County",
          "types": [
            "administrative_area_level_2",
            "political"
          ]
        },
        {
          "long_name": "Ohio",
          "short_name": "OH",
          "types": [
            "administrative_area_level_1",
            "political"
          ]
        },
        {
          "long_name": "United States",
          "short_name": "US",
          "types": [
            "country",
            "political"
          ]
        }
      ],
      "formatted_address": "Richland Township, OH, USA",
      "geometry": {
        "bounds": {
          "northeast": {
            "lat": 40.920429,
            "lng": -83.88006299999999
          },
          "southwest": {
            "lat": 40.8179909,
            "lng": -83.99529
          }
        },
        "location": {
          "lat": 40.8610038,
          "lng": -83.9532571
        },
        "location_type": "APPROXIMATE",
        "viewport": {
          "northeast": {
            "lat": 40.920429,
            "lng": -83.88006299999999
          },
          "southwest": {
            "lat": 40.8179909,
            "lng": -83.99529
          }
        }
      },
      "place_id": "ChIJ47o7tPCVPogRlftjfjAisXk",
      "types": [
        "administrative_area_level_3",
        "political"
      ]
    },
    {
      "address_components": [
        {
          "long_name": "45817",
          "short_name": "45817",
          "types": [
            "postal_code"
          ]
        },
        {
          "long_name": "Bluffton",
          "short_name": "Bluffton",
          "types": [
            "locality",
            "political"
          ]
        },
        {
          "long_name": "Ohio",
          "short_name": "OH",
          "types": [
            "administrative_area_level_1",
            "political"
          ]
        },
        {
          "long_name": "United States",
          "short_name": "US",
          "types": [
            "country",
            "political"
          ]
        }
      ],
      "formatted_address": "Bluffton, OH 45817, USA",
      "geometry": {
        "bounds": {
          "northeast": {
            "lat": 40.951271,
            "lng": -83.7850639
          },
          "southwest": {
            "lat": 40.7923749,
            "lng": -83.99484
          }
        },
        "location": {
          "lat": 40.8587757,
          "lng": -83.91089680000002
        },
        "location_type": "APPROXIMATE",
        "viewport": {
          "northeast": {
            "lat": 40.951271,
            "lng": -83.7850639
          },
          "southwest": {
            "lat": 40.7923749,
            "lng": -83.99484
          }
        }
      },
      "place_id": "ChIJC5h9Byq8PogR4SoL4YageeA",
      "types": [
        "postal_code"
      ]
    },
    {
      "address_components": [
        {
          "long_name": "Allen County",
          "short_name": "Allen County",
          "types": [
            "administrative_area_level_2",
            "political"
          ]
        },
        {
          "long_name": "Ohio",
          "short_name": "OH",
          "types": [
            "administrative_area_level_1",
            "political"
          ]
        },
        {
          "long_name": "United States",
          "short_name": "US",
          "types": [
            "country",
            "political"
          ]
        }
      ],
      "formatted_address": "Allen County, OH, USA",
      "geometry": {
        "bounds": {
          "northeast": {
            "lat": 40.920429,
            "lng": -83.87982799999999
          },
          "southwest": {
            "lat": 40.64306879999999,
            "lng": -84.39738
          }
        },
        "location": {
          "lat": 40.769946,
          "lng": -84.14351359999999
        },
        "location_type": "APPROXIMATE",
        "viewport": {
          "northeast": {
            "lat": 40.920429,
            "lng": -83.87982799999999
          },
          "southwest": {
            "lat": 40.64306879999999,
            "lng": -84.39738
          }
        }
      },
      "place_id": "ChIJixlIvmjBPogRsp0DvqcXbj0",
      "types": [
        "administrative_area_level_2",
        "political"
      ]
    },
    {
      "address_components": [
        {
          "long_name": "Lima",
          "short_name": "Lima",
          "types": [
            "political"
          ]
        },
        {
          "long_name": "Ohio",
          "short_name": "OH",
          "types": [
            "administrative_area_level_1",
            "political"
          ]
        },
        {
          "long_name": "United States",
          "short_name": "US",
          "types": [
            "country",
            "political"
          ]
        }
      ],
      "formatted_address": "Lima, OH, USA",
      "geometry": {
        "bounds": {
          "northeast": {
            "lat": 40.9205219,
            "lng": -83.8796831
          },
          "southwest": {
            "lat": 40.643049,
            "lng": -84.3974499
          }
        },
        "location": {
          "lat": 40.769946,
          "lng": -84.14351359999999
        },
        "location_type": "APPROXIMATE",
        "viewport": {
          "northeast": {
            "lat": 40.9205219,
            "lng": -83.8796831
          },
          "southwest": {
            "lat": 40.643049,
            "lng": -84.3974499
          }
        }
      },
      "place_id": "ChIJ_0aaOYHyPogRlWLdZ-lGlzQ",
      "types": [
        "political"
      ]
    },
    {
      "address_components": [
        {
          "long_name": "Ohio",
          "short_name": "OH",
          "types": [
            "administrative_area_level_1",
            "political"
          ]
        },
        {
          "long_name": "United States",
          "short_name": "US",
          "types": [
            "country",
            "political"
          ]
        }
      ],
      "formatted_address": "Ohio, USA",
      "geometry": {
        "bounds": {
          "northeast": {
            "lat": 41.9773019,
            "lng": -80.5182
          },
          "southwest": {
            "lat": 38.4034229,
            "lng": -84.8203049
          }
        },
        "location": {
          "lat": 40.4172871,
          "lng": -82.90712300000001
        },
        "location_type": "APPROXIMATE",
        "viewport": {
          "northeast": {
            "lat": 41.9773019,
            "lng": -80.5182
          },
          "southwest": {
            "lat": 38.4034229,
            "lng": -84.8203049
          }
        }
      },
      "place_id": "ChIJwY5NtXrpNogRFtmfnDlkzeU",
      "types": [
        "administrative_area_level_1",
        "political"
      ]
    },
    {
      "address_components": [
        {
          "long_name": "United States",
          "short_name": "US",
          "types": [
            "country",
            "political"
          ]
        }
      ],
      "formatted_address": "United States",
      "geometry": {
        "bounds": {
          "northeast": {
            "lat": 71.3867745,
            "lng": -66.9502861
          },
          "southwest": {
            "lat": 18.9106768,
            "lng": 172.4458955
          }
        },
        "location": {
          "lat": 37.09024,
          "lng": -95.712891
        },
        "location_type": "APPROXIMATE",
        "viewport": {
          "northeast": {
            "lat": 49.38,
            "lng": -66.94
          },
          "southwest": {
            "lat": 25.82,
            "lng": -124.39
          }
        }
      },
      "place_id": "ChIJCzYy5IS16lQRQrfeQ5K5Oxw",
      "types": [
        "country",
        "political"
      ]
    }
  ],
  "status": "OK"
}
