{
  "results": [
    {
      "address_components": [
        {
          "long_name": "5168-5274",
          "short_name": "5168-5274",
          "types": [
            "street_number"
          ]
        },
        {
          "long_name": "U.S. 35",
          "short_name": "US-35",
          "types": [
            "route"
          ]
        },
        {
          "long_name": "La Porte",
          "short_name": "La Porte",
          "types": [
            "locality",
            "political"
          ]
        },
        {
          "long_name": "Washington Township",
          "short_name": "Washington Township",
          "types": [
            "administrative_area_level_3",
            "political"
          ]
        },
        {
          "long_name": "LaPorte County",
          "short_name": "LaPorte County",
          "types": [
            "administrative_area_level_2",
            "political"
          ]
        },
        {
          "long_name": "Indiana",
          "short_name": "IN",
          "types": [
            "administrative_area_level_1",
            "political"
          ]
        },
        {
          "long_name": "United States",
          "short_name": "US",
          "types": [
            "country",
            "political"
          ]
        },
        {
          "long_name": "46350",
          "short_name": "46350",
          "types": [
            "postal_code"
          ]
        }
      ],
      "formatted_address": "5168-5274 US-35, La Porte, IN 46350, USA",
      "geometry": {
        "bounds": {
          "northeast": {
            "lat": 41.5306029,
            "lng": -86.6985005
          },
          "southwest": {
            "lat": 41.5301107,
            "lng": -86.69851949999999
          }
        },
        "location": {
          "lat": 41.5302507,
          "lng": -86.6984953
        },
        "location_type": "RANGE_INTERPOLATED",
        "viewport": {
          "northeast": {
            "lat": 41.5317057802915,
            "lng": -86.69716101970849
          },
          "southwest": {
            "lat": 41.5290078197085,
            "lng": -86.6998589802915
          }
        }
      },
      "place_id": "Eig1MTY4LTUyNzQgVVMtMzUsIExhIFBvcnRlLCBJTiA0NjM1MCwgVVNB",
      "types": [
        "street_address"
      ]
    },
    {
      "address_components": [
        {
          "long_name": "Kingsbury",
          "short_name": "Kingsbury",
          "types": [
            "locality",
            "political"
          ]
        },
        {
          "long_name": "Washington Township",
          "short_name": "Washington Township",
          "types": [
            "administrative_area_level_3",
            "political"
          ]
        },
        {
          "long_name": "LaPorte County",
          "short_name": "LaPorte County",
          "types": [
            "administrative_area_level_2",
            "political"
          ]
        },
        {
          "long_name": "Indiana",
          "short_name": "IN",
          "types": [
            "administrative_area_level_1",
            "political"
          ]
        },
        {
          "long_name": "United States",
          "short_name": "US",
          "types": [
            "country",
            "political"
          ]
        }
      ],
      "formatted_address": "Kingsbury, IN, USA",
      "geometry": {
        "bounds": {
          "northeast": {
            "lat": 41.5391589,
            "lng": -86.69043909999999
          },
          "southwest": {
            "lat": 41.517048,
            "lng": -86.7034158
          }
        },
        "location": {
          "lat": 41.5275433,
          "lng": -86.7000204
        },
        "location_type": "APPROXIMATE",
        "viewport": {
          "northeast": {
            "lat": 41.5391589,
            "lng": -86.69043909999999
          },
          "southwest": {
            "lat": 41.517048,
            "lng": -86.7034158
          }
        }
      },
      "place_id": "ChIJz3jo7-NsEYgRI0c4Px9_vw4",
      "types": [
        "locality",
        "political"
      ]
    },
    {
      "address_components": [
        {
          "long_name": "Washington Township",
          "short_name": "Washington Township",
          "types": [
            "administrative_area_level_3",
            "political"
          ]
        },
        {
          "long_name": "LaPorte County",
          "short_name": "LaPorte County",
          "types": [
            "administrative_area_level_2",
            "political"
          ]
        },
        {
          "long_name": "Indiana",
          "short_name": "IN",
          "types": [
            "administrative_area_level_1",
            "political"
          ]
        },
        {
          "long_name": "United States",
          "short_name": "US",
          "types": [
            "country",
            "political"
          ]
        }
      ],
      "formatted_address": "Washington Township, IN, USA",
      "geometry": {
        "bounds": {
          "northeast": {
            "lat": 41.548476,
            "lng": -86.581755
          },
          "southwest": {
            "lat": 41.490586,
            "lng": -86.726272
          }
        },
        "location": {
          "lat": 41.5226199,
          "lng": -86.65103289999999
        },
        "location_type": "APPROXIMATE",
        "viewport": {
          "northeast": {
            "lat": 41.548476,
            "lng": -86.581755
          },
          "southwest": {
            "lat": 41.490586,
            "lng": -86.726272
          }
        }
      },
      "place_id": "ChIJlZWJeHBrEYgRz4kwmM3s6R8",
      "types": [
        "administrative_area_level_3",
        "political"
      ]
    },
    {
      "address_components": [
        {
          "long_name": "46350",
          "short_name": "46350",
          "types": [
            "postal_code"
          ]
        },
        {
          "long_name": "La Porte",
          "short_name": "La Porte",
          "types": [
            "locality",
            "political"
          ]
        },
        {
          "long_name": "Indiana",
          "short_name": "IN",
          "types": [
            "administrative_area_level_1",
            "political"
          ]
        },
        {
          "long_name": "United States",
          "short_name": "US",
          "types": [
            "country",
            "political"
          ]
        }
      ],
      "formatted_address": "La Porte, IN 46350, USA",
      "geometry": {
        "bounds": {
          "northeast": {
            "lat": 41.759963,
            "lng": -86.5816399
          },
          "southwest": {
            "lat": 41.490522,
            "lng": -86.9014349
          }
        },
        "location": {
          "lat": 41.5939193,
          "lng": -86.7013894
        },
        "location_type": "APPROXIMATE",
        "viewport": {
          "northeast": {
            "lat": 41.759963,
            "lng": -86.5816399
          },
          "southwest": {
            "lat": 41.490522,
            "lng": -86.9014349
          }
        }
      },
      "place_id": "ChIJTVdItAcSEYgR-6Kz8PBtujM",
      "types": [
        "postal_code"
      ]
    },
    {
      "address_components": [
        {
          "long_name": "LaPorte County",
          "short_name": "LaPorte County",
          "types": [
            "administrative_area_level_2",
            "political"
          ]
        },
        {
          "long_name": "Indiana",
          "short_name": "IN",
          "types": [
            "administrative_area_level_1",
            "political"
          ]
        },
        {
          "long_name": "United States",
          "short_name": "US",
          "types": [
            "country",
            "political"
          ]
        }
      ],
      "formatted_address": "LaPorte County, IN, USA",
      "geometry": {
        "bounds": {
          "northeast": {
            "lat": 41.7603547,
            "lng": -86.4862629
          },
          "southwest": {
            "lat": 41.2369411,
            "lng": -86.93273049999999
          }
        },
        "location": {
          "lat": 41.4775131,
          "lng": -86.8220341
        },
        "location_type": "APPROXIMATE",
        "viewport": {
          "northeast": {
            "lat": 41.7603547,
            "lng": -86.4862629
          },
          "southwest": {
            "lat": 41.2369411,
            "lng": -86.93273049999999
          }
        }
      },
      "place_id": "ChIJB2TwW1CfEYgRGzuBfi3N99I",
      "types": [
        "administrative_area_level_2",
        "political"
      ]
    },
    {
      "address_components": [
        {
          "long_name": "Indiana",
          "short_name": "IN",
          "types": [
            "administrative_area_level_1",
            "political"
          ]
        },
        {
          "long_name": "United States",
          "short_name": "US",
          "types": [
            "country",
            "political"
          ]
        }
      ],
      "formatted_address": "Indiana, USA",
      "geometry": {
        "bounds": {
          "northeast": {
            "lat": 41.7606971,
            "lng": -84.784662
          },
          "southwest": {
            "lat": 37.7717419,
            "lng": -88.097892
          }
        },
        "location": {
          "lat": 40.2671941,
          "lng": -86.1349019
        },
        "location_type": "APPROXIMATE",
        "viewport": {
          "northeast": {
            "lat": 41.7606971,
            "lng": -84.784662
          },
          "southwest": {
            "lat": 37.7717419,
            "lng": -88.097892
          }
        }
      },
      "place_id": "ChIJHRv42bxQa4gRcuwyy84vEH4",
      "types": [
        "administrative_area_level_1",
        "political"
      ]
    },
    {
      "address_components": [
        {
          "long_name": "United States",
          "short_name": "US",
          "types": [
            "country",
            "political"
          ]
        }
      ],
      "formatted_address": "United States",
      "geometry": {
        "bounds": {
          "northeast": {
            "lat": 71.3867745,
            "lng": -66.9502861
          },
          "southwest": {
            "lat": 18.9106768,
            "lng": 172.4458955
          }
        },
        "location": {
          "lat": 37.09024,
          "lng": -95.712891
        },
        "location_type": "APPROXIMATE",
        "viewport": {
          "northeast": {
            "lat": 49.38,
            "lng": -66.94
          },
          "southwest": {
            "lat": 25.82,
            "lng": -124.39
          }
        }
      },
      "place_id": "ChIJCzYy5IS16lQRQrfeQ5K5Oxw",
      "types": [
        "country",
        "political"
      ]
    }
  ],
  "status": "OK"
}
