{
  "results": [
    {
      "address_components": [
        {
          "long_name": "9020",
          "short_name": "9020",
          "types": [
            "street_number"
          ]
        },
        {
          "long_name": "Crawfordsville Road",
          "short_name": "Crawfordsville Rd",
          "types": [
            "route"
          ]
        },
        {
          "long_name": "Wayne",
          "short_name": "Wayne",
          "types": [
            "neighborhood",
            "political"
          ]
        },
        {
          "long_name": "Clermont",
          "short_name": "Clermont",
          "types": [
            "locality",
            "political"
          ]
        },
        {
          "long_name": "Wayne Township",
          "short_name": "Wayne Township",
          "types": [
            "administrative_area_level_3",
            "political"
          ]
        },
        {
          "long_name": "Marion County",
          "short_name": "Marion County",
          "types": [
            "administrative_area_level_2",
            "political"
          ]
        },
        {
          "long_name": "Indiana",
          "short_name": "IN",
          "types": [
            "administrative_area_level_1",
            "political"
          ]
        },
        {
          "long_name": "United States",
          "short_name": "US",
          "types": [
            "country",
            "political"
          ]
        },
        {
          "long_name": "46234",
          "short_name": "46234",
          "types": [
            "postal_code"
          ]
        }
      ],
      "formatted_address": "9020 Crawfordsville Rd, Clermont, IN 46234, USA",
      "geometry": {
        "location": {
          "lat": 39.8158773,
          "lng": -86.3212735
        },
        "location_type": "ROOFTOP",
        "viewport": {
          "northeast": {
            "lat": 39.8172262802915,
            "lng": -86.31992451970851
          },
          "southwest": {
            "lat": 39.8145283197085,
            "lng": -86.32262248029151
          }
        }
      },
      "place_id": "ChIJq_fNoj6pbIgRoH5xOOqPJQ0",
      "types": [
        "street_address"
      ]
    },
    {
      "address_components": [
        {
          "long_name": "Clermont",
          "short_name": "Clermont",
          "types": [
            "locality",
            "political"
          ]
        },
        {
          "long_name": "Wayne Township",
          "short_name": "Wayne Township",
          "types": [
            "administrative_area_level_3",
            "political"
          ]
        },
        {
          "long_name": "Marion County",
          "short_name": "Marion County",
          "types": [
            "administrative_area_level_2",
            "political"
          ]
        },
        {
          "long_name": "Indiana",
          "short_name": "IN",
          "types": [
            "administrative_area_level_1",
            "political"
          ]
        },
        {
          "long_name": "United States",
          "short_name": "US",
          "types": [
            "country",
            "political"
          ]
        },
        {
          "long_name": "46234",
          "short_name": "46234",
          "types": [
            "postal_code"
          ]
        }
      ],
      "formatted_address": "Clermont, IN 46234, USA",
      "geometry": {
        "bounds": {
          "northeast": {
            "lat": 39.8278831,
            "lng": -86.3127059
          },
          "southwest": {
            "lat": 39.80717,
            "lng": -86.3272269
          }
        },
        "location": {
          "lat": 39.8097656,
          "lng": -86.3224925
        },
        "location_type": "APPROXIMATE",
        "viewport": {
          "northeast": {
            "lat": 39.8278831,
            "lng": -86.3127059
          },
          "southwest": {
            "lat": 39.80717,
            "lng": -86.3272269
          }
        }
      },
      "place_id": "ChIJP8fPpiKpbIgR1oRZhjogYuE",
      "types": [
        "locality",
        "political"
      ]
    },
    {
      "address_components": [
        {
          "long_name": "Wayne",
          "short_name": "Wayne",
          "types": [
            "neighborhood",
            "political"
          ]
        },
        {
          "long_name": "Indianapolis",
          "short_name": "Indianapolis",
          "types": [
            "locality",
            "political"
          ]
        },
        {
          "long_name": "Wayne Township",
          "short_name": "Wayne Township",
          "types": [
            "administrative_area_level_3",
            "political"
          ]
        },
        {
          "long_name": "Marion County",
          "short_name": "Marion County",
          "types": [
            "administrative_area_level_2",
            "political"
          ]
        },
        {
          "long_name": "Indiana",
          "short_name": "IN",
          "types": [
            "administrative_area_level_1",
            "political"
          ]
        },
        {
          "long_name": "United States",
          "short_name": "US",
          "types": [
            "country",
            "political"
          ]
        }
      ],
      "formatted_address": "Wayne, Indianapolis, IN, USA",
      "geometry": {
        "bounds": {
          "northeast": {
            "lat": 39.823436,
            "lng": -86.195911
          },
          "southwest": {
            "lat": 39.719476,
            "lng": -86.3272913
          }
        },
        "location": {
          "lat": 39.767184,
          "lng": -86.26664629999999
        },
        "location_type": "APPROXIMATE",
        "viewport": {
          "northeast": {
            "lat": 39.823436,
            "lng": -86.195911
          },
          "southwest": {
            "lat": 39.719476,
            "lng": -86.3272913
          }
        }
      },
      "place_id": "ChIJK1vm9xuobIgRHBeSr641Cbw",
      "types": [
        "neighborhood",
        "political"
      ]
    },
    {
      "address_components": [
        {
          "long_name": "46234",
          "short_name": "46234",
          "types": [
            "postal_code"
          ]
        },
        {
          "long_name": "Indianapolis",
          "short_name": "Indianapolis",
          "types": [
            "locality",
            "political"
          ]
        },
        {
          "long_name": "Indiana",
          "short_name": "IN",
          "types": [
            "administrative_area_level_1",
            "political"
          ]
        },
        {
          "long_name": "United States",
          "short_name": "US",
          "types": [
            "country",
            "political"
          ]
        }
      ],
      "formatted_address": "Indianapolis, IN 46234, USA",
      "geometry": {
        "bounds": {
          "northeast": {
            "lat": 39.8592691,
            "lng": -86.2902709
          },
          "southwest": {
            "lat": 39.7551349,
            "lng": -86.3808279
          }
        },
        "location": {
          "lat": 39.8102628,
          "lng": -86.32753509999999
        },
        "location_type": "APPROXIMATE",
        "viewport": {
          "northeast": {
            "lat": 39.8592691,
            "lng": -86.2902709
          },
          "southwest": {
            "lat": 39.7551349,
            "lng": -86.3808279
          }
        }
      },
      "place_id": "ChIJC3YU4S6pbIgRNEf2gglqnS8",
      "postcode_localities": [
        "Clermont",
        "Indianapolis"
      ],
      "types": [
        "postal_code"
      ]
    },
    {
      "address_components": [
        {
          "long_name": "Wayne Township",
          "short_name": "Wayne Township",
          "types": [
            "administrative_area_level_3",
            "political"
          ]
        },
        {
          "long_name": "Marion County",
          "short_name": "Marion County",
          "types": [
            "administrative_area_level_2",
            "political"
          ]
        },
        {
          "long_name": "Indiana",
          "short_name": "IN",
          "types": [
            "administrative_area_level_1",
            "political"
          ]
        },
        {
          "long_name": "United States",
          "short_name": "US",
          "types": [
            "country",
            "political"
          ]
        }
      ],
      "formatted_address": "Wayne Township, IN, USA",
      "geometry": {
        "bounds": {
          "northeast": {
            "lat": 39.8244839,
            "lng": -86.195911
          },
          "southwest": {
            "lat": 39.719476,
            "lng": -86.327291
          }
        },
        "location": {
          "lat": 39.7777971,
          "lng": -86.2767995
        },
        "location_type": "APPROXIMATE",
        "viewport": {
          "northeast": {
            "lat": 39.8244839,
            "lng": -86.195911
          },
          "southwest": {
            "lat": 39.719476,
            "lng": -86.327291
          }
        }
      },
      "place_id": "ChIJ9ZLMZgSobIgRysqnGJFn4fQ",
      "types": [
        "administrative_area_level_3",
        "political"
      ]
    },
    {
      "address_components": [
        {
          "long_name": "Marion County",
          "short_name": "Marion County",
          "types": [
            "administrative_area_level_2",
            "political"
          ]
        },
        {
          "long_name": "Indiana",
          "short_name": "IN",
          "types": [
            "administrative_area_level_1",
            "political"
          ]
        },
        {
          "long_name": "United States",
          "short_name": "US",
          "types": [
            "country",
            "political"
          ]
        }
      ],
      "formatted_address": "Marion County, IN, USA",
      "geometry": {
        "bounds": {
          "northeast": {
            "lat": 39.927392,
            "lng": -85.9373789
          },
          "southwest": {
            "lat": 39.632177,
            "lng": -86.32812109999999
          }
        },
        "location": {
          "lat": 39.83618999999999,
          "lng": -86.17517590000001
        },
        "location_type": "APPROXIMATE",
        "viewport": {
          "northeast": {
            "lat": 39.927392,
            "lng": -85.9373789
          },
          "southwest": {
            "lat": 39.632177,
            "lng": -86.32812109999999
          }
        }
      },
      "place_id": "ChIJsUwSvKZVa4gR8O_1nsKeIbc",
      "types": [
        "administrative_area_level_2",
        "political"
      ]
    },
    {
      "address_components": [
        {
          "long_name": "Indianapolis",
          "short_name": "Indianapolis",
          "types": [
            "political"
          ]
        },
        {
          "long_name": "Indiana",
          "short_name": "IN",
          "types": [
            "administrative_area_level_1",
            "political"
          ]
        },
        {
          "long_name": "United States",
          "short_name": "US",
          "types": [
            "country",
            "political"
          ]
        }
      ],
      "formatted_address": "Indianapolis, IN, USA",
      "geometry": {
        "bounds": {
          "northeast": {
            "lat": 40.218985,
            "lng": -85.5763581
          },
          "southwest": {
            "lat": 39.048355,
            "lng": -87.0149399
          }
        },
        "location": {
          "lat": 39.7616739,
          "lng": -86.41873079999999
        },
        "location_type": "APPROXIMATE",
        "viewport": {
          "northeast": {
            "lat": 40.218985,
            "lng": -85.5763581
          },
          "southwest": {
            "lat": 39.048355,
            "lng": -87.0149399
          }
        }
      },
      "place_id": "ChIJpwnS6GanbIgRYryPufOfANQ",
      "types": [
        "political"
      ]
    },
    {
      "address_components": [
        {
          "long_name": "Indiana",
          "short_name": "IN",
          "types": [
            "administrative_area_level_1",
            "political"
          ]
        },
        {
          "long_name": "United States",
          "short_name": "US",
          "types": [
            "country",
            "political"
          ]
        }
      ],
      "formatted_address": "Indiana, USA",
      "geometry": {
        "bounds": {
          "northeast": {
            "lat": 41.7606971,
            "lng": -84.784662
          },
          "southwest": {
            "lat": 37.7717419,
            "lng": -88.097892
          }
        },
        "location": {
          "lat": 40.2671941,
          "lng": -86.1349019
        },
        "location_type": "APPROXIMATE",
        "viewport": {
          "northeast": {
            "lat": 41.7606971,
            "lng": -84.784662
          },
          "southwest": {
            "lat": 37.7717419,
            "lng": -88.097892
          }
        }
      },
      "place_id": "ChIJHRv42bxQa4gRcuwyy84vEH4",
      "types": [
        "administrative_area_level_1",
        "political"
      ]
    },
    {
      "address_components": [
        {
          "long_name": "United States",
          "short_name": "US",
          "types": [
            "country",
            "political"
          ]
        }
      ],
      "formatted_address": "United States",
      "geometry": {
        "bounds": {
          "northeast": {
            "lat": 71.3867745,
            "lng": -66.9502861
          },
          "southwest": {
            "lat": 18.9106768,
            "lng": 172.4458955
          }
        },
        "location": {
          "lat": 37.09024,
          "lng": -95.712891
        },
        "location_type": "APPROXIMATE",
        "viewport": {
          "northeast": {
            "lat": 49.38,
            "lng": -66.94
          },
          "southwest": {
            "lat": 25.82,
            "lng": -124.39
          }
        }
      },
      "place_id": "ChIJCzYy5IS16lQRQrfeQ5K5Oxw",
      "types": [
        "country",
        "political"
      ]
    }
  ],
  "status": "OK"
}
