{
  "results": [
    {
      "address_components": [
        {
          "long_name": "732",
          "short_name": "732",
          "types": [
            "street_number"
          ]
        },
        {
          "long_name": "Vine Street",
          "short_name": "Vine St",
          "types": [
            "route"
          ]
        },
        {
          "long_name": "Rockport",
          "short_name": "Rockport",
          "types": [
            "locality",
            "political"
          ]
        },
        {
          "long_name": "Ohio Township",
          "short_name": "Ohio Township",
          "types": [
            "administrative_area_level_3",
            "political"
          ]
        },
        {
          "long_name": "Spencer County",
          "short_name": "Spencer County",
          "types": [
            "administrative_area_level_2",
            "political"
          ]
        },
        {
          "long_name": "Indiana",
          "short_name": "IN",
          "types": [
            "administrative_area_level_1",
            "political"
          ]
        },
        {
          "long_name": "United States",
          "short_name": "US",
          "types": [
            "country",
            "political"
          ]
        },
        {
          "long_name": "47635",
          "short_name": "47635",
          "types": [
            "postal_code"
          ]
        },
        {
          "long_name": "1118",
          "short_name": "1118",
          "types": [
            "postal_code_suffix"
          ]
        }
      ],
      "formatted_address": "732 Vine St, Rockport, IN 47635, USA",
      "geometry": {
        "location": {
          "lat": 37.890215,
          "lng": -87.053742
        },
        "location_type": "ROOFTOP",
        "viewport": {
          "northeast": {
            "lat": 37.8915639802915,
            "lng": -87.0523930197085
          },
          "southwest": {
            "lat": 37.8888660197085,
            "lng": -87.05509098029151
          }
        }
      },
      "place_id": "ChIJLyd0FYWtb4gRfdnAkaHBII8",
      "types": [
        "street_address"
      ]
    },
    {
      "address_components": [
        {
          "long_name": "Rockport",
          "short_name": "Rockport",
          "types": [
            "locality",
            "political"
          ]
        },
        {
          "long_name": "Ohio Township",
          "short_name": "Ohio Township",
          "types": [
            "administrative_area_level_3",
            "political"
          ]
        },
        {
          "long_name": "Spencer County",
          "short_name": "Spencer County",
          "types": [
            "administrative_area_level_2",
            "political"
          ]
        },
        {
          "long_name": "Indiana",
          "short_name": "IN",
          "types": [
            "administrative_area_level_1",
            "political"
          ]
        },
        {
          "long_name": "United States",
          "short_name": "US",
          "types": [
            "country",
            "political"
          ]
        }
      ],
      "formatted_address": "Rockport, IN, USA",
      "geometry": {
        "bounds": {
          "northeast": {
            "lat": 37.895145,
            "lng": -87.0430559
          },
          "southwest": {
            "lat": 37.8754149,
            "lng": -87.07114800000001
          }
        },
        "location": {
          "lat": 37.8831055,
          "lng": -87.0494408
        },
        "location_type": "APPROXIMATE",
        "viewport": {
          "northeast": {
            "lat": 37.895145,
            "lng": -87.0430559
          },
          "southwest": {
            "lat": 37.8754149,
            "lng": -87.07114800000001
          }
        }
      },
      "place_id": "ChIJkUlWiZGtb4gRG-aM020pI4E",
      "types": [
        "locality",
        "political"
      ]
    },
    {
      "address_components": [
        {
          "long_name": "Ohio Township",
          "short_name": "Ohio Township",
          "types": [
            "administrative_area_level_3",
            "political"
          ]
        },
        {
          "long_name": "Spencer County",
          "short_name": "Spencer County",
          "types": [
            "administrative_area_level_2",
            "political"
          ]
        },
        {
          "long_name": "Indiana",
          "short_name": "IN",
          "types": [
            "administrative_area_level_1",
            "political"
          ]
        },
        {
          "long_name": "United States",
          "short_name": "US",
          "types": [
            "country",
            "political"
          ]
        }
      ],
      "formatted_address": "Ohio Township, IN, USA",
      "geometry": {
        "bounds": {
          "northeast": {
            "lat": 37.9596879,
            "lng": -87.0177629
          },
          "southwest": {
            "lat": 37.7824189,
            "lng": -87.151499
          }
        },
        "location": {
          "lat": 37.9005385,
          "lng": -87.10237459999999
        },
        "location_type": "APPROXIMATE",
        "viewport": {
          "northeast": {
            "lat": 37.9596879,
            "lng": -87.0177629
          },
          "southwest": {
            "lat": 37.7824189,
            "lng": -87.151499
          }
        }
      },
      "place_id": "ChIJz2jNqz2yb4gRxWtjXY5tpsI",
      "types": [
        "administrative_area_level_3",
        "political"
      ]
    },
    {
      "address_components": [
        {
          "long_name": "47635",
          "short_name": "47635",
          "types": [
            "postal_code"
          ]
        },
        {
          "long_name": "Rockport",
          "short_name": "Rockport",
          "types": [
            "locality",
            "political"
          ]
        },
        {
          "long_name": "Indiana",
          "short_name": "IN",
          "types": [
            "administrative_area_level_1",
            "political"
          ]
        },
        {
          "long_name": "United States",
          "short_name": "US",
          "types": [
            "country",
            "political"
          ]
        }
      ],
      "formatted_address": "Rockport, IN 47635, USA",
      "geometry": {
        "bounds": {
          "northeast": {
            "lat": 37.996443,
            "lng": -86.9112348
          },
          "southwest": {
            "lat": 37.7823091,
            "lng": -87.259867
          }
        },
        "location": {
          "lat": 37.8788523,
          "lng": -87.0824045
        },
        "location_type": "APPROXIMATE",
        "viewport": {
          "northeast": {
            "lat": 37.996443,
            "lng": -86.99027889999999
          },
          "southwest": {
            "lat": 37.7823091,
            "lng": -87.259867
          }
        }
      },
      "place_id": "ChIJURQbK5-yb4gRLXYBbYDfH7A",
      "types": [
        "postal_code"
      ]
    },
    {
      "address_components": [
        {
          "long_name": "Spencer County",
          "short_name": "Spencer County",
          "types": [
            "administrative_area_level_2",
            "political"
          ]
        },
        {
          "long_name": "Indiana",
          "short_name": "IN",
          "types": [
            "administrative_area_level_1",
            "political"
          ]
        },
        {
          "long_name": "United States",
          "short_name": "US",
          "types": [
            "country",
            "political"
          ]
        }
      ],
      "formatted_address": "Spencer County, IN, USA",
      "geometry": {
        "bounds": {
          "northeast": {
            "lat": 38.2051299,
            "lng": -86.76497409999999
          },
          "southwest": {
            "lat": 37.7824189,
            "lng": -87.2684489
          }
        },
        "location": {
          "lat": 37.9832621,
          "lng": -87.0224442
        },
        "location_type": "APPROXIMATE",
        "viewport": {
          "northeast": {
            "lat": 38.2051299,
            "lng": -86.76497409999999
          },
          "southwest": {
            "lat": 37.7824189,
            "lng": -87.2684489
          }
        }
      },
      "place_id": "ChIJrbDOAF5QbogR5M7syHO4xEM",
      "types": [
        "administrative_area_level_2",
        "political"
      ]
    },
    {
      "address_components": [
        {
          "long_name": "Indiana",
          "short_name": "IN",
          "types": [
            "administrative_area_level_1",
            "political"
          ]
        },
        {
          "long_name": "United States",
          "short_name": "US",
          "types": [
            "country",
            "political"
          ]
        }
      ],
      "formatted_address": "Indiana, USA",
      "geometry": {
        "bounds": {
          "northeast": {
            "lat": 41.7606971,
            "lng": -84.784662
          },
          "southwest": {
            "lat": 37.7717419,
            "lng": -88.097892
          }
        },
        "location": {
          "lat": 40.2671941,
          "lng": -86.1349019
        },
        "location_type": "APPROXIMATE",
        "viewport": {
          "northeast": {
            "lat": 41.7606971,
            "lng": -84.784662
          },
          "southwest": {
            "lat": 37.7717419,
            "lng": -88.097892
          }
        }
      },
      "place_id": "ChIJHRv42bxQa4gRcuwyy84vEH4",
      "types": [
        "administrative_area_level_1",
        "political"
      ]
    },
    {
      "address_components": [
        {
          "long_name": "United States",
          "short_name": "US",
          "types": [
            "country",
            "political"
          ]
        }
      ],
      "formatted_address": "United States",
      "geometry": {
        "bounds": {
          "northeast": {
            "lat": 71.3867745,
            "lng": -66.9502861
          },
          "southwest": {
            "lat": 18.9106768,
            "lng": 172.4458955
          }
        },
        "location": {
          "lat": 37.09024,
          "lng": -95.712891
        },
        "location_type": "APPROXIMATE",
        "viewport": {
          "northeast": {
            "lat": 49.38,
            "lng": -66.94
          },
          "southwest": {
            "lat": 25.82,
            "lng": -124.39
          }
        }
      },
      "place_id": "ChIJCzYy5IS16lQRQrfeQ5K5Oxw",
      "types": [
        "country",
        "political"
      ]
    }
  ],
  "status": "OK"
}
