{
  "results": [
    {
      "address_components": [
        {
          "long_name": "East End Road",
          "short_name": "East End Rd",
          "types": [
            "route"
          ]
        },
        {
          "long_name": "Fishers Island",
          "short_name": "Fishers Island",
          "types": [
            "locality",
            "political"
          ]
        },
        {
          "long_name": "Southold",
          "short_name": "Southold",
          "types": [
            "administrative_area_level_3",
            "political"
          ]
        },
        {
          "long_name": "Suffolk County",
          "short_name": "Suffolk County",
          "types": [
            "administrative_area_level_2",
            "political"
          ]
        },
        {
          "long_name": "New York",
          "short_name": "NY",
          "types": [
            "administrative_area_level_1",
            "political"
          ]
        },
        {
          "long_name": "United States",
          "short_name": "US",
          "types": [
            "country",
            "political"
          ]
        },
        {
          "long_name": "06390",
          "short_name": "06390",
          "types": [
            "postal_code"
          ]
        }
      ],
      "formatted_address": "East End Rd, Fishers Island, NY 06390, USA",
      "geometry": {
        "bounds": {
          "northeast": {
            "lat": 41.271921,
            "lng": -71.9880779
          },
          "southwest": {
            "lat": 41.2683051,
            "lng": -71.9890109
          }
        },
        "location": {
          "lat": 41.2700801,
          "lng": -71.9886252
        },
        "location_type": "GEOMETRIC_CENTER",
        "viewport": {
          "northeast": {
            "lat": 41.271921,
            "lng": -71.9871954197085
          },
          "southwest": {
            "lat": 41.2683051,
            "lng": -71.9898933802915
          }
        }
      },
      "place_id": "ChIJbf6QvdAH5okReuM5SBFSL7k",
      "types": [
        "route"
      ]
    },
    {
      "address_components": [
        {
          "long_name": "Fishers Island",
          "short_name": "Fishers Island",
          "types": [
            "locality",
            "political"
          ]
        },
        {
          "long_name": "Southold",
          "short_name": "Southold",
          "types": [
            "administrative_area_level_3",
            "political"
          ]
        },
        {
          "long_name": "Suffolk County",
          "short_name": "Suffolk County",
          "types": [
            "administrative_area_level_2",
            "political"
          ]
        },
        {
          "long_name": "New York",
          "short_name": "NY",
          "types": [
            "administrative_area_level_1",
            "political"
          ]
        },
        {
          "long_name": "United States",
          "short_name": "US",
          "types": [
            "country",
            "political"
          ]
        }
      ],
      "formatted_address": "Fishers Island, NY, USA",
      "geometry": {
        "bounds": {
          "northeast": {
            "lat": 41.2921722,
            "lng": -71.92222
          },
          "southwest": {
            "lat": 41.249508,
            "lng": -72.0380745
          }
        },
        "location": {
          "lat": 41.2554038,
          "lng": -72.033534
        },
        "location_type": "APPROXIMATE",
        "viewport": {
          "northeast": {
            "lat": 41.2921722,
            "lng": -71.92222
          },
          "southwest": {
            "lat": 41.249508,
            "lng": -72.0380745
          }
        }
      },
      "place_id": "ChIJFWI_rGkG5okRUENp5jpcPFU",
      "types": [
        "locality",
        "political"
      ]
    },
    {
      "address_components": [
        {
          "long_name": "06390",
          "short_name": "06390",
          "types": [
            "postal_code"
          ]
        },
        {
          "long_name": "Fishers Island",
          "short_name": "Fishers Island",
          "types": [
            "locality",
            "political"
          ]
        },
        {
          "long_name": "Southold",
          "short_name": "Southold",
          "types": [
            "administrative_area_level_3",
            "political"
          ]
        },
        {
          "long_name": "Suffolk County",
          "short_name": "Suffolk County",
          "types": [
            "administrative_area_level_2",
            "political"
          ]
        },
        {
          "long_name": "New York",
          "short_name": "NY",
          "types": [
            "administrative_area_level_1",
            "political"
          ]
        },
        {
          "long_name": "United States",
          "short_name": "US",
          "types": [
            "country",
            "political"
          ]
        }
      ],
      "formatted_address": "Fishers Island, NY 06390, USA",
      "geometry": {
        "bounds": {
          "northeast": {
            "lat": 41.292179,
            "lng": -71.92221289999999
          },
          "southwest": {
            "lat": 41.249508,
            "lng": -72.0380761
          }
        },
        "location": {
          "lat": 41.26925079999999,
          "lng": -71.9905165
        },
        "location_type": "APPROXIMATE",
        "viewport": {
          "northeast": {
            "lat": 41.292179,
            "lng": -71.92221289999999
          },
          "southwest": {
            "lat": 41.249508,
            "lng": -72.0380761
          }
        }
      },
      "place_id": "ChIJqSjootAH5okR3k8AxZvy17Q",
      "postcode_localities": [
        "FISHERS ISLE",
        "Fishers Island"
      ],
      "types": [
        "postal_code"
      ]
    },
    {
      "address_components": [
        {
          "long_name": "Southold",
          "short_name": "Southold",
          "types": [
            "administrative_area_level_3",
            "political"
          ]
        },
        {
          "long_name": "Suffolk County",
          "short_name": "Suffolk County",
          "types": [
            "administrative_area_level_2",
            "political"
          ]
        },
        {
          "long_name": "New York",
          "short_name": "NY",
          "types": [
            "administrative_area_level_1",
            "political"
          ]
        },
        {
          "long_name": "United States",
          "short_name": "US",
          "types": [
            "country",
            "political"
          ]
        }
      ],
      "formatted_address": "Southold, NY, USA",
      "geometry": {
        "bounds": {
          "northeast": {
            "lat": 41.2923797,
            "lng": -71.9221507
          },
          "southwest": {
            "lat": 40.9521959,
            "lng": -72.5914717
          }
        },
        "location": {
          "lat": 41.0801973,
          "lng": -72.4731529
        },
        "location_type": "APPROXIMATE",
        "viewport": {
          "northeast": {
            "lat": 41.2071765,
            "lng": -72.1057369
          },
          "southwest": {
            "lat": 40.9521959,
            "lng": -72.5914717
          }
        }
      },
      "place_id": "ChIJ8YG9JySh6IkRW6lVj4g7NUw",
      "types": [
        "administrative_area_level_3",
        "political"
      ]
    },
    {
      "address_components": [
        {
          "long_name": "Suffolk County",
          "short_name": "Suffolk County",
          "types": [
            "administrative_area_level_2",
            "political"
          ]
        },
        {
          "long_name": "New York",
          "short_name": "NY",
          "types": [
            "administrative_area_level_1",
            "political"
          ]
        },
        {
          "long_name": "United States",
          "short_name": "US",
          "types": [
            "country",
            "political"
          ]
        }
      ],
      "formatted_address": "Suffolk County, NY, USA",
      "geometry": {
        "bounds": {
          "northeast": {
            "lat": 41.2923797,
            "lng": -71.8562082
          },
          "southwest": {
            "lat": 40.6094203,
            "lng": -73.497125
          }
        },
        "location": {
          "lat": 40.9848784,
          "lng": -72.61511689999999
        },
        "location_type": "APPROXIMATE",
        "viewport": {
          "northeast": {
            "lat": 41.2923194,
            "lng": -71.8562082
          },
          "southwest": {
            "lat": 40.6094203,
            "lng": -73.497125
          }
        }
      },
      "place_id": "ChIJ1_mbyICu4IkRU18dDUkMxJU",
      "types": [
        "administrative_area_level_2",
        "political"
      ]
    },
    {
      "address_components": [
        {
          "long_name": "New York",
          "short_name": "NY",
          "types": [
            "administrative_area_level_1",
            "political"
          ]
        },
        {
          "long_name": "United States",
          "short_name": "US",
          "types": [
            "country",
            "political"
          ]
        }
      ],
      "formatted_address": "New York, USA",
      "geometry": {
        "bounds": {
          "northeast": {
            "lat": 45.015865,
            "lng": -71.85620639999999
          },
          "southwest": {
            "lat": 40.496091,
            "lng": -79.76214379999999
          }
        },
        "location": {
          "lat": 43.2994285,
          "lng": -74.21793260000001
        },
        "location_type": "APPROXIMATE",
        "viewport": {
          "northeast": {
            "lat": 45.015859,
            "lng": -71.85620639999999
          },
          "southwest": {
            "lat": 40.496091,
            "lng": -79.76214379999999
          }
        }
      },
      "place_id": "ChIJqaUj8fBLzEwRZ5UY3sHGz90",
      "types": [
        "administrative_area_level_1",
        "political"
      ]
    },
    {
      "address_components": [
        {
          "long_name": "United States",
          "short_name": "US",
          "types": [
            "country",
            "political"
          ]
        }
      ],
      "formatted_address": "United States",
      "geometry": {
        "bounds": {
          "northeast": {
            "lat": 71.3867745,
            "lng": -66.9502861
          },
          "southwest": {
            "lat": 18.9106768,
            "lng": 172.4458955
          }
        },
        "location": {
          "lat": 37.09024,
          "lng": -95.712891
        },
        "location_type": "APPROXIMATE",
        "viewport": {
          "northeast": {
            "lat": 49.38,
            "lng": -66.94
          },
          "southwest": {
            "lat": 25.82,
            "lng": -124.39
          }
        }
      },
      "place_id": "ChIJCzYy5IS16lQRQrfeQ5K5Oxw",
      "types": [
        "country",
        "political"
      ]
    }
  ],
  "status": "OK"
}
