{
  "results": [
    {
      "address_components": [
        {
          "long_name": "105",
          "short_name": "105",
          "types": [
            "street_number"
          ]
        },
        {
          "long_name": "South Cypress Street",
          "short_name": "S Cypress St",
          "types": [
            "route"
          ]
        },
        {
          "long_name": "Cherokee",
          "short_name": "Cherokee",
          "types": [
            "locality",
            "political"
          ]
        },
        {
          "long_name": "Sheridan",
          "short_name": "Sheridan",
          "types": [
            "administrative_area_level_3",
            "political"
          ]
        },
        {
          "long_name": "Crawford County",
          "short_name": "Crawford County",
          "types": [
            "administrative_area_level_2",
            "political"
          ]
        },
        {
          "long_name": "Kansas",
          "short_name": "KS",
          "types": [
            "administrative_area_level_1",
            "political"
          ]
        },
        {
          "long_name": "United States",
          "short_name": "US",
          "types": [
            "country",
            "political"
          ]
        },
        {
          "long_name": "66724",
          "short_name": "66724",
          "types": [
            "postal_code"
          ]
        }
      ],
      "formatted_address": "105 S Cypress St, Cherokee, KS 66724, USA",
      "geometry": {
        "location": {
          "lat": 37.3450539,
          "lng": -94.82192429999999
        },
        "location_type": "ROOFTOP",
        "viewport": {
          "northeast": {
            "lat": 37.3464028802915,
            "lng": -94.8205753197085
          },
          "southwest": {
            "lat": 37.3437049197085,
            "lng": -94.8232732802915
          }
        }
      },
      "place_id": "ChIJ9ZBMOcPlx4cR--bjLpsJmRk",
      "types": [
        "street_address"
      ]
    },
    {
      "address_components": [
        {
          "long_name": "Cherokee",
          "short_name": "Cherokee",
          "types": [
            "locality",
            "political"
          ]
        },
        {
          "long_name": "Sheridan",
          "short_name": "Sheridan",
          "types": [
            "administrative_area_level_3",
            "political"
          ]
        },
        {
          "long_name": "Crawford County",
          "short_name": "Crawford County",
          "types": [
            "administrative_area_level_2",
            "political"
          ]
        },
        {
          "long_name": "Kansas",
          "short_name": "KS",
          "types": [
            "administrative_area_level_1",
            "political"
          ]
        },
        {
          "long_name": "United States",
          "short_name": "US",
          "types": [
            "country",
            "political"
          ]
        },
        {
          "long_name": "66724",
          "short_name": "66724",
          "types": [
            "postal_code"
          ]
        }
      ],
      "formatted_address": "Cherokee, KS 66724, USA",
      "geometry": {
        "bounds": {
          "northeast": {
            "lat": 37.352346,
            "lng": -94.804976
          },
          "southwest": {
            "lat": 37.3393869,
            "lng": -94.833381
          }
        },
        "location": {
          "lat": 37.3458874,
          "lng": -94.80885040000001
        },
        "location_type": "APPROXIMATE",
        "viewport": {
          "northeast": {
            "lat": 37.352346,
            "lng": -94.804976
          },
          "southwest": {
            "lat": 37.3393869,
            "lng": -94.833381
          }
        }
      },
      "place_id": "ChIJi21rFsHlx4cRhcabSyFG0tM",
      "types": [
        "locality",
        "political"
      ]
    },
    {
      "address_components": [
        {
          "long_name": "66724",
          "short_name": "66724",
          "types": [
            "postal_code"
          ]
        },
        {
          "long_name": "Cherokee",
          "short_name": "Cherokee",
          "types": [
            "locality",
            "political"
          ]
        },
        {
          "long_name": "Kansas",
          "short_name": "KS",
          "types": [
            "administrative_area_level_1",
            "political"
          ]
        },
        {
          "long_name": "United States",
          "short_name": "US",
          "types": [
            "country",
            "political"
          ]
        }
      ],
      "formatted_address": "Cherokee, KS 66724, USA",
      "geometry": {
        "bounds": {
          "northeast": {
            "lat": 37.4118759,
            "lng": -94.796093
          },
          "southwest": {
            "lat": 37.3249178,
            "lng": -94.9230511
          }
        },
        "location": {
          "lat": 37.3577871,
          "lng": -94.86243549999999
        },
        "location_type": "APPROXIMATE",
        "viewport": {
          "northeast": {
            "lat": 37.4118759,
            "lng": -94.796093
          },
          "southwest": {
            "lat": 37.3249178,
            "lng": -94.9230511
          }
        }
      },
      "place_id": "ChIJz9MSD3Hlx4cR2dTFcP4QuIY",
      "types": [
        "postal_code"
      ]
    },
    {
      "address_components": [
        {
          "long_name": "Sheridan",
          "short_name": "Sheridan",
          "types": [
            "administrative_area_level_3",
            "political"
          ]
        },
        {
          "long_name": "Crawford County",
          "short_name": "Crawford County",
          "types": [
            "administrative_area_level_2",
            "political"
          ]
        },
        {
          "long_name": "Kansas",
          "short_name": "KS",
          "types": [
            "administrative_area_level_1",
            "political"
          ]
        },
        {
          "long_name": "United States",
          "short_name": "US",
          "types": [
            "country",
            "political"
          ]
        }
      ],
      "formatted_address": "Sheridan, KS, USA",
      "geometry": {
        "bounds": {
          "northeast": {
            "lat": 37.4564099,
            "lng": -94.777763
          },
          "southwest": {
            "lat": 37.3391189,
            "lng": -94.96065589999999
          }
        },
        "location": {
          "lat": 37.3893401,
          "lng": -94.8728093
        },
        "location_type": "APPROXIMATE",
        "viewport": {
          "northeast": {
            "lat": 37.4564099,
            "lng": -94.777763
          },
          "southwest": {
            "lat": 37.3391189,
            "lng": -94.96065589999999
          }
        }
      },
      "place_id": "ChIJM092obnvx4cRynhSXq16Aps",
      "types": [
        "administrative_area_level_3",
        "political"
      ]
    },
    {
      "address_components": [
        {
          "long_name": "Crawford County",
          "short_name": "Crawford County",
          "types": [
            "administrative_area_level_2",
            "political"
          ]
        },
        {
          "long_name": "Kansas",
          "short_name": "KS",
          "types": [
            "administrative_area_level_1",
            "political"
          ]
        },
        {
          "long_name": "United States",
          "short_name": "US",
          "types": [
            "country",
            "political"
          ]
        }
      ],
      "formatted_address": "Crawford County, KS, USA",
      "geometry": {
        "bounds": {
          "northeast": {
            "lat": 37.674911,
            "lng": -94.6167238
          },
          "southwest": {
            "lat": 37.3382548,
            "lng": -95.0885179
          }
        },
        "location": {
          "lat": 37.45579900000001,
          "lng": -94.81059549999999
        },
        "location_type": "APPROXIMATE",
        "viewport": {
          "northeast": {
            "lat": 37.674911,
            "lng": -94.6167238
          },
          "southwest": {
            "lat": 37.3382548,
            "lng": -95.0885179
          }
        }
      },
      "place_id": "ChIJbyEYrrntx4cR4rzUsxSSlxI",
      "types": [
        "administrative_area_level_2",
        "political"
      ]
    },
    {
      "address_components": [
        {
          "long_name": "Pittsburg",
          "short_name": "Pittsburg",
          "types": [
            "political"
          ]
        },
        {
          "long_name": "United States",
          "short_name": "US",
          "types": [
            "country",
            "political"
          ]
        }
      ],
      "formatted_address": "Pittsburg, USA",
      "geometry": {
        "bounds": {
          "northeast": {
            "lat": 37.674926,
            "lng": -94.61678909999999
          },
          "southwest": {
            "lat": 37.3383289,
            "lng": -95.088363
          }
        },
        "location": {
          "lat": 37.45579900000001,
          "lng": -94.81059549999999
        },
        "location_type": "APPROXIMATE",
        "viewport": {
          "northeast": {
            "lat": 37.674926,
            "lng": -94.61678909999999
          },
          "southwest": {
            "lat": 37.3383289,
            "lng": -95.088363
          }
        }
      },
      "place_id": "ChIJv-_HVP3sx4cRtTuoi6K3ALo",
      "types": [
        "political"
      ]
    },
    {
      "address_components": [
        {
          "long_name": "Kansas",
          "short_name": "KS",
          "types": [
            "administrative_area_level_1",
            "political"
          ]
        },
        {
          "long_name": "United States",
          "short_name": "US",
          "types": [
            "country",
            "political"
          ]
        }
      ],
      "formatted_address": "Kansas, USA",
      "geometry": {
        "bounds": {
          "northeast": {
            "lat": 40.0045419,
            "lng": -94.588387
          },
          "southwest": {
            "lat": 36.9930159,
            "lng": -102.0517688
          }
        },
        "location": {
          "lat": 39.011902,
          "lng": -98.4842465
        },
        "location_type": "APPROXIMATE",
        "viewport": {
          "northeast": {
            "lat": 40.0045419,
            "lng": -94.588387
          },
          "southwest": {
            "lat": 36.9930159,
            "lng": -102.0517688
          }
        }
      },
      "place_id": "ChIJawF8cXEXo4cRXwk-S6m0wmg",
      "types": [
        "administrative_area_level_1",
        "political"
      ]
    },
    {
      "address_components": [
        {
          "long_name": "United States",
          "short_name": "US",
          "types": [
            "country",
            "political"
          ]
        }
      ],
      "formatted_address": "United States",
      "geometry": {
        "bounds": {
          "northeast": {
            "lat": 71.3867745,
            "lng": -66.9502861
          },
          "southwest": {
            "lat": 18.9106768,
            "lng": 172.4458955
          }
        },
        "location": {
          "lat": 37.09024,
          "lng": -95.712891
        },
        "location_type": "APPROXIMATE",
        "viewport": {
          "northeast": {
            "lat": 49.38,
            "lng": -66.94
          },
          "southwest": {
            "lat": 25.82,
            "lng": -124.39
          }
        }
      },
      "place_id": "ChIJCzYy5IS16lQRQrfeQ5K5Oxw",
      "types": [
        "country",
        "political"
      ]
    }
  ],
  "status": "OK"
}
