{
  "results": [
    {
      "address_components": [
        {
          "long_name": "82",
          "short_name": "82",
          "types": [
            "street_number"
          ]
        },
        {
          "long_name": "Williams Street",
          "short_name": "Williams St",
          "types": [
            "route"
          ]
        },
        {
          "long_name": "Grand River",
          "short_name": "Grand River",
          "types": [
            "locality",
            "political"
          ]
        },
        {
          "long_name": "Painesville Township",
          "short_name": "Painesville Township",
          "types": [
            "administrative_area_level_3",
            "political"
          ]
        },
        {
          "long_name": "Lake County",
          "short_name": "Lake County",
          "types": [
            "administrative_area_level_2",
            "political"
          ]
        },
        {
          "long_name": "Ohio",
          "short_name": "OH",
          "types": [
            "administrative_area_level_1",
            "political"
          ]
        },
        {
          "long_name": "United States",
          "short_name": "US",
          "types": [
            "country",
            "political"
          ]
        },
        {
          "long_name": "44045",
          "short_name": "44045",
          "types": [
            "postal_code"
          ]
        }
      ],
      "formatted_address": "82 Williams St, Grand River, OH 44045, USA",
      "geometry": {
        "location": {
          "lat": 41.74233,
          "lng": -81.284533
        },
        "location_type": "ROOFTOP",
        "viewport": {
          "northeast": {
            "lat": 41.74367898029149,
            "lng": -81.28318401970849
          },
          "southwest": {
            "lat": 41.74098101970849,
            "lng": -81.28588198029149
          }
        }
      },
      "place_id": "ChIJd-4vB86kMYgRll12Xr4qcDg",
      "types": [
        "street_address"
      ]
    },
    {
      "address_components": [
        {
          "long_name": "Grand River",
          "short_name": "Grand River",
          "types": [
            "locality",
            "political"
          ]
        },
        {
          "long_name": "Painesville Township",
          "short_name": "Painesville Township",
          "types": [
            "administrative_area_level_3",
            "political"
          ]
        },
        {
          "long_name": "Lake County",
          "short_name": "Lake County",
          "types": [
            "administrative_area_level_2",
            "political"
          ]
        },
        {
          "long_name": "Ohio",
          "short_name": "OH",
          "types": [
            "administrative_area_level_1",
            "political"
          ]
        },
        {
          "long_name": "United States",
          "short_name": "US",
          "types": [
            "country",
            "political"
          ]
        }
      ],
      "formatted_address": "Grand River, OH, USA",
      "geometry": {
        "bounds": {
          "northeast": {
            "lat": 41.7506429,
            "lng": -81.2727249
          },
          "southwest": {
            "lat": 41.7338431,
            "lng": -81.29132609999999
          }
        },
        "location": {
          "lat": 41.7361547,
          "lng": -81.2812144
        },
        "location_type": "APPROXIMATE",
        "viewport": {
          "northeast": {
            "lat": 41.7506429,
            "lng": -81.2727249
          },
          "southwest": {
            "lat": 41.7338431,
            "lng": -81.29132609999999
          }
        }
      },
      "place_id": "ChIJyeEa1c2kMYgRoDu-MJoOGgc",
      "types": [
        "locality",
        "political"
      ]
    },
    {
      "address_components": [
        {
          "long_name": "44077",
          "short_name": "44077",
          "types": [
            "postal_code"
          ]
        },
        {
          "long_name": "Painesville",
          "short_name": "Painesville",
          "types": [
            "locality",
            "political"
          ]
        },
        {
          "long_name": "Ohio",
          "short_name": "OH",
          "types": [
            "administrative_area_level_1",
            "political"
          ]
        },
        {
          "long_name": "United States",
          "short_name": "US",
          "types": [
            "country",
            "political"
          ]
        }
      ],
      "formatted_address": "Painesville, OH 44077, USA",
      "geometry": {
        "bounds": {
          "northeast": {
            "lat": 41.8038,
            "lng": -81.1118479
          },
          "southwest": {
            "lat": 41.640983,
            "lng": -81.293126
          }
        },
        "location": {
          "lat": 41.68389380000001,
          "lng": -81.22985299999999
        },
        "location_type": "APPROXIMATE",
        "viewport": {
          "northeast": {
            "lat": 41.8038,
            "lng": -81.1118479
          },
          "southwest": {
            "lat": 41.640983,
            "lng": -81.293126
          }
        }
      },
      "place_id": "ChIJDzVzxkqiMYgRdwFT9NX38dI",
      "postcode_localities": [
        "Concord",
        "Fairport Harbor",
        "Painesville"
      ],
      "types": [
        "postal_code"
      ]
    },
    {
      "address_components": [
        {
          "long_name": "Painesville Township",
          "short_name": "Painesville Township",
          "types": [
            "administrative_area_level_3",
            "political"
          ]
        },
        {
          "long_name": "Lake County",
          "short_name": "Lake County",
          "types": [
            "administrative_area_level_2",
            "political"
          ]
        },
        {
          "long_name": "Ohio",
          "short_name": "OH",
          "types": [
            "administrative_area_level_1",
            "political"
          ]
        },
        {
          "long_name": "United States",
          "short_name": "US",
          "types": [
            "country",
            "political"
          ]
        }
      ],
      "formatted_address": "Painesville Township, OH, USA",
      "geometry": {
        "bounds": {
          "northeast": {
            "lat": 41.7843935,
            "lng": -81.190923
          },
          "southwest": {
            "lat": 41.6837449,
            "lng": -81.293126
          }
        },
        "location": {
          "lat": 41.7340692,
          "lng": -81.2420245
        },
        "location_type": "APPROXIMATE",
        "viewport": {
          "northeast": {
            "lat": 41.7843935,
            "lng": -81.190923
          },
          "southwest": {
            "lat": 41.6837449,
            "lng": -81.293126
          }
        }
      },
      "place_id": "ChIJ0Y_47jDBMYgRGxnLpRd9bQ4",
      "types": [
        "administrative_area_level_3",
        "political"
      ]
    },
    {
      "address_components": [
        {
          "long_name": "Lake County",
          "short_name": "Lake County",
          "types": [
            "administrative_area_level_2",
            "political"
          ]
        },
        {
          "long_name": "Ohio",
          "short_name": "OH",
          "types": [
            "administrative_area_level_1",
            "political"
          ]
        },
        {
          "long_name": "United States",
          "short_name": "US",
          "types": [
            "country",
            "political"
          ]
        }
      ],
      "formatted_address": "Lake County, OH, USA",
      "geometry": {
        "bounds": {
          "northeast": {
            "lat": 41.8533577,
            "lng": -81.0022309
          },
          "southwest": {
            "lat": 41.569176,
            "lng": -81.4889401
          }
        },
        "location": {
          "lat": 41.7112668,
          "lng": -81.24558549999999
        },
        "location_type": "APPROXIMATE",
        "viewport": {
          "northeast": {
            "lat": 41.8533577,
            "lng": -81.0022309
          },
          "southwest": {
            "lat": 41.569176,
            "lng": -81.4889401
          }
        }
      },
      "place_id": "ChIJ9xG5fwOfMYgRziQls9EtBAU",
      "types": [
        "administrative_area_level_2",
        "political"
      ]
    },
    {
      "address_components": [
        {
          "long_name": "Ohio",
          "short_name": "OH",
          "types": [
            "administrative_area_level_1",
            "political"
          ]
        },
        {
          "long_name": "United States",
          "short_name": "US",
          "types": [
            "country",
            "political"
          ]
        }
      ],
      "formatted_address": "Ohio, USA",
      "geometry": {
        "bounds": {
          "northeast": {
            "lat": 41.9773019,
            "lng": -80.5182
          },
          "southwest": {
            "lat": 38.4034229,
            "lng": -84.8203049
          }
        },
        "location": {
          "lat": 40.4172871,
          "lng": -82.90712300000001
        },
        "location_type": "APPROXIMATE",
        "viewport": {
          "northeast": {
            "lat": 41.9773019,
            "lng": -80.5182
          },
          "southwest": {
            "lat": 38.4034229,
            "lng": -84.8203049
          }
        }
      },
      "place_id": "ChIJwY5NtXrpNogRFtmfnDlkzeU",
      "types": [
        "administrative_area_level_1",
        "political"
      ]
    },
    {
      "address_components": [
        {
          "long_name": "United States",
          "short_name": "US",
          "types": [
            "country",
            "political"
          ]
        }
      ],
      "formatted_address": "United States",
      "geometry": {
        "bounds": {
          "northeast": {
            "lat": 71.3867745,
            "lng": -66.9502861
          },
          "southwest": {
            "lat": 18.9106768,
            "lng": 172.4458955
          }
        },
        "location": {
          "lat": 37.09024,
          "lng": -95.712891
        },
        "location_type": "APPROXIMATE",
        "viewport": {
          "northeast": {
            "lat": 49.38,
            "lng": -66.94
          },
          "southwest": {
            "lat": 25.82,
            "lng": -124.39
          }
        }
      },
      "place_id": "ChIJCzYy5IS16lQRQrfeQ5K5Oxw",
      "types": [
        "country",
        "political"
      ]
    }
  ],
  "status": "OK"
}
