{
  "results": [
    {
      "address_components": [
        {
          "long_name": "1155",
          "short_name": "1155",
          "types": [
            "street_number"
          ]
        },
        {
          "long_name": "Log Cabin Lane",
          "short_name": "Log Cabin Ln",
          "types": [
            "route"
          ]
        },
        {
          "long_name": "St. Louis",
          "short_name": "St. Louis",
          "types": [
            "locality",
            "political"
          ]
        },
        {
          "long_name": "Clayton Township",
          "short_name": "Clayton Township",
          "types": [
            "administrative_area_level_3",
            "political"
          ]
        },
        {
          "long_name": "St. Louis County",
          "short_name": "St Louis County",
          "types": [
            "administrative_area_level_2",
            "political"
          ]
        },
        {
          "long_name": "Missouri",
          "short_name": "MO",
          "types": [
            "administrative_area_level_1",
            "political"
          ]
        },
        {
          "long_name": "United States",
          "short_name": "US",
          "types": [
            "country",
            "political"
          ]
        },
        {
          "long_name": "63124",
          "short_name": "63124",
          "types": [
            "postal_code"
          ]
        }
      ],
      "formatted_address": "1155 Log Cabin Ln, St. Louis, MO 63124, USA",
      "geometry": {
        "location": {
          "lat": 38.6377529,
          "lng": -90.381124
        },
        "location_type": "ROOFTOP",
        "viewport": {
          "northeast": {
            "lat": 38.6391018802915,
            "lng": -90.3797750197085
          },
          "southwest": {
            "lat": 38.6364039197085,
            "lng": -90.38247298029151
          }
        }
      },
      "place_id": "ChIJyXsPaaTM2IcR-qu_t_ge07o",
      "types": [
        "street_address"
      ]
    },
    {
      "address_components": [
        {
          "long_name": "Ladue",
          "short_name": "Ladue",
          "types": [
            "locality",
            "political"
          ]
        },
        {
          "long_name": "Clayton Township",
          "short_name": "Clayton Township",
          "types": [
            "administrative_area_level_3",
            "political"
          ]
        },
        {
          "long_name": "St. Louis County",
          "short_name": "St Louis County",
          "types": [
            "administrative_area_level_2",
            "political"
          ]
        },
        {
          "long_name": "Missouri",
          "short_name": "MO",
          "types": [
            "administrative_area_level_1",
            "political"
          ]
        },
        {
          "long_name": "United States",
          "short_name": "US",
          "types": [
            "country",
            "political"
          ]
        }
      ],
      "formatted_address": "Ladue, MO, USA",
      "geometry": {
        "bounds": {
          "northeast": {
            "lat": 38.661615,
            "lng": -90.3485149
          },
          "southwest": {
            "lat": 38.609752,
            "lng": -90.4060169
          }
        },
        "location": {
          "lat": 38.6497743,
          "lng": -90.3806725
        },
        "location_type": "APPROXIMATE",
        "viewport": {
          "northeast": {
            "lat": 38.661615,
            "lng": -90.3485149
          },
          "southwest": {
            "lat": 38.609752,
            "lng": -90.4060169
          }
        }
      },
      "place_id": "ChIJ5QMzJKHM2IcRnxISNprfDtM",
      "types": [
        "locality",
        "political"
      ]
    },
    {
      "address_components": [
        {
          "long_name": "63124",
          "short_name": "63124",
          "types": [
            "postal_code"
          ]
        },
        {
          "long_name": "St. Louis",
          "short_name": "St. Louis",
          "types": [
            "locality",
            "political"
          ]
        },
        {
          "long_name": "St. Louis County",
          "short_name": "St Louis County",
          "types": [
            "administrative_area_level_2",
            "political"
          ]
        },
        {
          "long_name": "Missouri",
          "short_name": "MO",
          "types": [
            "administrative_area_level_1",
            "political"
          ]
        },
        {
          "long_name": "United States",
          "short_name": "US",
          "types": [
            "country",
            "political"
          ]
        }
      ],
      "formatted_address": "St. Louis, MO 63124, USA",
      "geometry": {
        "bounds": {
          "northeast": {
            "lat": 38.6635819,
            "lng": -90.346593
          },
          "southwest": {
            "lat": 38.609238,
            "lng": -90.405948
          }
        },
        "location": {
          "lat": 38.6418687,
          "lng": -90.38425269999999
        },
        "location_type": "APPROXIMATE",
        "viewport": {
          "northeast": {
            "lat": 38.6635819,
            "lng": -90.346593
          },
          "southwest": {
            "lat": 38.609238,
            "lng": -90.405948
          }
        }
      },
      "place_id": "ChIJ-Vxy1qDM2IcRZ4AX2QYY-E4",
      "postcode_localities": [
        "Clayton",
        "St. Louis"
      ],
      "types": [
        "postal_code"
      ]
    },
    {
      "address_components": [
        {
          "long_name": "Clayton Township",
          "short_name": "Clayton Township",
          "types": [
            "administrative_area_level_3",
            "political"
          ]
        },
        {
          "long_name": "St. Louis County",
          "short_name": "St Louis County",
          "types": [
            "administrative_area_level_2",
            "political"
          ]
        },
        {
          "long_name": "Missouri",
          "short_name": "MO",
          "types": [
            "administrative_area_level_1",
            "political"
          ]
        },
        {
          "long_name": "United States",
          "short_name": "US",
          "types": [
            "country",
            "political"
          ]
        }
      ],
      "formatted_address": "Clayton Township, MO, USA",
      "geometry": {
        "bounds": {
          "northeast": {
            "lat": 38.661615,
            "lng": -90.3201139
          },
          "southwest": {
            "lat": 38.598652,
            "lng": -90.4253179
          }
        },
        "location": {
          "lat": 38.6314692,
          "lng": -90.3560076
        },
        "location_type": "APPROXIMATE",
        "viewport": {
          "northeast": {
            "lat": 38.661615,
            "lng": -90.3201139
          },
          "southwest": {
            "lat": 38.598652,
            "lng": -90.4253179
          }
        }
      },
      "place_id": "ChIJSQyNhB_L2IcRePh-IybzBZk",
      "types": [
        "administrative_area_level_3",
        "political"
      ]
    },
    {
      "address_components": [
        {
          "long_name": "St. Louis County",
          "short_name": "St Louis County",
          "types": [
            "administrative_area_level_2",
            "political"
          ]
        },
        {
          "long_name": "Missouri",
          "short_name": "MO",
          "types": [
            "administrative_area_level_1",
            "political"
          ]
        },
        {
          "long_name": "United States",
          "short_name": "US",
          "types": [
            "country",
            "political"
          ]
        }
      ],
      "formatted_address": "St Louis County, MO, USA",
      "geometry": {
        "bounds": {
          "northeast": {
            "lat": 38.8911839,
            "lng": -90.11770709999999
          },
          "southwest": {
            "lat": 38.396902,
            "lng": -90.7365301
          }
        },
        "location": {
          "lat": 38.6103023,
          "lng": -90.4125181
        },
        "location_type": "APPROXIMATE",
        "viewport": {
          "northeast": {
            "lat": 38.8911839,
            "lng": -90.11770709999999
          },
          "southwest": {
            "lat": 38.396902,
            "lng": -90.7365301
          }
        }
      },
      "place_id": "ChIJBe3muPnK2IcRO8QfrOB9Xn0",
      "types": [
        "administrative_area_level_2",
        "political"
      ]
    },
    {
      "address_components": [
        {
          "long_name": "St. Louis",
          "short_name": "St. Louis",
          "types": [
            "political"
          ]
        },
        {
          "long_name": "United States",
          "short_name": "US",
          "types": [
            "country",
            "political"
          ]
        }
      ],
      "formatted_address": "St. Louis, USA",
      "geometry": {
        "bounds": {
          "northeast": {
            "lat": 39.5233661,
            "lng": -89.138356
          },
          "southwest": {
            "lat": 37.7341961,
            "lng": -91.4186371
          }
        },
        "location": {
          "lat": 38.8196814,
          "lng": -90.4502368
        },
        "location_type": "APPROXIMATE",
        "viewport": {
          "northeast": {
            "lat": 39.5233661,
            "lng": -89.138356
          },
          "southwest": {
            "lat": 37.7341961,
            "lng": -91.4186371
          }
        }
      },
      "place_id": "ChIJneBzzj4z34cRFGg2ez6q57o",
      "types": [
        "political"
      ]
    },
    {
      "address_components": [
        {
          "long_name": "Missouri",
          "short_name": "MO",
          "types": [
            "administrative_area_level_1",
            "political"
          ]
        },
        {
          "long_name": "United States",
          "short_name": "US",
          "types": [
            "country",
            "political"
          ]
        }
      ],
      "formatted_address": "Missouri, USA",
      "geometry": {
        "bounds": {
          "northeast": {
            "lat": 40.61364,
            "lng": -89.09949399999999
          },
          "southwest": {
            "lat": 35.9956829,
            "lng": -95.774704
          }
        },
        "location": {
          "lat": 37.9642529,
          "lng": -91.8318334
        },
        "location_type": "APPROXIMATE",
        "viewport": {
          "northeast": {
            "lat": 40.61364,
            "lng": -89.09949399999999
          },
          "southwest": {
            "lat": 35.9956829,
            "lng": -95.774704
          }
        }
      },
      "place_id": "ChIJfeMiSNXmwIcRcr1mBFnEW7U",
      "types": [
        "administrative_area_level_1",
        "political"
      ]
    },
    {
      "address_components": [
        {
          "long_name": "United States",
          "short_name": "US",
          "types": [
            "country",
            "political"
          ]
        }
      ],
      "formatted_address": "United States",
      "geometry": {
        "bounds": {
          "northeast": {
            "lat": 71.3867745,
            "lng": -66.9502861
          },
          "southwest": {
            "lat": 18.9106768,
            "lng": 172.4458955
          }
        },
        "location": {
          "lat": 37.09024,
          "lng": -95.712891
        },
        "location_type": "APPROXIMATE",
        "viewport": {
          "northeast": {
            "lat": 49.38,
            "lng": -66.94
          },
          "southwest": {
            "lat": 25.82,
            "lng": -124.39
          }
        }
      },
      "place_id": "ChIJCzYy5IS16lQRQrfeQ5K5Oxw",
      "types": [
        "country",
        "political"
      ]
    }
  ],
  "status": "OK"
}
