{
  "results": [
    {
      "address_components": [
        {
          "long_name": "Fowler",
          "short_name": "Fowler",
          "types": [
            "route"
          ]
        },
        {
          "long_name": "Twin Lake",
          "short_name": "Twin Lake",
          "types": [
            "locality",
            "political"
          ]
        },
        {
          "long_name": "Dalton Township",
          "short_name": "Dalton Township",
          "types": [
            "administrative_area_level_3",
            "political"
          ]
        },
        {
          "long_name": "Muskegon County",
          "short_name": "Muskegon County",
          "types": [
            "administrative_area_level_2",
            "political"
          ]
        },
        {
          "long_name": "Michigan",
          "short_name": "MI",
          "types": [
            "administrative_area_level_1",
            "political"
          ]
        },
        {
          "long_name": "United States",
          "short_name": "US",
          "types": [
            "country",
            "political"
          ]
        },
        {
          "long_name": "49457",
          "short_name": "49457",
          "types": [
            "postal_code"
          ]
        }
      ],
      "formatted_address": "Fowler, Twin Lake, MI 49457, USA",
      "geometry": {
        "bounds": {
          "northeast": {
            "lat": 43.36911569999999,
            "lng": -86.1797653
          },
          "southwest": {
            "lat": 43.3687142,
            "lng": -86.1797819
          }
        },
        "location": {
          "lat": 43.368915,
          "lng": -86.17977359999999
        },
        "location_type": "GEOMETRIC_CENTER",
        "viewport": {
          "northeast": {
            "lat": 43.3702639302915,
            "lng": -86.1784246197085
          },
          "southwest": {
            "lat": 43.3675659697085,
            "lng": -86.1811225802915
          }
        }
      },
      "place_id": "ChIJP_uG2jNhGYgRIgN3WTBMsxk",
      "types": [
        "route"
      ]
    },
    {
      "address_components": [
        {
          "long_name": "Twin Lake",
          "short_name": "Twin Lake",
          "types": [
            "locality",
            "political"
          ]
        },
        {
          "long_name": "Dalton Township",
          "short_name": "Dalton Township",
          "types": [
            "administrative_area_level_3",
            "political"
          ]
        },
        {
          "long_name": "Muskegon County",
          "short_name": "Muskegon County",
          "types": [
            "administrative_area_level_2",
            "political"
          ]
        },
        {
          "long_name": "Michigan",
          "short_name": "MI",
          "types": [
            "administrative_area_level_1",
            "political"
          ]
        },
        {
          "long_name": "United States",
          "short_name": "US",
          "types": [
            "country",
            "political"
          ]
        },
        {
          "long_name": "49457",
          "short_name": "49457",
          "types": [
            "postal_code"
          ]
        }
      ],
      "formatted_address": "Twin Lake, MI 49457, USA",
      "geometry": {
        "bounds": {
          "northeast": {
            "lat": 43.3827519,
            "lng": -86.15758790000001
          },
          "southwest": {
            "lat": 43.3529039,
            "lng": -86.1970901
          }
        },
        "location": {
          "lat": 43.36279220000001,
          "lng": -86.164783
        },
        "location_type": "APPROXIMATE",
        "viewport": {
          "northeast": {
            "lat": 43.3827519,
            "lng": -86.15758790000001
          },
          "southwest": {
            "lat": 43.3529039,
            "lng": -86.1970901
          }
        }
      },
      "place_id": "ChIJSQDG0DNhGYgRFC4A-QY_3Fc",
      "types": [
        "locality",
        "political"
      ]
    },
    {
      "address_components": [
        {
          "long_name": "Dalton Township",
          "short_name": "Dalton Township",
          "types": [
            "administrative_area_level_3",
            "political"
          ]
        },
        {
          "long_name": "Muskegon County",
          "short_name": "Muskegon County",
          "types": [
            "administrative_area_level_2",
            "political"
          ]
        },
        {
          "long_name": "Michigan",
          "short_name": "MI",
          "types": [
            "administrative_area_level_1",
            "political"
          ]
        },
        {
          "long_name": "United States",
          "short_name": "US",
          "types": [
            "country",
            "political"
          ]
        }
      ],
      "formatted_address": "Dalton Township, MI, USA",
      "geometry": {
        "bounds": {
          "northeast": {
            "lat": 43.3838319,
            "lng": -77.2466441
          },
          "southwest": {
            "lat": 39.3782291,
            "lng": -86.277508
          }
        },
        "location": {
          "lat": 43.3242765,
          "lng": -86.1955169
        },
        "location_type": "APPROXIMATE",
        "viewport": {
          "northeast": {
            "lat": 43.3838319,
            "lng": -86.157471
          },
          "southwest": {
            "lat": 43.29470389999999,
            "lng": -86.277508
          }
        }
      },
      "place_id": "ChIJ4XBj6CxiGYgR0BY8pAV0uw0",
      "types": [
        "administrative_area_level_3",
        "political"
      ]
    },
    {
      "address_components": [
        {
          "long_name": "49457",
          "short_name": "49457",
          "types": [
            "postal_code"
          ]
        },
        {
          "long_name": "Twin Lake",
          "short_name": "Twin Lake",
          "types": [
            "locality",
            "political"
          ]
        },
        {
          "long_name": "Michigan",
          "short_name": "MI",
          "types": [
            "administrative_area_level_1",
            "political"
          ]
        },
        {
          "long_name": "United States",
          "short_name": "US",
          "types": [
            "country",
            "political"
          ]
        }
      ],
      "formatted_address": "Twin Lake, MI 49457, USA",
      "geometry": {
        "bounds": {
          "northeast": {
            "lat": 43.455166,
            "lng": -86.0217918
          },
          "southwest": {
            "lat": 43.261942,
            "lng": -86.279489
          }
        },
        "location": {
          "lat": 43.36283969999999,
          "lng": -86.1955169
        },
        "location_type": "APPROXIMATE",
        "viewport": {
          "northeast": {
            "lat": 43.455166,
            "lng": -86.0217918
          },
          "southwest": {
            "lat": 43.261942,
            "lng": -86.279489
          }
        }
      },
      "place_id": "ChIJx4ceDZdmGYgRVC8v17chFsA",
      "types": [
        "postal_code"
      ]
    },
    {
      "address_components": [
        {
          "long_name": "Muskegon County",
          "short_name": "Muskegon County",
          "types": [
            "administrative_area_level_2",
            "political"
          ]
        },
        {
          "long_name": "Michigan",
          "short_name": "MI",
          "types": [
            "administrative_area_level_1",
            "political"
          ]
        },
        {
          "long_name": "United States",
          "short_name": "US",
          "types": [
            "country",
            "political"
          ]
        }
      ],
      "formatted_address": "Muskegon County, MI, USA",
      "geometry": {
        "bounds": {
          "northeast": {
            "lat": 43.4724871,
            "lng": -85.790448
          },
          "southwest": {
            "lat": 43.1173949,
            "lng": -86.4617632
          }
        },
        "location": {
          "lat": 43.294941,
          "lng": -86.1261056
        },
        "location_type": "APPROXIMATE",
        "viewport": {
          "northeast": {
            "lat": 43.4724871,
            "lng": -85.790448
          },
          "southwest": {
            "lat": 43.1173949,
            "lng": -86.4617632
          }
        }
      },
      "place_id": "ChIJG_DdiT_cG4gRf6y3qKVa8fw",
      "types": [
        "administrative_area_level_2",
        "political"
      ]
    },
    {
      "address_components": [
        {
          "long_name": "Michigan",
          "short_name": "MI",
          "types": [
            "administrative_area_level_1",
            "political"
          ]
        },
        {
          "long_name": "United States",
          "short_name": "US",
          "types": [
            "country",
            "political"
          ]
        }
      ],
      "formatted_address": "Michigan, USA",
      "geometry": {
        "bounds": {
          "northeast": {
            "lat": 48.1986461,
            "lng": -82.413474
          },
          "southwest": {
            "lat": 41.696118,
            "lng": -90.4181358
          }
        },
        "location": {
          "lat": 44.3148443,
          "lng": -85.60236429999999
        },
        "location_type": "APPROXIMATE",
        "viewport": {
          "northeast": {
            "lat": 48.198602,
            "lng": -82.413474
          },
          "southwest": {
            "lat": 41.696118,
            "lng": -90.4181358
          }
        }
      },
      "place_id": "ChIJEQTKxz2qTE0Rs8liellI3Zc",
      "types": [
        "administrative_area_level_1",
        "political"
      ]
    },
    {
      "address_components": [
        {
          "long_name": "United States",
          "short_name": "US",
          "types": [
            "country",
            "political"
          ]
        }
      ],
      "formatted_address": "United States",
      "geometry": {
        "bounds": {
          "northeast": {
            "lat": 71.3867745,
            "lng": -66.9502861
          },
          "southwest": {
            "lat": 18.9106768,
            "lng": 172.4458955
          }
        },
        "location": {
          "lat": 37.09024,
          "lng": -95.712891
        },
        "location_type": "APPROXIMATE",
        "viewport": {
          "northeast": {
            "lat": 49.38,
            "lng": -66.94
          },
          "southwest": {
            "lat": 25.82,
            "lng": -124.39
          }
        }
      },
      "place_id": "ChIJCzYy5IS16lQRQrfeQ5K5Oxw",
      "types": [
        "country",
        "political"
      ]
    }
  ],
  "status": "OK"
}
