{
  "results": [
    {
      "address_components": [
        {
          "long_name": "North Flood Road",
          "short_name": "N Flood Rd",
          "types": [
            "route"
          ]
        },
        {
          "long_name": "Macy",
          "short_name": "Macy",
          "types": [
            "locality",
            "political"
          ]
        },
        {
          "long_name": "Blackbird",
          "short_name": "Blackbird",
          "types": [
            "administrative_area_level_3",
            "political"
          ]
        },
        {
          "long_name": "Thurston County",
          "short_name": "Thurston County",
          "types": [
            "administrative_area_level_2",
            "political"
          ]
        },
        {
          "long_name": "Nebraska",
          "short_name": "NE",
          "types": [
            "administrative_area_level_1",
            "political"
          ]
        },
        {
          "long_name": "United States",
          "short_name": "US",
          "types": [
            "country",
            "political"
          ]
        },
        {
          "long_name": "68039",
          "short_name": "68039",
          "types": [
            "postal_code"
          ]
        }
      ],
      "formatted_address": "N Flood Rd, Macy, NE 68039, USA",
      "geometry": {
        "bounds": {
          "northeast": {
            "lat": 42.116186,
            "lng": -96.3628543
          },
          "southwest": {
            "lat": 42.1151043,
            "lng": -96.367987
          }
        },
        "location": {
          "lat": 42.11581169999999,
          "lng": -96.3652882
        },
        "location_type": "GEOMETRIC_CENTER",
        "viewport": {
          "northeast": {
            "lat": 42.1169941302915,
            "lng": -96.3628543
          },
          "southwest": {
            "lat": 42.1142961697085,
            "lng": -96.367987
          }
        }
      },
      "place_id": "ChIJi_rTY18ekocRN11zQGhDkew",
      "types": [
        "route"
      ]
    },
    {
      "address_components": [
        {
          "long_name": "Macy",
          "short_name": "Macy",
          "types": [
            "locality",
            "political"
          ]
        },
        {
          "long_name": "Blackbird",
          "short_name": "Blackbird",
          "types": [
            "administrative_area_level_3",
            "political"
          ]
        },
        {
          "long_name": "Thurston County",
          "short_name": "Thurston County",
          "types": [
            "administrative_area_level_2",
            "political"
          ]
        },
        {
          "long_name": "Nebraska",
          "short_name": "NE",
          "types": [
            "administrative_area_level_1",
            "political"
          ]
        },
        {
          "long_name": "United States",
          "short_name": "US",
          "types": [
            "country",
            "political"
          ]
        }
      ],
      "formatted_address": "Macy, NE, USA",
      "geometry": {
        "bounds": {
          "northeast": {
            "lat": 42.12696589999999,
            "lng": -96.3448059
          },
          "southwest": {
            "lat": 42.1067309,
            "lng": -96.3833109
          }
        },
        "location": {
          "lat": 42.1130467,
          "lng": -96.3564161
        },
        "location_type": "APPROXIMATE",
        "viewport": {
          "northeast": {
            "lat": 42.12696589999999,
            "lng": -96.3448059
          },
          "southwest": {
            "lat": 42.1067309,
            "lng": -96.3833109
          }
        }
      },
      "place_id": "ChIJK8EyV70ekocRhrhlTAFca2w",
      "types": [
        "locality",
        "political"
      ]
    },
    {
      "address_components": [
        {
          "long_name": "Blackbird",
          "short_name": "Blackbird",
          "types": [
            "administrative_area_level_3",
            "political"
          ]
        },
        {
          "long_name": "Thurston County",
          "short_name": "Thurston County",
          "types": [
            "administrative_area_level_2",
            "political"
          ]
        },
        {
          "long_name": "Nebraska",
          "short_name": "NE",
          "types": [
            "administrative_area_level_1",
            "political"
          ]
        },
        {
          "long_name": "United States",
          "short_name": "US",
          "types": [
            "country",
            "political"
          ]
        }
      ],
      "formatted_address": "Blackbird, NE, USA",
      "geometry": {
        "bounds": {
          "northeast": {
            "lat": 42.19139380000001,
            "lng": -96.2666419
          },
          "southwest": {
            "lat": 42.103909,
            "lng": -96.4055301
          }
        },
        "location": {
          "lat": 42.12952840000001,
          "lng": -96.3545169
        },
        "location_type": "APPROXIMATE",
        "viewport": {
          "northeast": {
            "lat": 42.19139380000001,
            "lng": -96.2666419
          },
          "southwest": {
            "lat": 42.103909,
            "lng": -96.4055301
          }
        }
      },
      "place_id": "ChIJtU93qRsckocRGthHbd6mBkI",
      "types": [
        "administrative_area_level_3",
        "political"
      ]
    },
    {
      "address_components": [
        {
          "long_name": "68039",
          "short_name": "68039",
          "types": [
            "postal_code"
          ]
        },
        {
          "long_name": "Macy",
          "short_name": "Macy",
          "types": [
            "locality",
            "political"
          ]
        },
        {
          "long_name": "Nebraska",
          "short_name": "NE",
          "types": [
            "administrative_area_level_1",
            "political"
          ]
        },
        {
          "long_name": "United States",
          "short_name": "US",
          "types": [
            "country",
            "political"
          ]
        }
      ],
      "formatted_address": "Macy, NE 68039, USA",
      "geometry": {
        "bounds": {
          "northeast": {
            "lat": 42.1913399,
            "lng": -96.2668751
          },
          "southwest": {
            "lat": 42.060457,
            "lng": -96.405237
          }
        },
        "location": {
          "lat": 42.1202708,
          "lng": -96.3438785
        },
        "location_type": "APPROXIMATE",
        "viewport": {
          "northeast": {
            "lat": 42.1913399,
            "lng": -96.2668751
          },
          "southwest": {
            "lat": 42.060457,
            "lng": -96.405237
          }
        }
      },
      "place_id": "ChIJK8EyV70ekocRJqUDflK61GM",
      "types": [
        "postal_code"
      ]
    },
    {
      "address_components": [
        {
          "long_name": "Thurston County",
          "short_name": "Thurston County",
          "types": [
            "administrative_area_level_2",
            "political"
          ]
        },
        {
          "long_name": "Nebraska",
          "short_name": "NE",
          "types": [
            "administrative_area_level_1",
            "political"
          ]
        },
        {
          "long_name": "United States",
          "short_name": "US",
          "types": [
            "country",
            "political"
          ]
        }
      ],
      "formatted_address": "Thurston County, NE, USA",
      "geometry": {
        "bounds": {
          "northeast": {
            "lat": 42.278005,
            "lng": -96.266594
          },
          "southwest": {
            "lat": 42.015187,
            "lng": -96.82366979999999
          }
        },
        "location": {
          "lat": 42.1685528,
          "lng": -96.5356449
        },
        "location_type": "APPROXIMATE",
        "viewport": {
          "northeast": {
            "lat": 42.278005,
            "lng": -96.266594
          },
          "southwest": {
            "lat": 42.015187,
            "lng": -96.82366979999999
          }
        }
      },
      "place_id": "ChIJrShy0M76kYcRsKz9rfF7bUo",
      "types": [
        "administrative_area_level_2",
        "political"
      ]
    },
    {
      "address_components": [
        {
          "long_name": "Nebraska",
          "short_name": "NE",
          "types": [
            "administrative_area_level_1",
            "political"
          ]
        },
        {
          "long_name": "United States",
          "short_name": "US",
          "types": [
            "country",
            "political"
          ]
        }
      ],
      "formatted_address": "Nebraska, USA",
      "geometry": {
        "bounds": {
          "northeast": {
            "lat": 43.00170689999999,
            "lng": -95.30829000000001
          },
          "southwest": {
            "lat": 39.999932,
            "lng": -104.053514
          }
        },
        "location": {
          "lat": 41.4925374,
          "lng": -99.9018131
        },
        "location_type": "APPROXIMATE",
        "viewport": {
          "northeast": {
            "lat": 43.00170689999999,
            "lng": -95.30829000000001
          },
          "southwest": {
            "lat": 39.999932,
            "lng": -104.053514
          }
        }
      },
      "place_id": "ChIJ7fwMtciNk4cRxArzDwyQJ6E",
      "types": [
        "administrative_area_level_1",
        "political"
      ]
    },
    {
      "address_components": [
        {
          "long_name": "United States",
          "short_name": "US",
          "types": [
            "country",
            "political"
          ]
        }
      ],
      "formatted_address": "United States",
      "geometry": {
        "bounds": {
          "northeast": {
            "lat": 71.3867745,
            "lng": -66.9502861
          },
          "southwest": {
            "lat": 18.9106768,
            "lng": 172.4458955
          }
        },
        "location": {
          "lat": 37.09024,
          "lng": -95.712891
        },
        "location_type": "APPROXIMATE",
        "viewport": {
          "northeast": {
            "lat": 49.38,
            "lng": -66.94
          },
          "southwest": {
            "lat": 25.82,
            "lng": -124.39
          }
        }
      },
      "place_id": "ChIJCzYy5IS16lQRQrfeQ5K5Oxw",
      "types": [
        "country",
        "political"
      ]
    }
  ],
  "status": "OK"
}
