{
  "results": [
    {
      "address_components": [
        {
          "long_name": "102",
          "short_name": "102",
          "types": [
            "street_number"
          ]
        },
        {
          "long_name": "1st Street",
          "short_name": "1st St",
          "types": [
            "route"
          ]
        },
        {
          "long_name": "Milltown",
          "short_name": "Milltown",
          "types": [
            "locality",
            "political"
          ]
        },
        {
          "long_name": "Whiskey Run Township",
          "short_name": "Whiskey Run Township",
          "types": [
            "administrative_area_level_3",
            "political"
          ]
        },
        {
          "long_name": "Crawford County",
          "short_name": "Crawford County",
          "types": [
            "administrative_area_level_2",
            "political"
          ]
        },
        {
          "long_name": "Indiana",
          "short_name": "IN",
          "types": [
            "administrative_area_level_1",
            "political"
          ]
        },
        {
          "long_name": "United States",
          "short_name": "US",
          "types": [
            "country",
            "political"
          ]
        },
        {
          "long_name": "47145",
          "short_name": "47145",
          "types": [
            "postal_code"
          ]
        },
        {
          "long_name": "2640",
          "short_name": "2640",
          "types": [
            "postal_code_suffix"
          ]
        }
      ],
      "formatted_address": "102 1st St, Milltown, IN 47145, USA",
      "geometry": {
        "location": {
          "lat": 38.34242800000001,
          "lng": -86.274599
        },
        "location_type": "ROOFTOP",
        "viewport": {
          "northeast": {
            "lat": 38.34377698029151,
            "lng": -86.27325001970848
          },
          "southwest": {
            "lat": 38.34107901970851,
            "lng": -86.2759479802915
          }
        }
      },
      "place_id": "ChIJMQKihF-zbogRi4Gs7vyv7u8",
      "types": [
        "street_address"
      ]
    },
    {
      "address_components": [
        {
          "long_name": "Milltown",
          "short_name": "Milltown",
          "types": [
            "locality",
            "political"
          ]
        },
        {
          "long_name": "Crawford County",
          "short_name": "Crawford County",
          "types": [
            "administrative_area_level_2",
            "political"
          ]
        },
        {
          "long_name": "Indiana",
          "short_name": "IN",
          "types": [
            "administrative_area_level_1",
            "political"
          ]
        },
        {
          "long_name": "United States",
          "short_name": "US",
          "types": [
            "country",
            "political"
          ]
        }
      ],
      "formatted_address": "Milltown, IN, USA",
      "geometry": {
        "bounds": {
          "northeast": {
            "lat": 38.350224,
            "lng": -86.26013499999999
          },
          "southwest": {
            "lat": 38.332097,
            "lng": -86.28849079999999
          }
        },
        "location": {
          "lat": 38.3422849,
          "lng": -86.2760893
        },
        "location_type": "APPROXIMATE",
        "viewport": {
          "northeast": {
            "lat": 38.350224,
            "lng": -86.26013499999999
          },
          "southwest": {
            "lat": 38.332097,
            "lng": -86.28849079999999
          }
        }
      },
      "place_id": "ChIJxyo4nF-zbogRBTqN3ef_Bd4",
      "types": [
        "locality",
        "political"
      ]
    },
    {
      "address_components": [
        {
          "long_name": "Whiskey Run Township",
          "short_name": "Whiskey Run Township",
          "types": [
            "administrative_area_level_3",
            "political"
          ]
        },
        {
          "long_name": "Crawford County",
          "short_name": "Crawford County",
          "types": [
            "administrative_area_level_2",
            "political"
          ]
        },
        {
          "long_name": "Indiana",
          "short_name": "IN",
          "types": [
            "administrative_area_level_1",
            "political"
          ]
        },
        {
          "long_name": "United States",
          "short_name": "US",
          "types": [
            "country",
            "political"
          ]
        }
      ],
      "formatted_address": "Whiskey Run Township, IN, USA",
      "geometry": {
        "bounds": {
          "northeast": {
            "lat": 38.4229629,
            "lng": -86.24555509999999
          },
          "southwest": {
            "lat": 38.278444,
            "lng": -86.38490709999999
          }
        },
        "location": {
          "lat": 38.3323589,
          "lng": -86.3072469
        },
        "location_type": "APPROXIMATE",
        "viewport": {
          "northeast": {
            "lat": 38.4229629,
            "lng": -86.24555509999999
          },
          "southwest": {
            "lat": 38.278444,
            "lng": -86.38490709999999
          }
        }
      },
      "place_id": "ChIJpXgJ_IyzbogRKaY1-GO6WJs",
      "types": [
        "administrative_area_level_3",
        "political"
      ]
    },
    {
      "address_components": [
        {
          "long_name": "47145",
          "short_name": "47145",
          "types": [
            "postal_code"
          ]
        },
        {
          "long_name": "Milltown",
          "short_name": "Milltown",
          "types": [
            "locality",
            "political"
          ]
        },
        {
          "long_name": "Indiana",
          "short_name": "IN",
          "types": [
            "administrative_area_level_1",
            "political"
          ]
        },
        {
          "long_name": "United States",
          "short_name": "US",
          "types": [
            "country",
            "political"
          ]
        }
      ],
      "formatted_address": "Milltown, IN 47145, USA",
      "geometry": {
        "bounds": {
          "northeast": {
            "lat": 38.4419291,
            "lng": -86.2455279
          },
          "southwest": {
            "lat": 38.2472539,
            "lng": -86.367485
          }
        },
        "location": {
          "lat": 38.3221532,
          "lng": -86.317392
        },
        "location_type": "APPROXIMATE",
        "viewport": {
          "northeast": {
            "lat": 38.4419291,
            "lng": -86.2455279
          },
          "southwest": {
            "lat": 38.2472539,
            "lng": -86.367485
          }
        }
      },
      "place_id": "ChIJy0yuN3u0bogRNhwlx1_C2xw",
      "types": [
        "postal_code"
      ]
    },
    {
      "address_components": [
        {
          "long_name": "Crawford County",
          "short_name": "Crawford County",
          "types": [
            "administrative_area_level_2",
            "political"
          ]
        },
        {
          "long_name": "Indiana",
          "short_name": "IN",
          "types": [
            "administrative_area_level_1",
            "political"
          ]
        },
        {
          "long_name": "United States",
          "short_name": "US",
          "types": [
            "country",
            "political"
          ]
        }
      ],
      "formatted_address": "Crawford County, IN, USA",
      "geometry": {
        "bounds": {
          "northeast": {
            "lat": 38.4229629,
            "lng": -86.24555509999999
          },
          "southwest": {
            "lat": 38.105315,
            "lng": -86.6814239
          }
        },
        "location": {
          "lat": 38.3054548,
          "lng": -86.4592091
        },
        "location_type": "APPROXIMATE",
        "viewport": {
          "northeast": {
            "lat": 38.4229629,
            "lng": -86.24555509999999
          },
          "southwest": {
            "lat": 38.105315,
            "lng": -86.6814239
          }
        }
      },
      "place_id": "ChIJh_w17U6kbogR0pBg52WYo4o",
      "types": [
        "administrative_area_level_2",
        "political"
      ]
    },
    {
      "address_components": [
        {
          "long_name": "Indiana",
          "short_name": "IN",
          "types": [
            "administrative_area_level_1",
            "political"
          ]
        },
        {
          "long_name": "United States",
          "short_name": "US",
          "types": [
            "country",
            "political"
          ]
        }
      ],
      "formatted_address": "Indiana, USA",
      "geometry": {
        "bounds": {
          "northeast": {
            "lat": 41.7606971,
            "lng": -84.784662
          },
          "southwest": {
            "lat": 37.7717419,
            "lng": -88.097892
          }
        },
        "location": {
          "lat": 40.2671941,
          "lng": -86.1349019
        },
        "location_type": "APPROXIMATE",
        "viewport": {
          "northeast": {
            "lat": 41.7606971,
            "lng": -84.784662
          },
          "southwest": {
            "lat": 37.7717419,
            "lng": -88.097892
          }
        }
      },
      "place_id": "ChIJHRv42bxQa4gRcuwyy84vEH4",
      "types": [
        "administrative_area_level_1",
        "political"
      ]
    },
    {
      "address_components": [
        {
          "long_name": "United States",
          "short_name": "US",
          "types": [
            "country",
            "political"
          ]
        }
      ],
      "formatted_address": "United States",
      "geometry": {
        "bounds": {
          "northeast": {
            "lat": 71.3867745,
            "lng": -66.9502861
          },
          "southwest": {
            "lat": 18.9106768,
            "lng": 172.4458955
          }
        },
        "location": {
          "lat": 37.09024,
          "lng": -95.712891
        },
        "location_type": "APPROXIMATE",
        "viewport": {
          "northeast": {
            "lat": 49.38,
            "lng": -66.94
          },
          "southwest": {
            "lat": 25.82,
            "lng": -124.39
          }
        }
      },
      "place_id": "ChIJCzYy5IS16lQRQrfeQ5K5Oxw",
      "types": [
        "country",
        "political"
      ]
    }
  ],
  "status": "OK"
}
