{
  "results": [
    {
      "address_components": [
        {
          "long_name": "Alexander Avenue",
          "short_name": "Alexander Ave",
          "types": [
            "route"
          ]
        },
        {
          "long_name": "Risco",
          "short_name": "Risco",
          "types": [
            "locality",
            "political"
          ]
        },
        {
          "long_name": "Como Township",
          "short_name": "Como Township",
          "types": [
            "administrative_area_level_3",
            "political"
          ]
        },
        {
          "long_name": "New Madrid County",
          "short_name": "New Madrid County",
          "types": [
            "administrative_area_level_2",
            "political"
          ]
        },
        {
          "long_name": "Missouri",
          "short_name": "MO",
          "types": [
            "administrative_area_level_1",
            "political"
          ]
        },
        {
          "long_name": "United States",
          "short_name": "US",
          "types": [
            "country",
            "political"
          ]
        },
        {
          "long_name": "63874",
          "short_name": "63874",
          "types": [
            "postal_code"
          ]
        }
      ],
      "formatted_address": "Alexander Ave, Risco, MO 63874, USA",
      "geometry": {
        "bounds": {
          "northeast": {
            "lat": 36.551068,
            "lng": -89.818114
          },
          "southwest": {
            "lat": 36.551063,
            "lng": -89.819188
          }
        },
        "location": {
          "lat": 36.5510665,
          "lng": -89.818651
        },
        "location_type": "GEOMETRIC_CENTER",
        "viewport": {
          "northeast": {
            "lat": 36.5524144802915,
            "lng": -89.81730201970849
          },
          "southwest": {
            "lat": 36.5497165197085,
            "lng": -89.8199999802915
          }
        }
      },
      "place_id": "ChIJPxOOFOSIeIgR6dpvfy3j9go",
      "types": [
        "route"
      ]
    },
    {
      "address_components": [
        {
          "long_name": "Risco",
          "short_name": "Risco",
          "types": [
            "locality",
            "political"
          ]
        },
        {
          "long_name": "Como Township",
          "short_name": "Como Township",
          "types": [
            "administrative_area_level_3",
            "political"
          ]
        },
        {
          "long_name": "New Madrid County",
          "short_name": "New Madrid County",
          "types": [
            "administrative_area_level_2",
            "political"
          ]
        },
        {
          "long_name": "Missouri",
          "short_name": "MO",
          "types": [
            "administrative_area_level_1",
            "political"
          ]
        },
        {
          "long_name": "United States",
          "short_name": "US",
          "types": [
            "country",
            "political"
          ]
        }
      ],
      "formatted_address": "Risco, MO, USA",
      "geometry": {
        "bounds": {
          "northeast": {
            "lat": 36.555284,
            "lng": -89.80919399999999
          },
          "southwest": {
            "lat": 36.5453228,
            "lng": -89.82781709999999
          }
        },
        "location": {
          "lat": 36.5533928,
          "lng": -89.817863
        },
        "location_type": "APPROXIMATE",
        "viewport": {
          "northeast": {
            "lat": 36.555284,
            "lng": -89.80919399999999
          },
          "southwest": {
            "lat": 36.5453228,
            "lng": -89.82781709999999
          }
        }
      },
      "place_id": "ChIJoatEGuSIeIgRAMYjLmpy2zU",
      "types": [
        "locality",
        "political"
      ]
    },
    {
      "address_components": [
        {
          "long_name": "63874",
          "short_name": "63874",
          "types": [
            "postal_code"
          ]
        },
        {
          "long_name": "Risco",
          "short_name": "Risco",
          "types": [
            "locality",
            "political"
          ]
        },
        {
          "long_name": "Como Township",
          "short_name": "Como Township",
          "types": [
            "administrative_area_level_3",
            "political"
          ]
        },
        {
          "long_name": "New Madrid County",
          "short_name": "New Madrid County",
          "types": [
            "administrative_area_level_2",
            "political"
          ]
        },
        {
          "long_name": "Missouri",
          "short_name": "MO",
          "types": [
            "administrative_area_level_1",
            "political"
          ]
        },
        {
          "long_name": "United States",
          "short_name": "US",
          "types": [
            "country",
            "political"
          ]
        }
      ],
      "formatted_address": "Risco, MO 63874, USA",
      "geometry": {
        "bounds": {
          "northeast": {
            "lat": 36.5843959,
            "lng": -89.80919399999999
          },
          "southwest": {
            "lat": 36.52449,
            "lng": -89.88588709999999
          }
        },
        "location": {
          "lat": 36.55528109999999,
          "lng": -89.84113819999999
        },
        "location_type": "APPROXIMATE",
        "viewport": {
          "northeast": {
            "lat": 36.5843959,
            "lng": -89.80919399999999
          },
          "southwest": {
            "lat": 36.52449,
            "lng": -89.88588709999999
          }
        }
      },
      "place_id": "ChIJ3RfjCNmIeIgRl4FjW0tfQvo",
      "types": [
        "postal_code"
      ]
    },
    {
      "address_components": [
        {
          "long_name": "Como Township",
          "short_name": "Como Township",
          "types": [
            "administrative_area_level_3",
            "political"
          ]
        },
        {
          "long_name": "New Madrid County",
          "short_name": "New Madrid County",
          "types": [
            "administrative_area_level_2",
            "political"
          ]
        },
        {
          "long_name": "Missouri",
          "short_name": "MO",
          "types": [
            "administrative_area_level_1",
            "political"
          ]
        },
        {
          "long_name": "United States",
          "short_name": "US",
          "types": [
            "country",
            "political"
          ]
        }
      ],
      "formatted_address": "Como Township, MO, USA",
      "geometry": {
        "bounds": {
          "northeast": {
            "lat": 36.6293309,
            "lng": -89.701205
          },
          "southwest": {
            "lat": 36.509567,
            "lng": -89.96360100000001
          }
        },
        "location": {
          "lat": 36.5660448,
          "lng": -89.81303559999999
        },
        "location_type": "APPROXIMATE",
        "viewport": {
          "northeast": {
            "lat": 36.6293309,
            "lng": -89.701205
          },
          "southwest": {
            "lat": 36.509567,
            "lng": -89.96360100000001
          }
        }
      },
      "place_id": "ChIJzzDjj2CIeIgRGrw-eEs6PXs",
      "types": [
        "administrative_area_level_3",
        "political"
      ]
    },
    {
      "address_components": [
        {
          "long_name": "New Madrid County",
          "short_name": "New Madrid County",
          "types": [
            "administrative_area_level_2",
            "political"
          ]
        },
        {
          "long_name": "Missouri",
          "short_name": "MO",
          "types": [
            "administrative_area_level_1",
            "political"
          ]
        },
        {
          "long_name": "United States",
          "short_name": "US",
          "types": [
            "country",
            "political"
          ]
        }
      ],
      "formatted_address": "New Madrid County, MO, USA",
      "geometry": {
        "bounds": {
          "northeast": {
            "lat": 36.870882,
            "lng": -89.327476
          },
          "southwest": {
            "lat": 36.336809,
            "lng": -89.972478
          }
        },
        "location": {
          "lat": 36.5227538,
          "lng": -89.77553379999999
        },
        "location_type": "APPROXIMATE",
        "viewport": {
          "northeast": {
            "lat": 36.870882,
            "lng": -89.327476
          },
          "southwest": {
            "lat": 36.336809,
            "lng": -89.972478
          }
        }
      },
      "place_id": "ChIJU873ak_0eIgRXZB5koCqJXw",
      "types": [
        "administrative_area_level_2",
        "political"
      ]
    },
    {
      "address_components": [
        {
          "long_name": "Missouri",
          "short_name": "MO",
          "types": [
            "administrative_area_level_1",
            "political"
          ]
        },
        {
          "long_name": "United States",
          "short_name": "US",
          "types": [
            "country",
            "political"
          ]
        }
      ],
      "formatted_address": "Missouri, USA",
      "geometry": {
        "bounds": {
          "northeast": {
            "lat": 40.61364,
            "lng": -89.09949399999999
          },
          "southwest": {
            "lat": 35.9956829,
            "lng": -95.774704
          }
        },
        "location": {
          "lat": 37.9642529,
          "lng": -91.8318334
        },
        "location_type": "APPROXIMATE",
        "viewport": {
          "northeast": {
            "lat": 40.61364,
            "lng": -89.09949399999999
          },
          "southwest": {
            "lat": 35.9956829,
            "lng": -95.774704
          }
        }
      },
      "place_id": "ChIJfeMiSNXmwIcRcr1mBFnEW7U",
      "types": [
        "administrative_area_level_1",
        "political"
      ]
    },
    {
      "address_components": [
        {
          "long_name": "United States",
          "short_name": "US",
          "types": [
            "country",
            "political"
          ]
        }
      ],
      "formatted_address": "United States",
      "geometry": {
        "bounds": {
          "northeast": {
            "lat": 71.3867745,
            "lng": -66.9502861
          },
          "southwest": {
            "lat": 18.9106768,
            "lng": 172.4458955
          }
        },
        "location": {
          "lat": 37.09024,
          "lng": -95.712891
        },
        "location_type": "APPROXIMATE",
        "viewport": {
          "northeast": {
            "lat": 49.38,
            "lng": -66.94
          },
          "southwest": {
            "lat": 25.82,
            "lng": -124.39
          }
        }
      },
      "place_id": "ChIJCzYy5IS16lQRQrfeQ5K5Oxw",
      "types": [
        "country",
        "political"
      ]
    }
  ],
  "status": "OK"
}
