{
  "results": [
    {
      "address_components": [
        {
          "long_name": "99",
          "short_name": "99",
          "types": [
            "street_number"
          ]
        },
        {
          "long_name": "Parsonage Lane",
          "short_name": "Parsonage Ln",
          "types": [
            "route"
          ]
        },
        {
          "long_name": "Sagaponack",
          "short_name": "Sagaponack",
          "types": [
            "locality",
            "political"
          ]
        },
        {
          "long_name": "Southampton",
          "short_name": "Southampton",
          "types": [
            "administrative_area_level_3",
            "political"
          ]
        },
        {
          "long_name": "Suffolk County",
          "short_name": "Suffolk County",
          "types": [
            "administrative_area_level_2",
            "political"
          ]
        },
        {
          "long_name": "New York",
          "short_name": "NY",
          "types": [
            "administrative_area_level_1",
            "political"
          ]
        },
        {
          "long_name": "United States",
          "short_name": "US",
          "types": [
            "country",
            "political"
          ]
        },
        {
          "long_name": "11962",
          "short_name": "11962",
          "types": [
            "postal_code"
          ]
        }
      ],
      "formatted_address": "99 Parsonage Ln, Sagaponack, NY 11962, USA",
      "geometry": {
        "location": {
          "lat": 40.929483,
          "lng": -72.27622029999999
        },
        "location_type": "ROOFTOP",
        "viewport": {
          "northeast": {
            "lat": 40.93083198029149,
            "lng": -72.27487131970848
          },
          "southwest": {
            "lat": 40.92813401970849,
            "lng": -72.2775692802915
          }
        }
      },
      "place_id": "ChIJPbp6rye86IkR3DcMbzYsESg",
      "types": [
        "street_address"
      ]
    },
    {
      "address_components": [
        {
          "long_name": "Sagaponack",
          "short_name": "Sagaponack",
          "types": [
            "locality",
            "political"
          ]
        },
        {
          "long_name": "Southampton",
          "short_name": "Southampton",
          "types": [
            "administrative_area_level_3",
            "political"
          ]
        },
        {
          "long_name": "Suffolk County",
          "short_name": "Suffolk County",
          "types": [
            "administrative_area_level_2",
            "political"
          ]
        },
        {
          "long_name": "New York",
          "short_name": "NY",
          "types": [
            "administrative_area_level_1",
            "political"
          ]
        },
        {
          "long_name": "United States",
          "short_name": "US",
          "types": [
            "country",
            "political"
          ]
        }
      ],
      "formatted_address": "Sagaponack, NY, USA",
      "geometry": {
        "bounds": {
          "northeast": {
            "lat": 40.9530739,
            "lng": -72.24574790000001
          },
          "southwest": {
            "lat": 40.9062197,
            "lng": -72.2943411
          }
        },
        "location": {
          "lat": 40.9253776,
          "lng": -72.2781375
        },
        "location_type": "APPROXIMATE",
        "viewport": {
          "northeast": {
            "lat": 40.9530739,
            "lng": -72.24574790000001
          },
          "southwest": {
            "lat": 40.9062197,
            "lng": -72.2943411
          }
        }
      },
      "place_id": "ChIJg7mnBIS-6IkRihg6KLcP6Ec",
      "types": [
        "locality",
        "political"
      ]
    },
    {
      "address_components": [
        {
          "long_name": "11962",
          "short_name": "11962",
          "types": [
            "postal_code"
          ]
        },
        {
          "long_name": "Sagaponack",
          "short_name": "Sagaponack",
          "types": [
            "locality",
            "political"
          ]
        },
        {
          "long_name": "Suffolk County",
          "short_name": "Suffolk County",
          "types": [
            "administrative_area_level_2",
            "political"
          ]
        },
        {
          "long_name": "New York",
          "short_name": "NY",
          "types": [
            "administrative_area_level_1",
            "political"
          ]
        },
        {
          "long_name": "United States",
          "short_name": "US",
          "types": [
            "country",
            "political"
          ]
        }
      ],
      "formatted_address": "Sagaponack, NY 11962, USA",
      "geometry": {
        "bounds": {
          "northeast": {
            "lat": 40.9605661,
            "lng": -72.236549
          },
          "southwest": {
            "lat": 40.8991191,
            "lng": -72.29740079999999
          }
        },
        "location": {
          "lat": 40.9213308,
          "lng": -72.271908
        },
        "location_type": "APPROXIMATE",
        "viewport": {
          "northeast": {
            "lat": 40.9605661,
            "lng": -72.236549
          },
          "southwest": {
            "lat": 40.8991191,
            "lng": -72.29740079999999
          }
        }
      },
      "place_id": "ChIJKdxqeCe86IkRjr_z7bghdH0",
      "types": [
        "postal_code"
      ]
    },
    {
      "address_components": [
        {
          "long_name": "Southampton",
          "short_name": "Southampton",
          "types": [
            "administrative_area_level_3",
            "political"
          ]
        },
        {
          "long_name": "Suffolk County",
          "short_name": "Suffolk County",
          "types": [
            "administrative_area_level_2",
            "political"
          ]
        },
        {
          "long_name": "New York",
          "short_name": "NY",
          "types": [
            "administrative_area_level_1",
            "political"
          ]
        },
        {
          "long_name": "United States",
          "short_name": "US",
          "types": [
            "country",
            "political"
          ]
        }
      ],
      "formatted_address": "Southampton, NY, USA",
      "geometry": {
        "bounds": {
          "northeast": {
            "lat": 41.0409569,
            "lng": -72.2456265
          },
          "southwest": {
            "lat": 40.7712478,
            "lng": -72.7287111
          }
        },
        "location": {
          "lat": 40.8598656,
          "lng": -72.5678041
        },
        "location_type": "APPROXIMATE",
        "viewport": {
          "northeast": {
            "lat": 41.0409569,
            "lng": -72.2456265
          },
          "southwest": {
            "lat": 40.7712478,
            "lng": -72.7287111
          }
        }
      },
      "place_id": "ChIJ_TWoDO5e6IkRvbxwplwpKsM",
      "types": [
        "administrative_area_level_3",
        "political"
      ]
    },
    {
      "address_components": [
        {
          "long_name": "Suffolk County",
          "short_name": "Suffolk County",
          "types": [
            "administrative_area_level_2",
            "political"
          ]
        },
        {
          "long_name": "New York",
          "short_name": "NY",
          "types": [
            "administrative_area_level_1",
            "political"
          ]
        },
        {
          "long_name": "United States",
          "short_name": "US",
          "types": [
            "country",
            "political"
          ]
        }
      ],
      "formatted_address": "Suffolk County, NY, USA",
      "geometry": {
        "bounds": {
          "northeast": {
            "lat": 41.2923797,
            "lng": -71.8562082
          },
          "southwest": {
            "lat": 40.6094203,
            "lng": -73.497125
          }
        },
        "location": {
          "lat": 40.9848784,
          "lng": -72.61511689999999
        },
        "location_type": "APPROXIMATE",
        "viewport": {
          "northeast": {
            "lat": 41.2923194,
            "lng": -71.8562082
          },
          "southwest": {
            "lat": 40.6094203,
            "lng": -73.497125
          }
        }
      },
      "place_id": "ChIJ1_mbyICu4IkRU18dDUkMxJU",
      "types": [
        "administrative_area_level_2",
        "political"
      ]
    },
    {
      "address_components": [
        {
          "long_name": "New York",
          "short_name": "NY",
          "types": [
            "administrative_area_level_1",
            "political"
          ]
        },
        {
          "long_name": "United States",
          "short_name": "US",
          "types": [
            "country",
            "political"
          ]
        }
      ],
      "formatted_address": "New York, USA",
      "geometry": {
        "bounds": {
          "northeast": {
            "lat": 45.015865,
            "lng": -71.85620639999999
          },
          "southwest": {
            "lat": 40.496091,
            "lng": -79.76214379999999
          }
        },
        "location": {
          "lat": 43.2994285,
          "lng": -74.21793260000001
        },
        "location_type": "APPROXIMATE",
        "viewport": {
          "northeast": {
            "lat": 45.015859,
            "lng": -71.85620639999999
          },
          "southwest": {
            "lat": 40.496091,
            "lng": -79.76214379999999
          }
        }
      },
      "place_id": "ChIJqaUj8fBLzEwRZ5UY3sHGz90",
      "types": [
        "administrative_area_level_1",
        "political"
      ]
    },
    {
      "address_components": [
        {
          "long_name": "United States",
          "short_name": "US",
          "types": [
            "country",
            "political"
          ]
        }
      ],
      "formatted_address": "United States",
      "geometry": {
        "bounds": {
          "northeast": {
            "lat": 71.3867745,
            "lng": -66.9502861
          },
          "southwest": {
            "lat": 18.9106768,
            "lng": 172.4458955
          }
        },
        "location": {
          "lat": 37.09024,
          "lng": -95.712891
        },
        "location_type": "APPROXIMATE",
        "viewport": {
          "northeast": {
            "lat": 49.38,
            "lng": -66.94
          },
          "southwest": {
            "lat": 25.82,
            "lng": -124.39
          }
        }
      },
      "place_id": "ChIJCzYy5IS16lQRQrfeQ5K5Oxw",
      "types": [
        "country",
        "political"
      ]
    }
  ],
  "status": "OK"
}
