{
  "results": [
    {
      "address_components": [
        {
          "long_name": "3770",
          "short_name": "3770",
          "types": [
            "street_number"
          ]
        },
        {
          "long_name": "Riehle Road",
          "short_name": "Riehle Rd",
          "types": [
            "route"
          ]
        },
        {
          "long_name": "Cincinnati",
          "short_name": "Cincinnati",
          "types": [
            "locality",
            "political"
          ]
        },
        {
          "long_name": "Colerain Township",
          "short_name": "Colerain Township",
          "types": [
            "administrative_area_level_3",
            "political"
          ]
        },
        {
          "long_name": "Hamilton County",
          "short_name": "Hamilton County",
          "types": [
            "administrative_area_level_2",
            "political"
          ]
        },
        {
          "long_name": "Ohio",
          "short_name": "OH",
          "types": [
            "administrative_area_level_1",
            "political"
          ]
        },
        {
          "long_name": "United States",
          "short_name": "US",
          "types": [
            "country",
            "political"
          ]
        },
        {
          "long_name": "45247",
          "short_name": "45247",
          "types": [
            "postal_code"
          ]
        }
      ],
      "formatted_address": "3770 Riehle Rd, Cincinnati, OH 45247, USA",
      "geometry": {
        "location": {
          "lat": 39.209972,
          "lng": -84.60600000000001
        },
        "location_type": "ROOFTOP",
        "viewport": {
          "northeast": {
            "lat": 39.2113209802915,
            "lng": -84.60465101970851
          },
          "southwest": {
            "lat": 39.2086230197085,
            "lng": -84.60734898029152
          }
        }
      },
      "place_id": "ChIJLXL3YadKQIgRrJ2VKk2GbpA",
      "types": [
        "street_address"
      ]
    },
    {
      "address_components": [
        {
          "long_name": "White Oak",
          "short_name": "White Oak",
          "types": [
            "locality",
            "political"
          ]
        },
        {
          "long_name": "Colerain Township",
          "short_name": "Colerain Township",
          "types": [
            "administrative_area_level_3",
            "political"
          ]
        },
        {
          "long_name": "Hamilton County",
          "short_name": "Hamilton County",
          "types": [
            "administrative_area_level_2",
            "political"
          ]
        },
        {
          "long_name": "Ohio",
          "short_name": "OH",
          "types": [
            "administrative_area_level_1",
            "political"
          ]
        },
        {
          "long_name": "United States",
          "short_name": "US",
          "types": [
            "country",
            "political"
          ]
        }
      ],
      "formatted_address": "White Oak, OH, USA",
      "geometry": {
        "bounds": {
          "northeast": {
            "lat": 39.2325419,
            "lng": -84.5686539
          },
          "southwest": {
            "lat": 39.19123099999999,
            "lng": -84.637131
          }
        },
        "location": {
          "lat": 39.2131131,
          "lng": -84.59938989999999
        },
        "location_type": "APPROXIMATE",
        "viewport": {
          "northeast": {
            "lat": 39.2325419,
            "lng": -84.5686539
          },
          "southwest": {
            "lat": 39.19123099999999,
            "lng": -84.637131
          }
        }
      },
      "place_id": "ChIJD5vRJJ5KQIgR_SlkYRdjoa0",
      "types": [
        "locality",
        "political"
      ]
    },
    {
      "address_components": [
        {
          "long_name": "45247",
          "short_name": "45247",
          "types": [
            "postal_code"
          ]
        },
        {
          "long_name": "Cincinnati",
          "short_name": "Cincinnati",
          "types": [
            "locality",
            "political"
          ]
        },
        {
          "long_name": "Hamilton County",
          "short_name": "Hamilton County",
          "types": [
            "administrative_area_level_2",
            "political"
          ]
        },
        {
          "long_name": "Ohio",
          "short_name": "OH",
          "types": [
            "administrative_area_level_1",
            "political"
          ]
        },
        {
          "long_name": "United States",
          "short_name": "US",
          "types": [
            "country",
            "political"
          ]
        }
      ],
      "formatted_address": "Cincinnati, OH 45247, USA",
      "geometry": {
        "bounds": {
          "northeast": {
            "lat": 39.264723,
            "lng": -84.59493909999999
          },
          "southwest": {
            "lat": 39.177625,
            "lng": -84.718971
          }
        },
        "location": {
          "lat": 39.2295369,
          "lng": -84.6583745
        },
        "location_type": "APPROXIMATE",
        "viewport": {
          "northeast": {
            "lat": 39.264723,
            "lng": -84.59493909999999
          },
          "southwest": {
            "lat": 39.177625,
            "lng": -84.718971
          }
        }
      },
      "place_id": "ChIJ2-hsleA0QIgRJvH9LzPkc3M",
      "postcode_localities": [
        "Cincinnati",
        "Groesbeck"
      ],
      "types": [
        "postal_code"
      ]
    },
    {
      "address_components": [
        {
          "long_name": "Colerain Township",
          "short_name": "Colerain Township",
          "types": [
            "administrative_area_level_3",
            "political"
          ]
        },
        {
          "long_name": "Hamilton County",
          "short_name": "Hamilton County",
          "types": [
            "administrative_area_level_2",
            "political"
          ]
        },
        {
          "long_name": "Ohio",
          "short_name": "OH",
          "types": [
            "administrative_area_level_1",
            "political"
          ]
        },
        {
          "long_name": "United States",
          "short_name": "US",
          "types": [
            "country",
            "political"
          ]
        }
      ],
      "formatted_address": "Colerain Township, OH, USA",
      "geometry": {
        "bounds": {
          "northeast": {
            "lat": 39.312056,
            "lng": -84.5623579
          },
          "southwest": {
            "lat": 39.204358,
            "lng": -84.7172849
          }
        },
        "location": {
          "lat": 39.2591765,
          "lng": -84.6269824
        },
        "location_type": "APPROXIMATE",
        "viewport": {
          "northeast": {
            "lat": 39.312056,
            "lng": -84.5623579
          },
          "southwest": {
            "lat": 39.204358,
            "lng": -84.7172849
          }
        }
      },
      "place_id": "ChIJfZ4TLZ41QIgRg9MVB1CjPWY",
      "types": [
        "administrative_area_level_3",
        "political"
      ]
    },
    {
      "address_components": [
        {
          "long_name": "Hamilton County",
          "short_name": "Hamilton County",
          "types": [
            "administrative_area_level_2",
            "political"
          ]
        },
        {
          "long_name": "Ohio",
          "short_name": "OH",
          "types": [
            "administrative_area_level_1",
            "political"
          ]
        },
        {
          "long_name": "United States",
          "short_name": "US",
          "types": [
            "country",
            "political"
          ]
        }
      ],
      "formatted_address": "Hamilton County, OH, USA",
      "geometry": {
        "bounds": {
          "northeast": {
            "lat": 39.312056,
            "lng": -84.25639090000001
          },
          "southwest": {
            "lat": 39.0216,
            "lng": -84.8203049
          }
        },
        "location": {
          "lat": 39.2355447,
          "lng": -84.56414699999999
        },
        "location_type": "APPROXIMATE",
        "viewport": {
          "northeast": {
            "lat": 39.312056,
            "lng": -84.25639090000001
          },
          "southwest": {
            "lat": 39.0216,
            "lng": -84.8203049
          }
        }
      },
      "place_id": "ChIJ1808oWhQQIgRMC9c5Ml8hMo",
      "types": [
        "administrative_area_level_2",
        "political"
      ]
    },
    {
      "address_components": [
        {
          "long_name": "Ohio",
          "short_name": "OH",
          "types": [
            "administrative_area_level_1",
            "political"
          ]
        },
        {
          "long_name": "United States",
          "short_name": "US",
          "types": [
            "country",
            "political"
          ]
        }
      ],
      "formatted_address": "Ohio, USA",
      "geometry": {
        "bounds": {
          "northeast": {
            "lat": 41.9773019,
            "lng": -80.5182
          },
          "southwest": {
            "lat": 38.4034229,
            "lng": -84.8203049
          }
        },
        "location": {
          "lat": 40.4172871,
          "lng": -82.90712300000001
        },
        "location_type": "APPROXIMATE",
        "viewport": {
          "northeast": {
            "lat": 41.9773019,
            "lng": -80.5182
          },
          "southwest": {
            "lat": 38.4034229,
            "lng": -84.8203049
          }
        }
      },
      "place_id": "ChIJwY5NtXrpNogRFtmfnDlkzeU",
      "types": [
        "administrative_area_level_1",
        "political"
      ]
    },
    {
      "address_components": [
        {
          "long_name": "United States",
          "short_name": "US",
          "types": [
            "country",
            "political"
          ]
        }
      ],
      "formatted_address": "United States",
      "geometry": {
        "bounds": {
          "northeast": {
            "lat": 71.3867745,
            "lng": -66.9502861
          },
          "southwest": {
            "lat": 18.9106768,
            "lng": 172.4458955
          }
        },
        "location": {
          "lat": 37.09024,
          "lng": -95.712891
        },
        "location_type": "APPROXIMATE",
        "viewport": {
          "northeast": {
            "lat": 49.38,
            "lng": -66.94
          },
          "southwest": {
            "lat": 25.82,
            "lng": -124.39
          }
        }
      },
      "place_id": "ChIJCzYy5IS16lQRQrfeQ5K5Oxw",
      "types": [
        "country",
        "political"
      ]
    }
  ],
  "status": "OK"
}
