{
  "results": [
    {
      "address_components": [
        {
          "long_name": "165",
          "short_name": "165",
          "types": [
            "street_number"
          ]
        },
        {
          "long_name": "South Corn Street",
          "short_name": "S Corn St",
          "types": [
            "route"
          ]
        },
        {
          "long_name": "Campbellsburg",
          "short_name": "Campbellsburg",
          "types": [
            "locality",
            "political"
          ]
        },
        {
          "long_name": "Madison Township",
          "short_name": "Madison Township",
          "types": [
            "administrative_area_level_3",
            "political"
          ]
        },
        {
          "long_name": "Washington County",
          "short_name": "Washington County",
          "types": [
            "administrative_area_level_2",
            "political"
          ]
        },
        {
          "long_name": "Indiana",
          "short_name": "IN",
          "types": [
            "administrative_area_level_1",
            "political"
          ]
        },
        {
          "long_name": "United States",
          "short_name": "US",
          "types": [
            "country",
            "political"
          ]
        },
        {
          "long_name": "47108",
          "short_name": "47108",
          "types": [
            "postal_code"
          ]
        },
        {
          "long_name": "8002",
          "short_name": "8002",
          "types": [
            "postal_code_suffix"
          ]
        }
      ],
      "formatted_address": "165 S Corn St, Campbellsburg, IN 47108, USA",
      "geometry": {
        "location": {
          "lat": 38.555753,
          "lng": -86.277434
        },
        "location_type": "ROOFTOP",
        "viewport": {
          "northeast": {
            "lat": 38.55710198029149,
            "lng": -86.27608501970849
          },
          "southwest": {
            "lat": 38.55440401970849,
            "lng": -86.2787829802915
          }
        }
      },
      "place_id": "ChIJAZ5il-CqbogRA2KZ3NR4quA",
      "types": [
        "street_address"
      ]
    },
    {
      "address_components": [
        {
          "long_name": "Livonia",
          "short_name": "Livonia",
          "types": [
            "locality",
            "political"
          ]
        },
        {
          "long_name": "Madison Township",
          "short_name": "Madison Township",
          "types": [
            "administrative_area_level_3",
            "political"
          ]
        },
        {
          "long_name": "Washington County",
          "short_name": "Washington County",
          "types": [
            "administrative_area_level_2",
            "political"
          ]
        },
        {
          "long_name": "Indiana",
          "short_name": "IN",
          "types": [
            "administrative_area_level_1",
            "political"
          ]
        },
        {
          "long_name": "United States",
          "short_name": "US",
          "types": [
            "country",
            "political"
          ]
        },
        {
          "long_name": "47108",
          "short_name": "47108",
          "types": [
            "postal_code"
          ]
        }
      ],
      "formatted_address": "Livonia, IN 47108, USA",
      "geometry": {
        "bounds": {
          "northeast": {
            "lat": 38.5642158,
            "lng": -86.2705661
          },
          "southwest": {
            "lat": 38.5424349,
            "lng": -86.2867079
          }
        },
        "location": {
          "lat": 38.5570015,
          "lng": -86.2774826
        },
        "location_type": "APPROXIMATE",
        "viewport": {
          "northeast": {
            "lat": 38.5642158,
            "lng": -86.2705661
          },
          "southwest": {
            "lat": 38.5424349,
            "lng": -86.2867079
          }
        }
      },
      "place_id": "ChIJp5JTVeGqbogREXC_KRbIUuI",
      "types": [
        "locality",
        "political"
      ]
    },
    {
      "address_components": [
        {
          "long_name": "Madison Township",
          "short_name": "Madison Township",
          "types": [
            "administrative_area_level_3",
            "political"
          ]
        },
        {
          "long_name": "Washington County",
          "short_name": "Washington County",
          "types": [
            "administrative_area_level_2",
            "political"
          ]
        },
        {
          "long_name": "Indiana",
          "short_name": "IN",
          "types": [
            "administrative_area_level_1",
            "political"
          ]
        },
        {
          "long_name": "United States",
          "short_name": "US",
          "types": [
            "country",
            "political"
          ]
        }
      ],
      "formatted_address": "Madison Township, IN, USA",
      "geometry": {
        "bounds": {
          "northeast": {
            "lat": 38.564394,
            "lng": -86.23331809999999
          },
          "southwest": {
            "lat": 38.470213,
            "lng": -86.308787
          }
        },
        "location": {
          "lat": 38.5310322,
          "lng": -86.2767995
        },
        "location_type": "APPROXIMATE",
        "viewport": {
          "northeast": {
            "lat": 38.564394,
            "lng": -86.23331809999999
          },
          "southwest": {
            "lat": 38.470213,
            "lng": -86.308787
          }
        }
      },
      "place_id": "ChIJ6yc6m1urbogRg0UHStRDx0c",
      "types": [
        "administrative_area_level_3",
        "political"
      ]
    },
    {
      "address_components": [
        {
          "long_name": "47108",
          "short_name": "47108",
          "types": [
            "postal_code"
          ]
        },
        {
          "long_name": "Campbellsburg",
          "short_name": "Campbellsburg",
          "types": [
            "locality",
            "political"
          ]
        },
        {
          "long_name": "Indiana",
          "short_name": "IN",
          "types": [
            "administrative_area_level_1",
            "political"
          ]
        },
        {
          "long_name": "United States",
          "short_name": "US",
          "types": [
            "country",
            "political"
          ]
        }
      ],
      "formatted_address": "Campbellsburg, IN 47108, USA",
      "geometry": {
        "bounds": {
          "northeast": {
            "lat": 38.793468,
            "lng": -86.13652990000001
          },
          "southwest": {
            "lat": 38.499433,
            "lng": -86.34615
          }
        },
        "location": {
          "lat": 38.6568062,
          "lng": -86.2767995
        },
        "location_type": "APPROXIMATE",
        "viewport": {
          "northeast": {
            "lat": 38.793468,
            "lng": -86.13652990000001
          },
          "southwest": {
            "lat": 38.499433,
            "lng": -86.34615
          }
        }
      },
      "place_id": "ChIJyfEuY2D_a4gR3cu55gdwjlI",
      "postcode_localities": [
        "Campbellsburg",
        "Livonia"
      ],
      "types": [
        "postal_code"
      ]
    },
    {
      "address_components": [
        {
          "long_name": "Washington County",
          "short_name": "Washington County",
          "types": [
            "administrative_area_level_2",
            "political"
          ]
        },
        {
          "long_name": "Indiana",
          "short_name": "IN",
          "types": [
            "administrative_area_level_1",
            "political"
          ]
        },
        {
          "long_name": "United States",
          "short_name": "US",
          "types": [
            "country",
            "political"
          ]
        }
      ],
      "formatted_address": "Washington County, IN, USA",
      "geometry": {
        "bounds": {
          "northeast": {
            "lat": 38.783588,
            "lng": -85.8475799
          },
          "southwest": {
            "lat": 38.417795,
            "lng": -86.31007609999999
          }
        },
        "location": {
          "lat": 38.6744747,
          "lng": -86.17517590000001
        },
        "location_type": "APPROXIMATE",
        "viewport": {
          "northeast": {
            "lat": 38.783588,
            "lng": -85.8475799
          },
          "southwest": {
            "lat": 38.417795,
            "lng": -86.31007609999999
          }
        }
      },
      "place_id": "ChIJnUuy0EKsbogRuunlsWnk5nk",
      "types": [
        "administrative_area_level_2",
        "political"
      ]
    },
    {
      "address_components": [
        {
          "long_name": "Louisville",
          "short_name": "Louisville",
          "types": [
            "political"
          ]
        },
        {
          "long_name": "United States",
          "short_name": "US",
          "types": [
            "country",
            "political"
          ]
        }
      ],
      "formatted_address": "Louisville, USA",
      "geometry": {
        "bounds": {
          "northeast": {
            "lat": 38.78346,
            "lng": -84.866946
          },
          "southwest": {
            "lat": 37.5230229,
            "lng": -86.49068489999999
          }
        },
        "location": {
          "lat": 38.3964426,
          "lng": -85.4375574
        },
        "location_type": "APPROXIMATE",
        "viewport": {
          "northeast": {
            "lat": 38.78346,
            "lng": -84.866946
          },
          "southwest": {
            "lat": 37.5230229,
            "lng": -86.49068489999999
          }
        }
      },
      "place_id": "ChIJ5_XH3FRzaYgR5xAb2lS3zfA",
      "types": [
        "political"
      ]
    },
    {
      "address_components": [
        {
          "long_name": "Indiana",
          "short_name": "IN",
          "types": [
            "administrative_area_level_1",
            "political"
          ]
        },
        {
          "long_name": "United States",
          "short_name": "US",
          "types": [
            "country",
            "political"
          ]
        }
      ],
      "formatted_address": "Indiana, USA",
      "geometry": {
        "bounds": {
          "northeast": {
            "lat": 41.7606971,
            "lng": -84.784662
          },
          "southwest": {
            "lat": 37.7717419,
            "lng": -88.097892
          }
        },
        "location": {
          "lat": 40.2671941,
          "lng": -86.1349019
        },
        "location_type": "APPROXIMATE",
        "viewport": {
          "northeast": {
            "lat": 41.7606971,
            "lng": -84.784662
          },
          "southwest": {
            "lat": 37.7717419,
            "lng": -88.097892
          }
        }
      },
      "place_id": "ChIJHRv42bxQa4gRcuwyy84vEH4",
      "types": [
        "administrative_area_level_1",
        "political"
      ]
    },
    {
      "address_components": [
        {
          "long_name": "United States",
          "short_name": "US",
          "types": [
            "country",
            "political"
          ]
        }
      ],
      "formatted_address": "United States",
      "geometry": {
        "bounds": {
          "northeast": {
            "lat": 71.3867745,
            "lng": -66.9502861
          },
          "southwest": {
            "lat": 18.9106768,
            "lng": 172.4458955
          }
        },
        "location": {
          "lat": 37.09024,
          "lng": -95.712891
        },
        "location_type": "APPROXIMATE",
        "viewport": {
          "northeast": {
            "lat": 49.38,
            "lng": -66.94
          },
          "southwest": {
            "lat": 25.82,
            "lng": -124.39
          }
        }
      },
      "place_id": "ChIJCzYy5IS16lQRQrfeQ5K5Oxw",
      "types": [
        "country",
        "political"
      ]
    }
  ],
  "status": "OK"
}
