{
  "results": [
    {
      "address_components": [
        {
          "long_name": "79",
          "short_name": "79",
          "types": [
            "street_number"
          ]
        },
        {
          "long_name": "Warren Avenue",
          "short_name": "Warren Ave",
          "types": [
            "route"
          ]
        },
        {
          "long_name": "White Plains",
          "short_name": "White Plains",
          "types": [
            "locality",
            "political"
          ]
        },
        {
          "long_name": "Greenburgh",
          "short_name": "Greenburgh",
          "types": [
            "administrative_area_level_3",
            "political"
          ]
        },
        {
          "long_name": "Westchester County",
          "short_name": "Westchester County",
          "types": [
            "administrative_area_level_2",
            "political"
          ]
        },
        {
          "long_name": "New York",
          "short_name": "NY",
          "types": [
            "administrative_area_level_1",
            "political"
          ]
        },
        {
          "long_name": "United States",
          "short_name": "US",
          "types": [
            "country",
            "political"
          ]
        },
        {
          "long_name": "10607",
          "short_name": "10607",
          "types": [
            "postal_code"
          ]
        }
      ],
      "formatted_address": "79 Warren Ave, White Plains, NY 10607, USA",
      "geometry": {
        "bounds": {
          "northeast": {
            "lat": 41.0442892,
            "lng": -73.7964081
          },
          "southwest": {
            "lat": 41.0441049,
            "lng": -73.7965518
          }
        },
        "location": {
          "lat": 41.0441239,
          "lng": -73.79641269999999
        },
        "location_type": "RANGE_INTERPOLATED",
        "viewport": {
          "northeast": {
            "lat": 41.0455460302915,
            "lng": -73.79513096970848
          },
          "southwest": {
            "lat": 41.0428480697085,
            "lng": -73.7978289302915
          }
        }
      },
      "place_id": "Eio3OSBXYXJyZW4gQXZlLCBXaGl0ZSBQbGFpbnMsIE5ZIDEwNjA3LCBVU0E",
      "types": [
        "street_address"
      ]
    },
    {
      "address_components": [
        {
          "long_name": "Fairview",
          "short_name": "Fairview",
          "types": [
            "locality",
            "political"
          ]
        },
        {
          "long_name": "Greenburgh",
          "short_name": "Greenburgh",
          "types": [
            "administrative_area_level_3",
            "political"
          ]
        },
        {
          "long_name": "Westchester County",
          "short_name": "Westchester County",
          "types": [
            "administrative_area_level_2",
            "political"
          ]
        },
        {
          "long_name": "New York",
          "short_name": "NY",
          "types": [
            "administrative_area_level_1",
            "political"
          ]
        },
        {
          "long_name": "United States",
          "short_name": "US",
          "types": [
            "country",
            "political"
          ]
        }
      ],
      "formatted_address": "Fairview, NY, USA",
      "geometry": {
        "bounds": {
          "northeast": {
            "lat": 41.0498809,
            "lng": -73.785653
          },
          "southwest": {
            "lat": 41.037867,
            "lng": -73.806524
          }
        },
        "location": {
          "lat": 41.0434304,
          "lng": -73.7973552
        },
        "location_type": "APPROXIMATE",
        "viewport": {
          "northeast": {
            "lat": 41.0498809,
            "lng": -73.785653
          },
          "southwest": {
            "lat": 41.037867,
            "lng": -73.806524
          }
        }
      },
      "place_id": "ChIJn2-lHACVwokRdXsObN5wMTE",
      "types": [
        "locality",
        "political"
      ]
    },
    {
      "address_components": [
        {
          "long_name": "10607",
          "short_name": "10607",
          "types": [
            "postal_code"
          ]
        },
        {
          "long_name": "White Plains",
          "short_name": "White Plains",
          "types": [
            "locality",
            "political"
          ]
        },
        {
          "long_name": "Westchester County",
          "short_name": "Westchester County",
          "types": [
            "administrative_area_level_2",
            "political"
          ]
        },
        {
          "long_name": "New York",
          "short_name": "NY",
          "types": [
            "administrative_area_level_1",
            "political"
          ]
        },
        {
          "long_name": "United States",
          "short_name": "US",
          "types": [
            "country",
            "political"
          ]
        }
      ],
      "formatted_address": "White Plains, NY 10607, USA",
      "geometry": {
        "bounds": {
          "northeast": {
            "lat": 41.0525169,
            "lng": -73.77533389999999
          },
          "southwest": {
            "lat": 41.0232289,
            "lng": -73.84644899999999
          }
        },
        "location": {
          "lat": 41.0390683,
          "lng": -73.8154394
        },
        "location_type": "APPROXIMATE",
        "viewport": {
          "northeast": {
            "lat": 41.0525169,
            "lng": -73.77533389999999
          },
          "southwest": {
            "lat": 41.0232289,
            "lng": -73.84644899999999
          }
        }
      },
      "place_id": "ChIJQa7DAeWUwokRiaTyRG654i0",
      "types": [
        "postal_code"
      ]
    },
    {
      "address_components": [
        {
          "long_name": "Greenburgh",
          "short_name": "Greenburgh",
          "types": [
            "administrative_area_level_3",
            "political"
          ]
        },
        {
          "long_name": "Westchester County",
          "short_name": "Westchester County",
          "types": [
            "administrative_area_level_2",
            "political"
          ]
        },
        {
          "long_name": "New York",
          "short_name": "NY",
          "types": [
            "administrative_area_level_1",
            "political"
          ]
        },
        {
          "long_name": "United States",
          "short_name": "US",
          "types": [
            "country",
            "political"
          ]
        }
      ],
      "formatted_address": "Greenburgh, NY, USA",
      "geometry": {
        "bounds": {
          "northeast": {
            "lat": 41.0869579,
            "lng": -73.7716219
          },
          "southwest": {
            "lat": 40.976565,
            "lng": -73.888718
          }
        },
        "location": {
          "lat": 41.0339576,
          "lng": -73.86542949999999
        },
        "location_type": "APPROXIMATE",
        "viewport": {
          "northeast": {
            "lat": 41.0869579,
            "lng": -73.7716219
          },
          "southwest": {
            "lat": 40.976565,
            "lng": -73.888718
          }
        }
      },
      "place_id": "ChIJ8R8b9KqTwokRTdmJVVjMDPc",
      "types": [
        "administrative_area_level_3",
        "political"
      ]
    },
    {
      "address_components": [
        {
          "long_name": "Westchester County",
          "short_name": "Westchester County",
          "types": [
            "administrative_area_level_2",
            "political"
          ]
        },
        {
          "long_name": "New York",
          "short_name": "NY",
          "types": [
            "administrative_area_level_1",
            "political"
          ]
        },
        {
          "long_name": "United States",
          "short_name": "US",
          "types": [
            "country",
            "political"
          ]
        }
      ],
      "formatted_address": "Westchester County, NY, USA",
      "geometry": {
        "bounds": {
          "northeast": {
            "lat": 41.366375,
            "lng": -73.4827091
          },
          "southwest": {
            "lat": 40.8764415,
            "lng": -73.98062070000002
          }
        },
        "location": {
          "lat": 41.1220194,
          "lng": -73.7948516
        },
        "location_type": "APPROXIMATE",
        "viewport": {
          "northeast": {
            "lat": 41.366375,
            "lng": -73.4827091
          },
          "southwest": {
            "lat": 40.8764415,
            "lng": -73.98062070000002
          }
        }
      },
      "place_id": "ChIJr1lrnWrJwokRidu9ImLYDjc",
      "types": [
        "administrative_area_level_2",
        "political"
      ]
    },
    {
      "address_components": [
        {
          "long_name": "New York",
          "short_name": "NY",
          "types": [
            "administrative_area_level_1",
            "political"
          ]
        },
        {
          "long_name": "United States",
          "short_name": "US",
          "types": [
            "country",
            "political"
          ]
        }
      ],
      "formatted_address": "New York, USA",
      "geometry": {
        "bounds": {
          "northeast": {
            "lat": 45.015865,
            "lng": -71.85620639999999
          },
          "southwest": {
            "lat": 40.496091,
            "lng": -79.76214379999999
          }
        },
        "location": {
          "lat": 43.2994285,
          "lng": -74.21793260000001
        },
        "location_type": "APPROXIMATE",
        "viewport": {
          "northeast": {
            "lat": 45.015859,
            "lng": -71.85620639999999
          },
          "southwest": {
            "lat": 40.496091,
            "lng": -79.76214379999999
          }
        }
      },
      "place_id": "ChIJqaUj8fBLzEwRZ5UY3sHGz90",
      "types": [
        "administrative_area_level_1",
        "political"
      ]
    },
    {
      "address_components": [
        {
          "long_name": "United States",
          "short_name": "US",
          "types": [
            "country",
            "political"
          ]
        }
      ],
      "formatted_address": "United States",
      "geometry": {
        "bounds": {
          "northeast": {
            "lat": 71.3867745,
            "lng": -66.9502861
          },
          "southwest": {
            "lat": 18.9106768,
            "lng": 172.4458955
          }
        },
        "location": {
          "lat": 37.09024,
          "lng": -95.712891
        },
        "location_type": "APPROXIMATE",
        "viewport": {
          "northeast": {
            "lat": 49.38,
            "lng": -66.94
          },
          "southwest": {
            "lat": 25.82,
            "lng": -124.39
          }
        }
      },
      "place_id": "ChIJCzYy5IS16lQRQrfeQ5K5Oxw",
      "types": [
        "country",
        "political"
      ]
    }
  ],
  "status": "OK"
}
