{
  "results": [
    {
      "address_components": [
        {
          "long_name": "Market Street",
          "short_name": "Market St",
          "types": [
            "route"
          ]
        },
        {
          "long_name": "Milan",
          "short_name": "Milan",
          "types": [
            "locality",
            "political"
          ]
        },
        {
          "long_name": "Ryan",
          "short_name": "Ryan",
          "types": [
            "administrative_area_level_3",
            "political"
          ]
        },
        {
          "long_name": "Sumner County",
          "short_name": "Sumner County",
          "types": [
            "administrative_area_level_2",
            "political"
          ]
        },
        {
          "long_name": "Kansas",
          "short_name": "KS",
          "types": [
            "administrative_area_level_1",
            "political"
          ]
        },
        {
          "long_name": "United States",
          "short_name": "US",
          "types": [
            "country",
            "political"
          ]
        },
        {
          "long_name": "67105",
          "short_name": "67105",
          "types": [
            "postal_code"
          ]
        }
      ],
      "formatted_address": "Market St, Milan, KS 67105, USA",
      "geometry": {
        "bounds": {
          "northeast": {
            "lat": 37.2575169,
            "lng": -97.6727274
          },
          "southwest": {
            "lat": 37.2575102,
            "lng": -97.6740712
          }
        },
        "location": {
          "lat": 37.2575104,
          "lng": -97.6733993
        },
        "location_type": "GEOMETRIC_CENTER",
        "viewport": {
          "northeast": {
            "lat": 37.2588625302915,
            "lng": -97.6720503197085
          },
          "southwest": {
            "lat": 37.2561645697085,
            "lng": -97.67474828029151
          }
        }
      },
      "place_id": "ChIJx6qgcKGxuocR3_T-jPQ9f6g",
      "types": [
        "route"
      ]
    },
    {
      "address_components": [
        {
          "long_name": "Milan",
          "short_name": "Milan",
          "types": [
            "locality",
            "political"
          ]
        },
        {
          "long_name": "Ryan",
          "short_name": "Ryan",
          "types": [
            "administrative_area_level_3",
            "political"
          ]
        },
        {
          "long_name": "Sumner County",
          "short_name": "Sumner County",
          "types": [
            "administrative_area_level_2",
            "political"
          ]
        },
        {
          "long_name": "Kansas",
          "short_name": "KS",
          "types": [
            "administrative_area_level_1",
            "political"
          ]
        },
        {
          "long_name": "United States",
          "short_name": "US",
          "types": [
            "country",
            "political"
          ]
        },
        {
          "long_name": "67105",
          "short_name": "67105",
          "types": [
            "postal_code"
          ]
        }
      ],
      "formatted_address": "Milan, KS 67105, USA",
      "geometry": {
        "bounds": {
          "northeast": {
            "lat": 37.263645,
            "lng": -97.6703429
          },
          "southwest": {
            "lat": 37.254294,
            "lng": -97.67862
          }
        },
        "location": {
          "lat": 37.2597432,
          "lng": -97.67394039999999
        },
        "location_type": "APPROXIMATE",
        "viewport": {
          "northeast": {
            "lat": 37.263645,
            "lng": -97.6703429
          },
          "southwest": {
            "lat": 37.254294,
            "lng": -97.67862
          }
        }
      },
      "place_id": "ChIJ9R1zbaGxuocR90htyjGVNxk",
      "types": [
        "locality",
        "political"
      ]
    },
    {
      "address_components": [
        {
          "long_name": "Ryan",
          "short_name": "Ryan",
          "types": [
            "administrative_area_level_3",
            "political"
          ]
        },
        {
          "long_name": "Sumner County",
          "short_name": "Sumner County",
          "types": [
            "administrative_area_level_2",
            "political"
          ]
        },
        {
          "long_name": "Kansas",
          "short_name": "KS",
          "types": [
            "administrative_area_level_1",
            "political"
          ]
        },
        {
          "long_name": "United States",
          "short_name": "US",
          "types": [
            "country",
            "political"
          ]
        }
      ],
      "formatted_address": "Ryan, KS, USA",
      "geometry": {
        "bounds": {
          "northeast": {
            "lat": 37.3002861,
            "lng": -97.58346089999999
          },
          "southwest": {
            "lat": 37.212772,
            "lng": -97.692618
          }
        },
        "location": {
          "lat": 37.2434949,
          "lng": -97.63311300000001
        },
        "location_type": "APPROXIMATE",
        "viewport": {
          "northeast": {
            "lat": 37.3002861,
            "lng": -97.58346089999999
          },
          "southwest": {
            "lat": 37.212772,
            "lng": -97.692618
          }
        }
      },
      "place_id": "ChIJLwtXWVqwuocR1NXY0QAVL5w",
      "types": [
        "administrative_area_level_3",
        "political"
      ]
    },
    {
      "address_components": [
        {
          "long_name": "67105",
          "short_name": "67105",
          "types": [
            "postal_code"
          ]
        },
        {
          "long_name": "Milan",
          "short_name": "Milan",
          "types": [
            "locality",
            "political"
          ]
        },
        {
          "long_name": "Sumner County",
          "short_name": "Sumner County",
          "types": [
            "administrative_area_level_2",
            "political"
          ]
        },
        {
          "long_name": "Kansas",
          "short_name": "KS",
          "types": [
            "administrative_area_level_1",
            "political"
          ]
        },
        {
          "long_name": "United States",
          "short_name": "US",
          "types": [
            "country",
            "political"
          ]
        }
      ],
      "formatted_address": "Milan, KS 67105, USA",
      "geometry": {
        "bounds": {
          "northeast": {
            "lat": 37.314551,
            "lng": -97.5844839
          },
          "southwest": {
            "lat": 37.1399899,
            "lng": -97.7653239
          }
        },
        "location": {
          "lat": 37.2307458,
          "lng": -97.6656625
        },
        "location_type": "APPROXIMATE",
        "viewport": {
          "northeast": {
            "lat": 37.314551,
            "lng": -97.5844839
          },
          "southwest": {
            "lat": 37.1399899,
            "lng": -97.7653239
          }
        }
      },
      "place_id": "ChIJgQ1G5MCxuocRQlmpLuN8evY",
      "types": [
        "postal_code"
      ]
    },
    {
      "address_components": [
        {
          "long_name": "Sumner County",
          "short_name": "Sumner County",
          "types": [
            "administrative_area_level_2",
            "political"
          ]
        },
        {
          "long_name": "Kansas",
          "short_name": "KS",
          "types": [
            "administrative_area_level_1",
            "political"
          ]
        },
        {
          "long_name": "United States",
          "short_name": "US",
          "types": [
            "country",
            "political"
          ]
        }
      ],
      "formatted_address": "Sumner County, KS, USA",
      "geometry": {
        "bounds": {
          "northeast": {
            "lat": 37.4772759,
            "lng": -97.1477139
          },
          "southwest": {
            "lat": 36.9985461,
            "lng": -97.8076
          }
        },
        "location": {
          "lat": 37.2236052,
          "lng": -97.6114217
        },
        "location_type": "APPROXIMATE",
        "viewport": {
          "northeast": {
            "lat": 37.4772759,
            "lng": -97.1477139
          },
          "southwest": {
            "lat": 36.9985461,
            "lng": -97.8076
          }
        }
      },
      "place_id": "ChIJb2Nlw8q_uocRpAMP89jrDH8",
      "types": [
        "administrative_area_level_2",
        "political"
      ]
    },
    {
      "address_components": [
        {
          "long_name": "Wichita",
          "short_name": "Wichita",
          "types": [
            "political"
          ]
        },
        {
          "long_name": "United States",
          "short_name": "US",
          "types": [
            "country",
            "political"
          ]
        }
      ],
      "formatted_address": "Wichita, USA",
      "geometry": {
        "bounds": {
          "northeast": {
            "lat": 38.174845,
            "lng": -96.52278199999999
          },
          "southwest": {
            "lat": 36.998682,
            "lng": -97.808684
          }
        },
        "location": {
          "lat": 37.56345719999999,
          "lng": -97.6114217
        },
        "location_type": "APPROXIMATE",
        "viewport": {
          "northeast": {
            "lat": 38.174845,
            "lng": -96.52278199999999
          },
          "southwest": {
            "lat": 36.998682,
            "lng": -97.808684
          }
        }
      },
      "place_id": "ChIJBR4vHiP7uocRb5iXYk82f7k",
      "types": [
        "political"
      ]
    },
    {
      "address_components": [
        {
          "long_name": "Kansas",
          "short_name": "KS",
          "types": [
            "administrative_area_level_1",
            "political"
          ]
        },
        {
          "long_name": "United States",
          "short_name": "US",
          "types": [
            "country",
            "political"
          ]
        }
      ],
      "formatted_address": "Kansas, USA",
      "geometry": {
        "bounds": {
          "northeast": {
            "lat": 40.0045419,
            "lng": -94.588387
          },
          "southwest": {
            "lat": 36.9930159,
            "lng": -102.0517688
          }
        },
        "location": {
          "lat": 39.011902,
          "lng": -98.4842465
        },
        "location_type": "APPROXIMATE",
        "viewport": {
          "northeast": {
            "lat": 40.0045419,
            "lng": -94.588387
          },
          "southwest": {
            "lat": 36.9930159,
            "lng": -102.0517688
          }
        }
      },
      "place_id": "ChIJawF8cXEXo4cRXwk-S6m0wmg",
      "types": [
        "administrative_area_level_1",
        "political"
      ]
    },
    {
      "address_components": [
        {
          "long_name": "United States",
          "short_name": "US",
          "types": [
            "country",
            "political"
          ]
        }
      ],
      "formatted_address": "United States",
      "geometry": {
        "bounds": {
          "northeast": {
            "lat": 71.3867745,
            "lng": -66.9502861
          },
          "southwest": {
            "lat": 18.9106768,
            "lng": 172.4458955
          }
        },
        "location": {
          "lat": 37.09024,
          "lng": -95.712891
        },
        "location_type": "APPROXIMATE",
        "viewport": {
          "northeast": {
            "lat": 49.38,
            "lng": -66.94
          },
          "southwest": {
            "lat": 25.82,
            "lng": -124.39
          }
        }
      },
      "place_id": "ChIJCzYy5IS16lQRQrfeQ5K5Oxw",
      "types": [
        "country",
        "political"
      ]
    }
  ],
  "status": "OK"
}
