{
  "results": [
    {
      "address_components": [
        {
          "long_name": "101-199",
          "short_name": "101-199",
          "types": [
            "street_number"
          ]
        },
        {
          "long_name": "3rd Street",
          "short_name": "3rd St",
          "types": [
            "route"
          ]
        },
        {
          "long_name": "Weatherby",
          "short_name": "Weatherby",
          "types": [
            "locality",
            "political"
          ]
        },
        {
          "long_name": "Adams Township",
          "short_name": "Adams Township",
          "types": [
            "administrative_area_level_3",
            "political"
          ]
        },
        {
          "long_name": "DeKalb County",
          "short_name": "Dekalb County",
          "types": [
            "administrative_area_level_2",
            "political"
          ]
        },
        {
          "long_name": "Missouri",
          "short_name": "MO",
          "types": [
            "administrative_area_level_1",
            "political"
          ]
        },
        {
          "long_name": "United States",
          "short_name": "US",
          "types": [
            "country",
            "political"
          ]
        },
        {
          "long_name": "64497",
          "short_name": "64497",
          "types": [
            "postal_code"
          ]
        }
      ],
      "formatted_address": "101-199 3rd St, Weatherby, MO 64497, USA",
      "geometry": {
        "bounds": {
          "northeast": {
            "lat": 39.9096258,
            "lng": -94.24193509999999
          },
          "southwest": {
            "lat": 39.9088917,
            "lng": -94.2419501
          }
        },
        "location": {
          "lat": 39.909292,
          "lng": -94.2419231
        },
        "location_type": "RANGE_INTERPOLATED",
        "viewport": {
          "northeast": {
            "lat": 39.9106077302915,
            "lng": -94.24059361970849
          },
          "southwest": {
            "lat": 39.9079097697085,
            "lng": -94.2432915802915
          }
        }
      },
      "place_id": "EigxMDEtMTk5IDNyZCBTdCwgV2VhdGhlcmJ5LCBNTyA2NDQ5NywgVVNB",
      "types": [
        "street_address"
      ]
    },
    {
      "address_components": [
        {
          "long_name": "Weatherby",
          "short_name": "Weatherby",
          "types": [
            "locality",
            "political"
          ]
        },
        {
          "long_name": "Adams Township",
          "short_name": "Adams Township",
          "types": [
            "administrative_area_level_3",
            "political"
          ]
        },
        {
          "long_name": "DeKalb County",
          "short_name": "Dekalb County",
          "types": [
            "administrative_area_level_2",
            "political"
          ]
        },
        {
          "long_name": "Missouri",
          "short_name": "MO",
          "types": [
            "administrative_area_level_1",
            "political"
          ]
        },
        {
          "long_name": "United States",
          "short_name": "US",
          "types": [
            "country",
            "political"
          ]
        },
        {
          "long_name": "64497",
          "short_name": "64497",
          "types": [
            "postal_code"
          ]
        }
      ],
      "formatted_address": "Weatherby, MO 64497, USA",
      "geometry": {
        "bounds": {
          "northeast": {
            "lat": 39.9124721,
            "lng": -94.2385389
          },
          "southwest": {
            "lat": 39.9051379,
            "lng": -94.247682
          }
        },
        "location": {
          "lat": 39.9094454,
          "lng": -94.2443945
        },
        "location_type": "APPROXIMATE",
        "viewport": {
          "northeast": {
            "lat": 39.9124721,
            "lng": -94.2385389
          },
          "southwest": {
            "lat": 39.9051379,
            "lng": -94.247682
          }
        }
      },
      "place_id": "ChIJL9GqBwZ46ocRr7iVpiZiQqw",
      "types": [
        "locality",
        "political"
      ]
    },
    {
      "address_components": [
        {
          "long_name": "Adams Township",
          "short_name": "Adams Township",
          "types": [
            "administrative_area_level_3",
            "political"
          ]
        },
        {
          "long_name": "DeKalb County",
          "short_name": "Dekalb County",
          "types": [
            "administrative_area_level_2",
            "political"
          ]
        },
        {
          "long_name": "Missouri",
          "short_name": "MO",
          "types": [
            "administrative_area_level_1",
            "political"
          ]
        },
        {
          "long_name": "United States",
          "short_name": "US",
          "types": [
            "country",
            "political"
          ]
        }
      ],
      "formatted_address": "Adams Township, MO, USA",
      "geometry": {
        "bounds": {
          "northeast": {
            "lat": 39.935691,
            "lng": -94.2048159
          },
          "southwest": {
            "lat": 39.832529,
            "lng": -94.31967499999999
          }
        },
        "location": {
          "lat": 39.8829089,
          "lng": -94.2538452
        },
        "location_type": "APPROXIMATE",
        "viewport": {
          "northeast": {
            "lat": 39.935691,
            "lng": -94.2048159
          },
          "southwest": {
            "lat": 39.832529,
            "lng": -94.31967499999999
          }
        }
      },
      "place_id": "ChIJbd_DvMfXwYcRkMLDKI2xjXU",
      "types": [
        "administrative_area_level_3",
        "political"
      ]
    },
    {
      "address_components": [
        {
          "long_name": "64497",
          "short_name": "64497",
          "types": [
            "postal_code"
          ]
        },
        {
          "long_name": "Weatherby",
          "short_name": "Weatherby",
          "types": [
            "locality",
            "political"
          ]
        },
        {
          "long_name": "Missouri",
          "short_name": "MO",
          "types": [
            "administrative_area_level_1",
            "political"
          ]
        },
        {
          "long_name": "United States",
          "short_name": "US",
          "types": [
            "country",
            "political"
          ]
        }
      ],
      "formatted_address": "Weatherby, MO 64497, USA",
      "geometry": {
        "bounds": {
          "northeast": {
            "lat": 39.9940779,
            "lng": -94.1532599
          },
          "southwest": {
            "lat": 39.846097,
            "lng": -94.28531799999999
          }
        },
        "location": {
          "lat": 39.9353339,
          "lng": -94.2230836
        },
        "location_type": "APPROXIMATE",
        "viewport": {
          "northeast": {
            "lat": 39.9940779,
            "lng": -94.1532599
          },
          "southwest": {
            "lat": 39.846097,
            "lng": -94.28531799999999
          }
        }
      },
      "place_id": "ChIJRUmcQo136ocRVTOPKoc8fgs",
      "types": [
        "postal_code"
      ]
    },
    {
      "address_components": [
        {
          "long_name": "DeKalb County",
          "short_name": "Dekalb County",
          "types": [
            "administrative_area_level_2",
            "political"
          ]
        },
        {
          "long_name": "Missouri",
          "short_name": "MO",
          "types": [
            "administrative_area_level_1",
            "political"
          ]
        },
        {
          "long_name": "United States",
          "short_name": "US",
          "types": [
            "country",
            "political"
          ]
        }
      ],
      "formatted_address": "Dekalb County, MO, USA",
      "geometry": {
        "bounds": {
          "northeast": {
            "lat": 40.03930800000001,
            "lng": -94.203457
          },
          "southwest": {
            "lat": 39.745841,
            "lng": -94.60537699999999
          }
        },
        "location": {
          "lat": 39.8554602,
          "lng": -94.43879
        },
        "location_type": "APPROXIMATE",
        "viewport": {
          "northeast": {
            "lat": 40.03930800000001,
            "lng": -94.203457
          },
          "southwest": {
            "lat": 39.745841,
            "lng": -94.60537699999999
          }
        }
      },
      "place_id": "ChIJh5bQHB2A6ocRBsx4C3jgIBQ",
      "types": [
        "administrative_area_level_2",
        "political"
      ]
    },
    {
      "address_components": [
        {
          "long_name": "St. Joseph",
          "short_name": "St. Joseph",
          "types": [
            "political"
          ]
        },
        {
          "long_name": "United States",
          "short_name": "US",
          "types": [
            "country",
            "political"
          ]
        }
      ],
      "formatted_address": "St. Joseph, USA",
      "geometry": {
        "bounds": {
          "northeast": {
            "lat": 40.130305,
            "lng": -94.203454
          },
          "southwest": {
            "lat": 39.531296,
            "lng": -95.33994299999999
          }
        },
        "location": {
          "lat": 39.7995828,
          "lng": -94.81059549999999
        },
        "location_type": "APPROXIMATE",
        "viewport": {
          "northeast": {
            "lat": 40.130305,
            "lng": -94.203454
          },
          "southwest": {
            "lat": 39.531296,
            "lng": -95.33994299999999
          }
        }
      },
      "place_id": "ChIJzx5Jd_EewIcRMPOa-xvQ4d4",
      "types": [
        "political"
      ]
    },
    {
      "address_components": [
        {
          "long_name": "Missouri",
          "short_name": "MO",
          "types": [
            "administrative_area_level_1",
            "political"
          ]
        },
        {
          "long_name": "United States",
          "short_name": "US",
          "types": [
            "country",
            "political"
          ]
        }
      ],
      "formatted_address": "Missouri, USA",
      "geometry": {
        "bounds": {
          "northeast": {
            "lat": 40.61364,
            "lng": -89.09949399999999
          },
          "southwest": {
            "lat": 35.9956829,
            "lng": -95.774704
          }
        },
        "location": {
          "lat": 37.9642529,
          "lng": -91.8318334
        },
        "location_type": "APPROXIMATE",
        "viewport": {
          "northeast": {
            "lat": 40.61364,
            "lng": -89.09949399999999
          },
          "southwest": {
            "lat": 35.9956829,
            "lng": -95.774704
          }
        }
      },
      "place_id": "ChIJfeMiSNXmwIcRcr1mBFnEW7U",
      "types": [
        "administrative_area_level_1",
        "political"
      ]
    },
    {
      "address_components": [
        {
          "long_name": "United States",
          "short_name": "US",
          "types": [
            "country",
            "political"
          ]
        }
      ],
      "formatted_address": "United States",
      "geometry": {
        "bounds": {
          "northeast": {
            "lat": 71.3867745,
            "lng": -66.9502861
          },
          "southwest": {
            "lat": 18.9106768,
            "lng": 172.4458955
          }
        },
        "location": {
          "lat": 37.09024,
          "lng": -95.712891
        },
        "location_type": "APPROXIMATE",
        "viewport": {
          "northeast": {
            "lat": 49.38,
            "lng": -66.94
          },
          "southwest": {
            "lat": 25.82,
            "lng": -124.39
          }
        }
      },
      "place_id": "ChIJCzYy5IS16lQRQrfeQ5K5Oxw",
      "types": [
        "country",
        "political"
      ]
    }
  ],
  "status": "OK"
}
