{
  "results": [
    {
      "address_components": [
        {
          "long_name": "136-226",
          "short_name": "136-226",
          "types": [
            "street_number"
          ]
        },
        {
          "long_name": "Pine Street",
          "short_name": "Pine St",
          "types": [
            "route"
          ]
        },
        {
          "long_name": "Newbury",
          "short_name": "Newbury",
          "types": [
            "neighborhood",
            "political"
          ]
        },
        {
          "long_name": "Newbury",
          "short_name": "Newbury",
          "types": [
            "locality",
            "political"
          ]
        },
        {
          "long_name": "Orange County",
          "short_name": "Orange County",
          "types": [
            "administrative_area_level_2",
            "political"
          ]
        },
        {
          "long_name": "Vermont",
          "short_name": "VT",
          "types": [
            "administrative_area_level_1",
            "political"
          ]
        },
        {
          "long_name": "United States",
          "short_name": "US",
          "types": [
            "country",
            "political"
          ]
        },
        {
          "long_name": "05051",
          "short_name": "05051",
          "types": [
            "postal_code"
          ]
        }
      ],
      "formatted_address": "136-226 Pine St, Newbury, VT 05051, USA",
      "geometry": {
        "bounds": {
          "northeast": {
            "lat": 44.0808077,
            "lng": -72.0588374
          },
          "southwest": {
            "lat": 44.0804329,
            "lng": -72.0608274
          }
        },
        "location": {
          "lat": 44.0805641,
          "lng": -72.0594632
        },
        "location_type": "RANGE_INTERPOLATED",
        "viewport": {
          "northeast": {
            "lat": 44.0819692802915,
            "lng": -72.05848341970851
          },
          "southwest": {
            "lat": 44.0792713197085,
            "lng": -72.06118138029152
          }
        }
      },
      "place_id": "EicxMzYtMjI2IFBpbmUgU3QsIE5ld2J1cnksIFZUIDA1MDUxLCBVU0E",
      "types": [
        "street_address"
      ]
    },
    {
      "address_components": [
        {
          "long_name": "Newbury",
          "short_name": "Newbury",
          "types": [
            "neighborhood",
            "political"
          ]
        },
        {
          "long_name": "Newbury",
          "short_name": "Newbury",
          "types": [
            "locality",
            "political"
          ]
        },
        {
          "long_name": "Orange County",
          "short_name": "Orange County",
          "types": [
            "administrative_area_level_2",
            "political"
          ]
        },
        {
          "long_name": "Vermont",
          "short_name": "VT",
          "types": [
            "administrative_area_level_1",
            "political"
          ]
        },
        {
          "long_name": "United States",
          "short_name": "US",
          "types": [
            "country",
            "political"
          ]
        }
      ],
      "formatted_address": "Newbury, Newbury, VT, USA",
      "geometry": {
        "bounds": {
          "northeast": {
            "lat": 44.103947,
            "lng": -72.0301329
          },
          "southwest": {
            "lat": 44.057338,
            "lng": -72.091542
          }
        },
        "location": {
          "lat": 44.0792316,
          "lng": -72.0584234
        },
        "location_type": "APPROXIMATE",
        "viewport": {
          "northeast": {
            "lat": 44.103947,
            "lng": -72.0301329
          },
          "southwest": {
            "lat": 44.057338,
            "lng": -72.091542
          }
        }
      },
      "place_id": "ChIJgTT8P_7ztEwReOrvma7eN2w",
      "types": [
        "neighborhood",
        "political"
      ]
    },
    {
      "address_components": [
        {
          "long_name": "Newbury",
          "short_name": "Newbury",
          "types": [
            "locality",
            "political"
          ]
        },
        {
          "long_name": "Orange County",
          "short_name": "Orange County",
          "types": [
            "administrative_area_level_2",
            "political"
          ]
        },
        {
          "long_name": "Vermont",
          "short_name": "VT",
          "types": [
            "administrative_area_level_1",
            "political"
          ]
        },
        {
          "long_name": "United States",
          "short_name": "US",
          "types": [
            "country",
            "political"
          ]
        }
      ],
      "formatted_address": "Newbury, VT, USA",
      "geometry": {
        "bounds": {
          "northeast": {
            "lat": 44.192053,
            "lng": -72.0301329
          },
          "southwest": {
            "lat": 44.029626,
            "lng": -72.207802
          }
        },
        "location": {
          "lat": 44.128342,
          "lng": -72.1341806
        },
        "location_type": "APPROXIMATE",
        "viewport": {
          "northeast": {
            "lat": 44.192053,
            "lng": -72.0301329
          },
          "southwest": {
            "lat": 44.029626,
            "lng": -72.207802
          }
        }
      },
      "place_id": "ChIJVQIECqr2tEwRmg2fsRWZayw",
      "types": [
        "locality",
        "political"
      ]
    },
    {
      "address_components": [
        {
          "long_name": "05051",
          "short_name": "05051",
          "types": [
            "postal_code"
          ]
        },
        {
          "long_name": "Newbury",
          "short_name": "Newbury",
          "types": [
            "locality",
            "political"
          ]
        },
        {
          "long_name": "Vermont",
          "short_name": "VT",
          "types": [
            "administrative_area_level_1",
            "political"
          ]
        },
        {
          "long_name": "United States",
          "short_name": "US",
          "types": [
            "country",
            "political"
          ]
        }
      ],
      "formatted_address": "Newbury, VT 05051, USA",
      "geometry": {
        "bounds": {
          "northeast": {
            "lat": 44.192053,
            "lng": -72.0301329
          },
          "southwest": {
            "lat": 44.020756,
            "lng": -72.18732279999999
          }
        },
        "location": {
          "lat": 44.0759643,
          "lng": -72.101682
        },
        "location_type": "APPROXIMATE",
        "viewport": {
          "northeast": {
            "lat": 44.192053,
            "lng": -72.0301329
          },
          "southwest": {
            "lat": 44.020756,
            "lng": -72.18732279999999
          }
        }
      },
      "place_id": "ChIJWfhhgxnztEwRmQPnL5LEbO8",
      "types": [
        "postal_code"
      ]
    },
    {
      "address_components": [
        {
          "long_name": "Orange County",
          "short_name": "Orange County",
          "types": [
            "administrative_area_level_2",
            "political"
          ]
        },
        {
          "long_name": "Vermont",
          "short_name": "VT",
          "types": [
            "administrative_area_level_1",
            "political"
          ]
        },
        {
          "long_name": "United States",
          "short_name": "US",
          "types": [
            "country",
            "political"
          ]
        }
      ],
      "formatted_address": "Orange County, VT, USA",
      "geometry": {
        "bounds": {
          "northeast": {
            "lat": 44.220979,
            "lng": -72.0301329
          },
          "southwest": {
            "lat": 43.770955,
            "lng": -72.7920599
          }
        },
        "location": {
          "lat": 44.0014186,
          "lng": -72.4003713
        },
        "location_type": "APPROXIMATE",
        "viewport": {
          "northeast": {
            "lat": 44.220979,
            "lng": -72.0301329
          },
          "southwest": {
            "lat": 43.770955,
            "lng": -72.7920599
          }
        }
      },
      "place_id": "ChIJ93o_vxYetUwRmZFcKGNDo2o",
      "types": [
        "administrative_area_level_2",
        "political"
      ]
    },
    {
      "address_components": [
        {
          "long_name": "Lebanon",
          "short_name": "Lebanon",
          "types": [
            "political"
          ]
        },
        {
          "long_name": "United States",
          "short_name": "US",
          "types": [
            "country",
            "political"
          ]
        }
      ],
      "formatted_address": "Lebanon, USA",
      "geometry": {
        "bounds": {
          "northeast": {
            "lat": 44.4066224,
            "lng": -71.346863
          },
          "southwest": {
            "lat": 43.22246,
            "lng": -72.971801
          }
        },
        "location": {
          "lat": 43.7210621,
          "lng": -72.0541819
        },
        "location_type": "APPROXIMATE",
        "viewport": {
          "northeast": {
            "lat": 44.4066224,
            "lng": -71.346863
          },
          "southwest": {
            "lat": 43.22246,
            "lng": -72.971801
          }
        }
      },
      "place_id": "ChIJcQMTR6C_tEwR1_07BdQuYWU",
      "types": [
        "political"
      ]
    },
    {
      "address_components": [
        {
          "long_name": "Vermont",
          "short_name": "VT",
          "types": [
            "administrative_area_level_1",
            "political"
          ]
        },
        {
          "long_name": "United States",
          "short_name": "US",
          "types": [
            "country",
            "political"
          ]
        }
      ],
      "formatted_address": "Vermont, USA",
      "geometry": {
        "bounds": {
          "northeast": {
            "lat": 45.0166591,
            "lng": -71.46503899999999
          },
          "southwest": {
            "lat": 42.7268499,
            "lng": -73.43055980000001
          }
        },
        "location": {
          "lat": 44.5588028,
          "lng": -72.57784149999999
        },
        "location_type": "APPROXIMATE",
        "viewport": {
          "northeast": {
            "lat": 45.0166591,
            "lng": -71.46503899999999
          },
          "southwest": {
            "lat": 42.7268499,
            "lng": -73.43055980000001
          }
        }
      },
      "place_id": "ChIJ_87aSGzctEwRtGtUNnSJTSY",
      "types": [
        "administrative_area_level_1",
        "political"
      ]
    },
    {
      "address_components": [
        {
          "long_name": "United States",
          "short_name": "US",
          "types": [
            "country",
            "political"
          ]
        }
      ],
      "formatted_address": "United States",
      "geometry": {
        "bounds": {
          "northeast": {
            "lat": 71.3867745,
            "lng": -66.9502861
          },
          "southwest": {
            "lat": 18.9106768,
            "lng": 172.4458955
          }
        },
        "location": {
          "lat": 37.09024,
          "lng": -95.712891
        },
        "location_type": "APPROXIMATE",
        "viewport": {
          "northeast": {
            "lat": 49.38,
            "lng": -66.94
          },
          "southwest": {
            "lat": 25.82,
            "lng": -124.39
          }
        }
      },
      "place_id": "ChIJCzYy5IS16lQRQrfeQ5K5Oxw",
      "types": [
        "country",
        "political"
      ]
    }
  ],
  "status": "OK"
}
