{
  "results": [
    {
      "address_components": [
        {
          "long_name": "151-199",
          "short_name": "151-199",
          "types": [
            "street_number"
          ]
        },
        {
          "long_name": "East Garfield Avenue",
          "short_name": "E Garfield Ave",
          "types": [
            "route"
          ]
        },
        {
          "long_name": "Amherst",
          "short_name": "Amherst",
          "types": [
            "locality",
            "political"
          ]
        },
        {
          "long_name": "Grant",
          "short_name": "Grant",
          "types": [
            "administrative_area_level_3",
            "political"
          ]
        },
        {
          "long_name": "Buffalo County",
          "short_name": "Buffalo County",
          "types": [
            "administrative_area_level_2",
            "political"
          ]
        },
        {
          "long_name": "Nebraska",
          "short_name": "NE",
          "types": [
            "administrative_area_level_1",
            "political"
          ]
        },
        {
          "long_name": "United States",
          "short_name": "US",
          "types": [
            "country",
            "political"
          ]
        },
        {
          "long_name": "68812",
          "short_name": "68812",
          "types": [
            "postal_code"
          ]
        }
      ],
      "formatted_address": "151-199 E Garfield Ave, Amherst, NE 68812, USA",
      "geometry": {
        "bounds": {
          "northeast": {
            "lat": 40.8383029,
            "lng": -99.268807
          },
          "southwest": {
            "lat": 40.8382919,
            "lng": -99.26952
          }
        },
        "location": {
          "lat": 40.838317,
          "lng": -99.2695115
        },
        "location_type": "RANGE_INTERPOLATED",
        "viewport": {
          "northeast": {
            "lat": 40.8396463802915,
            "lng": -99.2678145197085
          },
          "southwest": {
            "lat": 40.8369484197085,
            "lng": -99.2705124802915
          }
        }
      },
      "place_id": "Ei4xNTEtMTk5IEUgR2FyZmllbGQgQXZlLCBBbWhlcnN0LCBORSA2ODgxMiwgVVNB",
      "types": [
        "street_address"
      ]
    },
    {
      "address_components": [
        {
          "long_name": "Amherst",
          "short_name": "Amherst",
          "types": [
            "locality",
            "political"
          ]
        },
        {
          "long_name": "Grant",
          "short_name": "Grant",
          "types": [
            "administrative_area_level_3",
            "political"
          ]
        },
        {
          "long_name": "Buffalo County",
          "short_name": "Buffalo County",
          "types": [
            "administrative_area_level_2",
            "political"
          ]
        },
        {
          "long_name": "Nebraska",
          "short_name": "NE",
          "types": [
            "administrative_area_level_1",
            "political"
          ]
        },
        {
          "long_name": "United States",
          "short_name": "US",
          "types": [
            "country",
            "political"
          ]
        },
        {
          "long_name": "68812",
          "short_name": "68812",
          "types": [
            "postal_code"
          ]
        }
      ],
      "formatted_address": "Amherst, NE 68812, USA",
      "geometry": {
        "bounds": {
          "northeast": {
            "lat": 40.841904,
            "lng": -99.26440799999999
          },
          "southwest": {
            "lat": 40.8334199,
            "lng": -99.27437890000002
          }
        },
        "location": {
          "lat": 40.8389104,
          "lng": -99.26885709999999
        },
        "location_type": "APPROXIMATE",
        "viewport": {
          "northeast": {
            "lat": 40.841904,
            "lng": -99.26440799999999
          },
          "southwest": {
            "lat": 40.8334199,
            "lng": -99.27437890000002
          }
        }
      },
      "place_id": "ChIJ77tbuOSrnocRQrJjgu9jAyI",
      "types": [
        "locality",
        "political"
      ]
    },
    {
      "address_components": [
        {
          "long_name": "Grant",
          "short_name": "Grant",
          "types": [
            "administrative_area_level_3",
            "political"
          ]
        },
        {
          "long_name": "Buffalo County",
          "short_name": "Buffalo County",
          "types": [
            "administrative_area_level_2",
            "political"
          ]
        },
        {
          "long_name": "Nebraska",
          "short_name": "NE",
          "types": [
            "administrative_area_level_1",
            "political"
          ]
        },
        {
          "long_name": "United States",
          "short_name": "US",
          "types": [
            "country",
            "political"
          ]
        }
      ],
      "formatted_address": "Grant, NE, USA",
      "geometry": {
        "bounds": {
          "northeast": {
            "lat": 40.873366,
            "lng": -99.1979269
          },
          "southwest": {
            "lat": 40.7861628,
            "lng": -99.312332
          }
        },
        "location": {
          "lat": 40.848695,
          "lng": -99.2563859
        },
        "location_type": "APPROXIMATE",
        "viewport": {
          "northeast": {
            "lat": 40.873366,
            "lng": -99.1979269
          },
          "southwest": {
            "lat": 40.7861628,
            "lng": -99.312332
          }
        }
      },
      "place_id": "ChIJw1JgiYqrnocRYrTgo4Gjgn8",
      "types": [
        "administrative_area_level_3",
        "political"
      ]
    },
    {
      "address_components": [
        {
          "long_name": "68812",
          "short_name": "68812",
          "types": [
            "postal_code"
          ]
        },
        {
          "long_name": "Amherst",
          "short_name": "Amherst",
          "types": [
            "locality",
            "political"
          ]
        },
        {
          "long_name": "Buffalo County",
          "short_name": "Buffalo County",
          "types": [
            "administrative_area_level_2",
            "political"
          ]
        },
        {
          "long_name": "Nebraska",
          "short_name": "NE",
          "types": [
            "administrative_area_level_1",
            "political"
          ]
        },
        {
          "long_name": "United States",
          "short_name": "US",
          "types": [
            "country",
            "political"
          ]
        }
      ],
      "formatted_address": "Amherst, NE 68812, USA",
      "geometry": {
        "bounds": {
          "northeast": {
            "lat": 41.032436,
            "lng": -99.19776399999999
          },
          "southwest": {
            "lat": 40.757866,
            "lng": -99.403587
          }
        },
        "location": {
          "lat": 40.8633698,
          "lng": -99.32292129999999
        },
        "location_type": "APPROXIMATE",
        "viewport": {
          "northeast": {
            "lat": 41.032436,
            "lng": -99.19776399999999
          },
          "southwest": {
            "lat": 40.757866,
            "lng": -99.403587
          }
        }
      },
      "place_id": "ChIJSRMN8fepnocRum6hwQLsnPk",
      "types": [
        "postal_code"
      ]
    },
    {
      "address_components": [
        {
          "long_name": "Buffalo County",
          "short_name": "Buffalo County",
          "types": [
            "administrative_area_level_2",
            "political"
          ]
        },
        {
          "long_name": "Nebraska",
          "short_name": "NE",
          "types": [
            "administrative_area_level_1",
            "political"
          ]
        },
        {
          "long_name": "United States",
          "short_name": "US",
          "types": [
            "country",
            "political"
          ]
        }
      ],
      "formatted_address": "Buffalo County, NE, USA",
      "geometry": {
        "bounds": {
          "northeast": {
            "lat": 41.0472989,
            "lng": -98.7213659
          },
          "southwest": {
            "lat": 40.652138,
            "lng": -99.42679489999999
          }
        },
        "location": {
          "lat": 40.84102180000001,
          "lng": -99.1013498
        },
        "location_type": "APPROXIMATE",
        "viewport": {
          "northeast": {
            "lat": 41.0472989,
            "lng": -98.7213659
          },
          "southwest": {
            "lat": 40.652138,
            "lng": -99.42679489999999
          }
        }
      },
      "place_id": "ChIJ1bCXp8BWmYcR2rlMZogkiJw",
      "types": [
        "administrative_area_level_2",
        "political"
      ]
    },
    {
      "address_components": [
        {
          "long_name": "Kearney",
          "short_name": "Kearney",
          "types": [
            "political"
          ]
        },
        {
          "long_name": "Nebraska",
          "short_name": "NE",
          "types": [
            "administrative_area_level_1",
            "political"
          ]
        },
        {
          "long_name": "United States",
          "short_name": "US",
          "types": [
            "country",
            "political"
          ]
        }
      ],
      "formatted_address": "Kearney, NE, USA",
      "geometry": {
        "bounds": {
          "northeast": {
            "lat": 41.0471011,
            "lng": -98.7213659
          },
          "southwest": {
            "lat": 40.3503431,
            "lng": -99.426749
          }
        },
        "location": {
          "lat": 40.69408910000001,
          "lng": -98.92453429999999
        },
        "location_type": "APPROXIMATE",
        "viewport": {
          "northeast": {
            "lat": 41.0471011,
            "lng": -98.7213659
          },
          "southwest": {
            "lat": 40.3503431,
            "lng": -99.426749
          }
        }
      },
      "place_id": "ChIJBY4PvplPmYcRw487QqjEOkQ",
      "types": [
        "political"
      ]
    },
    {
      "address_components": [
        {
          "long_name": "Nebraska",
          "short_name": "NE",
          "types": [
            "administrative_area_level_1",
            "political"
          ]
        },
        {
          "long_name": "United States",
          "short_name": "US",
          "types": [
            "country",
            "political"
          ]
        }
      ],
      "formatted_address": "Nebraska, USA",
      "geometry": {
        "bounds": {
          "northeast": {
            "lat": 43.00170689999999,
            "lng": -95.30829000000001
          },
          "southwest": {
            "lat": 39.999932,
            "lng": -104.053514
          }
        },
        "location": {
          "lat": 41.4925374,
          "lng": -99.9018131
        },
        "location_type": "APPROXIMATE",
        "viewport": {
          "northeast": {
            "lat": 43.00170689999999,
            "lng": -95.30829000000001
          },
          "southwest": {
            "lat": 39.999932,
            "lng": -104.053514
          }
        }
      },
      "place_id": "ChIJ7fwMtciNk4cRxArzDwyQJ6E",
      "types": [
        "administrative_area_level_1",
        "political"
      ]
    },
    {
      "address_components": [
        {
          "long_name": "United States",
          "short_name": "US",
          "types": [
            "country",
            "political"
          ]
        }
      ],
      "formatted_address": "United States",
      "geometry": {
        "bounds": {
          "northeast": {
            "lat": 71.3867745,
            "lng": -66.9502861
          },
          "southwest": {
            "lat": 18.9106768,
            "lng": 172.4458955
          }
        },
        "location": {
          "lat": 37.09024,
          "lng": -95.712891
        },
        "location_type": "APPROXIMATE",
        "viewport": {
          "northeast": {
            "lat": 49.38,
            "lng": -66.94
          },
          "southwest": {
            "lat": 25.82,
            "lng": -124.39
          }
        }
      },
      "place_id": "ChIJCzYy5IS16lQRQrfeQ5K5Oxw",
      "types": [
        "country",
        "political"
      ]
    }
  ],
  "status": "OK"
}
