{
  "results": [
    {
      "address_components": [
        {
          "long_name": "301-319",
          "short_name": "301-319",
          "types": [
            "street_number"
          ]
        },
        {
          "long_name": "South Main Street",
          "short_name": "S Main St",
          "types": [
            "route"
          ]
        },
        {
          "long_name": "Waldron",
          "short_name": "Waldron",
          "types": [
            "locality",
            "political"
          ]
        },
        {
          "long_name": "Wright Township",
          "short_name": "Wright Township",
          "types": [
            "administrative_area_level_3",
            "political"
          ]
        },
        {
          "long_name": "Hillsdale County",
          "short_name": "Hillsdale County",
          "types": [
            "administrative_area_level_2",
            "political"
          ]
        },
        {
          "long_name": "Michigan",
          "short_name": "MI",
          "types": [
            "administrative_area_level_1",
            "political"
          ]
        },
        {
          "long_name": "United States",
          "short_name": "US",
          "types": [
            "country",
            "political"
          ]
        },
        {
          "long_name": "49288",
          "short_name": "49288",
          "types": [
            "postal_code"
          ]
        },
        {
          "long_name": "9744",
          "short_name": "9744",
          "types": [
            "postal_code_suffix"
          ]
        }
      ],
      "formatted_address": "301-319 S Main St, Waldron, MI 49288, USA",
      "geometry": {
        "bounds": {
          "northeast": {
            "lat": 41.7242364,
            "lng": -84.4188494
          },
          "southwest": {
            "lat": 41.7237499,
            "lng": -84.4189748
          }
        },
        "location": {
          "lat": 41.7241832,
          "lng": -84.4188612
        },
        "location_type": "RANGE_INTERPOLATED",
        "viewport": {
          "northeast": {
            "lat": 41.72534213029149,
            "lng": -84.41756311970849
          },
          "southwest": {
            "lat": 41.7226441697085,
            "lng": -84.42026108029151
          }
        }
      },
      "place_id": "EikzMDEtMzE5IFMgTWFpbiBTdCwgV2FsZHJvbiwgTUkgNDkyODgsIFVTQQ",
      "types": [
        "street_address"
      ]
    },
    {
      "address_components": [
        {
          "long_name": "Waldron",
          "short_name": "Waldron",
          "types": [
            "locality",
            "political"
          ]
        },
        {
          "long_name": "Wright Township",
          "short_name": "Wright Township",
          "types": [
            "administrative_area_level_3",
            "political"
          ]
        },
        {
          "long_name": "Hillsdale County",
          "short_name": "Hillsdale County",
          "types": [
            "administrative_area_level_2",
            "political"
          ]
        },
        {
          "long_name": "Michigan",
          "short_name": "MI",
          "types": [
            "administrative_area_level_1",
            "political"
          ]
        },
        {
          "long_name": "United States",
          "short_name": "US",
          "types": [
            "country",
            "political"
          ]
        },
        {
          "long_name": "49288",
          "short_name": "49288",
          "types": [
            "postal_code"
          ]
        }
      ],
      "formatted_address": "Waldron, MI 49288, USA",
      "geometry": {
        "bounds": {
          "northeast": {
            "lat": 41.73155300000001,
            "lng": -84.409244
          },
          "southwest": {
            "lat": 41.7168268,
            "lng": -84.428429
          }
        },
        "location": {
          "lat": 41.7278281,
          "lng": -84.418837
        },
        "location_type": "APPROXIMATE",
        "viewport": {
          "northeast": {
            "lat": 41.73155300000001,
            "lng": -84.409244
          },
          "southwest": {
            "lat": 41.7168268,
            "lng": -84.428429
          }
        }
      },
      "place_id": "ChIJmZFG27-oPYgRcOWw0UDTDwc",
      "types": [
        "locality",
        "political"
      ]
    },
    {
      "address_components": [
        {
          "long_name": "Wright Township",
          "short_name": "Wright Township",
          "types": [
            "administrative_area_level_3",
            "political"
          ]
        },
        {
          "long_name": "Hillsdale County",
          "short_name": "Hillsdale County",
          "types": [
            "administrative_area_level_2",
            "political"
          ]
        },
        {
          "long_name": "Michigan",
          "short_name": "MI",
          "types": [
            "administrative_area_level_1",
            "political"
          ]
        },
        {
          "long_name": "United States",
          "short_name": "US",
          "types": [
            "country",
            "political"
          ]
        }
      ],
      "formatted_address": "Wright Township, MI, USA",
      "geometry": {
        "bounds": {
          "northeast": {
            "lat": 41.81152600000001,
            "lng": -84.3604159
          },
          "southwest": {
            "lat": 41.7038129,
            "lng": -84.47610689999999
          }
        },
        "location": {
          "lat": 41.7644226,
          "lng": -84.41726659999999
        },
        "location_type": "APPROXIMATE",
        "viewport": {
          "northeast": {
            "lat": 41.81152600000001,
            "lng": -84.3604159
          },
          "southwest": {
            "lat": 41.7038129,
            "lng": -84.47610689999999
          }
        }
      },
      "place_id": "ChIJL60HxmmoPYgRj0fiNvl8mP8",
      "types": [
        "administrative_area_level_3",
        "political"
      ]
    },
    {
      "address_components": [
        {
          "long_name": "49288",
          "short_name": "49288",
          "types": [
            "postal_code"
          ]
        },
        {
          "long_name": "Waldron",
          "short_name": "Waldron",
          "types": [
            "locality",
            "political"
          ]
        },
        {
          "long_name": "Michigan",
          "short_name": "MI",
          "types": [
            "administrative_area_level_1",
            "political"
          ]
        },
        {
          "long_name": "United States",
          "short_name": "US",
          "types": [
            "country",
            "political"
          ]
        }
      ],
      "formatted_address": "Waldron, MI 49288, USA",
      "geometry": {
        "bounds": {
          "northeast": {
            "lat": 41.7678669,
            "lng": -84.3278519
          },
          "southwest": {
            "lat": 41.70359,
            "lng": -84.5341239
          }
        },
        "location": {
          "lat": 41.7267545,
          "lng": -84.4592701
        },
        "location_type": "APPROXIMATE",
        "viewport": {
          "northeast": {
            "lat": 41.7678669,
            "lng": -84.3278519
          },
          "southwest": {
            "lat": 41.70359,
            "lng": -84.5341239
          }
        }
      },
      "place_id": "ChIJsZrPYCWmPYgRsJew0UDTDxw",
      "types": [
        "postal_code"
      ]
    },
    {
      "address_components": [
        {
          "long_name": "Hillsdale County",
          "short_name": "Hillsdale County",
          "types": [
            "administrative_area_level_2",
            "political"
          ]
        },
        {
          "long_name": "Michigan",
          "short_name": "MI",
          "types": [
            "administrative_area_level_1",
            "political"
          ]
        },
        {
          "long_name": "United States",
          "short_name": "US",
          "types": [
            "country",
            "political"
          ]
        }
      ],
      "formatted_address": "Hillsdale County, MI, USA",
      "geometry": {
        "bounds": {
          "northeast": {
            "lat": 42.073456,
            "lng": -84.3604159
          },
          "southwest": {
            "lat": 41.696118,
            "lng": -84.8264909
          }
        },
        "location": {
          "lat": 41.8685961,
          "lng": -84.5222189
        },
        "location_type": "APPROXIMATE",
        "viewport": {
          "northeast": {
            "lat": 42.073456,
            "lng": -84.3604159
          },
          "southwest": {
            "lat": 41.696118,
            "lng": -84.8264909
          }
        }
      },
      "place_id": "ChIJzxlwWNAMPYgRZTr7fneoup0",
      "types": [
        "administrative_area_level_2",
        "political"
      ]
    },
    {
      "address_components": [
        {
          "long_name": "Michigan",
          "short_name": "MI",
          "types": [
            "administrative_area_level_1",
            "political"
          ]
        },
        {
          "long_name": "United States",
          "short_name": "US",
          "types": [
            "country",
            "political"
          ]
        }
      ],
      "formatted_address": "Michigan, USA",
      "geometry": {
        "bounds": {
          "northeast": {
            "lat": 48.1986461,
            "lng": -82.413474
          },
          "southwest": {
            "lat": 41.696118,
            "lng": -90.4181358
          }
        },
        "location": {
          "lat": 44.3148443,
          "lng": -85.60236429999999
        },
        "location_type": "APPROXIMATE",
        "viewport": {
          "northeast": {
            "lat": 48.198602,
            "lng": -82.413474
          },
          "southwest": {
            "lat": 41.696118,
            "lng": -90.4181358
          }
        }
      },
      "place_id": "ChIJEQTKxz2qTE0Rs8liellI3Zc",
      "types": [
        "administrative_area_level_1",
        "political"
      ]
    },
    {
      "address_components": [
        {
          "long_name": "United States",
          "short_name": "US",
          "types": [
            "country",
            "political"
          ]
        }
      ],
      "formatted_address": "United States",
      "geometry": {
        "bounds": {
          "northeast": {
            "lat": 71.3867745,
            "lng": -66.9502861
          },
          "southwest": {
            "lat": 18.9106768,
            "lng": 172.4458955
          }
        },
        "location": {
          "lat": 37.09024,
          "lng": -95.712891
        },
        "location_type": "APPROXIMATE",
        "viewport": {
          "northeast": {
            "lat": 49.38,
            "lng": -66.94
          },
          "southwest": {
            "lat": 25.82,
            "lng": -124.39
          }
        }
      },
      "place_id": "ChIJCzYy5IS16lQRQrfeQ5K5Oxw",
      "types": [
        "country",
        "political"
      ]
    }
  ],
  "status": "OK"
}
