{
  "results": [
    {
      "address_components": [
        {
          "long_name": "101",
          "short_name": "101",
          "types": [
            "street_number"
          ]
        },
        {
          "long_name": "North State Street",
          "short_name": "N State St",
          "types": [
            "route"
          ]
        },
        {
          "long_name": "Lizton",
          "short_name": "Lizton",
          "types": [
            "locality",
            "political"
          ]
        },
        {
          "long_name": "Union Township",
          "short_name": "Union Township",
          "types": [
            "administrative_area_level_3",
            "political"
          ]
        },
        {
          "long_name": "Hendricks County",
          "short_name": "Hendricks County",
          "types": [
            "administrative_area_level_2",
            "political"
          ]
        },
        {
          "long_name": "Indiana",
          "short_name": "IN",
          "types": [
            "administrative_area_level_1",
            "political"
          ]
        },
        {
          "long_name": "United States",
          "short_name": "US",
          "types": [
            "country",
            "political"
          ]
        },
        {
          "long_name": "46149",
          "short_name": "46149",
          "types": [
            "postal_code"
          ]
        }
      ],
      "formatted_address": "101 N State St, Lizton, IN 46149, USA",
      "geometry": {
        "location": {
          "lat": 39.8838468,
          "lng": -86.5417913
        },
        "location_type": "ROOFTOP",
        "viewport": {
          "northeast": {
            "lat": 39.8851957802915,
            "lng": -86.54044231970849
          },
          "southwest": {
            "lat": 39.8824978197085,
            "lng": -86.54314028029151
          }
        }
      },
      "place_id": "ChIJ9YjHY6u1bIgRc2JpVpAvBP8",
      "types": [
        "street_address"
      ]
    },
    {
      "address_components": [
        {
          "long_name": "Lizton",
          "short_name": "Lizton",
          "types": [
            "locality",
            "political"
          ]
        },
        {
          "long_name": "Union Township",
          "short_name": "Union Township",
          "types": [
            "administrative_area_level_3",
            "political"
          ]
        },
        {
          "long_name": "Hendricks County",
          "short_name": "Hendricks County",
          "types": [
            "administrative_area_level_2",
            "political"
          ]
        },
        {
          "long_name": "Indiana",
          "short_name": "IN",
          "types": [
            "administrative_area_level_1",
            "political"
          ]
        },
        {
          "long_name": "United States",
          "short_name": "US",
          "types": [
            "country",
            "political"
          ]
        }
      ],
      "formatted_address": "Lizton, IN, USA",
      "geometry": {
        "bounds": {
          "northeast": {
            "lat": 39.892176,
            "lng": -86.53605209999999
          },
          "southwest": {
            "lat": 39.875972,
            "lng": -86.547292
          }
        },
        "location": {
          "lat": 39.8867109,
          "lng": -86.5433345
        },
        "location_type": "APPROXIMATE",
        "viewport": {
          "northeast": {
            "lat": 39.892176,
            "lng": -86.53605209999999
          },
          "southwest": {
            "lat": 39.875972,
            "lng": -86.547292
          }
        }
      },
      "place_id": "ChIJY5C_B6u1bIgRdL53JQ7l81M",
      "types": [
        "locality",
        "political"
      ]
    },
    {
      "address_components": [
        {
          "long_name": "Union Township",
          "short_name": "Union Township",
          "types": [
            "administrative_area_level_3",
            "political"
          ]
        },
        {
          "long_name": "Hendricks County",
          "short_name": "Hendricks County",
          "types": [
            "administrative_area_level_2",
            "political"
          ]
        },
        {
          "long_name": "Indiana",
          "short_name": "IN",
          "types": [
            "administrative_area_level_1",
            "political"
          ]
        },
        {
          "long_name": "United States",
          "short_name": "US",
          "types": [
            "country",
            "political"
          ]
        }
      ],
      "formatted_address": "Union Township, IN, USA",
      "geometry": {
        "bounds": {
          "northeast": {
            "lat": 39.922912,
            "lng": -86.5054518
          },
          "southwest": {
            "lat": 39.8342599,
            "lng": -86.58158379999999
          }
        },
        "location": {
          "lat": 39.8787396,
          "lng": -86.5501654
        },
        "location_type": "APPROXIMATE",
        "viewport": {
          "northeast": {
            "lat": 39.922912,
            "lng": -86.5054518
          },
          "southwest": {
            "lat": 39.8342599,
            "lng": -86.58158379999999
          }
        }
      },
      "place_id": "ChIJ0S2M9a21bIgRrRQl1bqnXQw",
      "types": [
        "administrative_area_level_3",
        "political"
      ]
    },
    {
      "address_components": [
        {
          "long_name": "46149",
          "short_name": "46149",
          "types": [
            "postal_code"
          ]
        },
        {
          "long_name": "Lizton",
          "short_name": "Lizton",
          "types": [
            "locality",
            "political"
          ]
        },
        {
          "long_name": "Indiana",
          "short_name": "IN",
          "types": [
            "administrative_area_level_1",
            "political"
          ]
        },
        {
          "long_name": "United States",
          "short_name": "US",
          "types": [
            "country",
            "political"
          ]
        }
      ],
      "formatted_address": "Lizton, IN 46149, USA",
      "geometry": {
        "bounds": {
          "northeast": {
            "lat": 39.922912,
            "lng": -86.472741
          },
          "southwest": {
            "lat": 39.834264,
            "lng": -86.6242369
          }
        },
        "location": {
          "lat": 39.8793368,
          "lng": -86.5703554
        },
        "location_type": "APPROXIMATE",
        "viewport": {
          "northeast": {
            "lat": 39.922912,
            "lng": -86.472741
          },
          "southwest": {
            "lat": 39.834264,
            "lng": -86.6242369
          }
        }
      },
      "place_id": "ChIJOzEnAJq1bIgRC_fHQxcpqtU",
      "types": [
        "postal_code"
      ]
    },
    {
      "address_components": [
        {
          "long_name": "Hendricks County",
          "short_name": "Hendricks County",
          "types": [
            "administrative_area_level_2",
            "political"
          ]
        },
        {
          "long_name": "Indiana",
          "short_name": "IN",
          "types": [
            "administrative_area_level_1",
            "political"
          ]
        },
        {
          "long_name": "United States",
          "short_name": "US",
          "types": [
            "country",
            "political"
          ]
        }
      ],
      "formatted_address": "Hendricks County, IN, USA",
      "geometry": {
        "bounds": {
          "northeast": {
            "lat": 39.924169,
            "lng": -86.325373
          },
          "southwest": {
            "lat": 39.60075,
            "lng": -86.695334
          }
        },
        "location": {
          "lat": 39.8064942,
          "lng": -86.5400674
        },
        "location_type": "APPROXIMATE",
        "viewport": {
          "northeast": {
            "lat": 39.924169,
            "lng": -86.325373
          },
          "southwest": {
            "lat": 39.60075,
            "lng": -86.695334
          }
        }
      },
      "place_id": "ChIJI6pWc2u7bIgRS1mX03_Jx20",
      "types": [
        "administrative_area_level_2",
        "political"
      ]
    },
    {
      "address_components": [
        {
          "long_name": "Indianapolis",
          "short_name": "Indianapolis",
          "types": [
            "political"
          ]
        },
        {
          "long_name": "Indiana",
          "short_name": "IN",
          "types": [
            "administrative_area_level_1",
            "political"
          ]
        },
        {
          "long_name": "United States",
          "short_name": "US",
          "types": [
            "country",
            "political"
          ]
        }
      ],
      "formatted_address": "Indianapolis, IN, USA",
      "geometry": {
        "bounds": {
          "northeast": {
            "lat": 40.218985,
            "lng": -85.5763581
          },
          "southwest": {
            "lat": 39.048355,
            "lng": -87.0149399
          }
        },
        "location": {
          "lat": 39.7616739,
          "lng": -86.41873079999999
        },
        "location_type": "APPROXIMATE",
        "viewport": {
          "northeast": {
            "lat": 40.218985,
            "lng": -85.5763581
          },
          "southwest": {
            "lat": 39.048355,
            "lng": -87.0149399
          }
        }
      },
      "place_id": "ChIJpwnS6GanbIgRYryPufOfANQ",
      "types": [
        "political"
      ]
    },
    {
      "address_components": [
        {
          "long_name": "Indiana",
          "short_name": "IN",
          "types": [
            "administrative_area_level_1",
            "political"
          ]
        },
        {
          "long_name": "United States",
          "short_name": "US",
          "types": [
            "country",
            "political"
          ]
        }
      ],
      "formatted_address": "Indiana, USA",
      "geometry": {
        "bounds": {
          "northeast": {
            "lat": 41.7606971,
            "lng": -84.784662
          },
          "southwest": {
            "lat": 37.7717419,
            "lng": -88.097892
          }
        },
        "location": {
          "lat": 40.2671941,
          "lng": -86.1349019
        },
        "location_type": "APPROXIMATE",
        "viewport": {
          "northeast": {
            "lat": 41.7606971,
            "lng": -84.784662
          },
          "southwest": {
            "lat": 37.7717419,
            "lng": -88.097892
          }
        }
      },
      "place_id": "ChIJHRv42bxQa4gRcuwyy84vEH4",
      "types": [
        "administrative_area_level_1",
        "political"
      ]
    },
    {
      "address_components": [
        {
          "long_name": "United States",
          "short_name": "US",
          "types": [
            "country",
            "political"
          ]
        }
      ],
      "formatted_address": "United States",
      "geometry": {
        "bounds": {
          "northeast": {
            "lat": 71.3867745,
            "lng": -66.9502861
          },
          "southwest": {
            "lat": 18.9106768,
            "lng": 172.4458955
          }
        },
        "location": {
          "lat": 37.09024,
          "lng": -95.712891
        },
        "location_type": "APPROXIMATE",
        "viewport": {
          "northeast": {
            "lat": 49.38,
            "lng": -66.94
          },
          "southwest": {
            "lat": 25.82,
            "lng": -124.39
          }
        }
      },
      "place_id": "ChIJCzYy5IS16lQRQrfeQ5K5Oxw",
      "types": [
        "country",
        "political"
      ]
    }
  ],
  "status": "OK"
}
