{
  "results": [
    {
      "address_components": [
        {
          "long_name": "136",
          "short_name": "136",
          "types": [
            "street_number"
          ]
        },
        {
          "long_name": "Smith Street",
          "short_name": "Smith St",
          "types": [
            "route"
          ]
        },
        {
          "long_name": "Freeport",
          "short_name": "Freeport",
          "types": [
            "locality",
            "political"
          ]
        },
        {
          "long_name": "Hempstead",
          "short_name": "Hempstead",
          "types": [
            "administrative_area_level_3",
            "political"
          ]
        },
        {
          "long_name": "Nassau County",
          "short_name": "Nassau County",
          "types": [
            "administrative_area_level_2",
            "political"
          ]
        },
        {
          "long_name": "New York",
          "short_name": "NY",
          "types": [
            "administrative_area_level_1",
            "political"
          ]
        },
        {
          "long_name": "United States",
          "short_name": "US",
          "types": [
            "country",
            "political"
          ]
        },
        {
          "long_name": "11520",
          "short_name": "11520",
          "types": [
            "postal_code"
          ]
        }
      ],
      "formatted_address": "136 Smith St, Freeport, NY 11520, USA",
      "geometry": {
        "location": {
          "lat": 40.651899,
          "lng": -73.584678
        },
        "location_type": "ROOFTOP",
        "viewport": {
          "northeast": {
            "lat": 40.6532479802915,
            "lng": -73.5833290197085
          },
          "southwest": {
            "lat": 40.6505500197085,
            "lng": -73.5860269802915
          }
        }
      },
      "place_id": "ChIJRbe564x7wokR6zUfa6aUKqs",
      "types": [
        "street_address"
      ]
    },
    {
      "address_components": [
        {
          "long_name": "Freeport",
          "short_name": "Freeport",
          "types": [
            "locality",
            "political"
          ]
        },
        {
          "long_name": "Hempstead",
          "short_name": "Hempstead",
          "types": [
            "administrative_area_level_3",
            "political"
          ]
        },
        {
          "long_name": "Nassau County",
          "short_name": "Nassau County",
          "types": [
            "administrative_area_level_2",
            "political"
          ]
        },
        {
          "long_name": "New York",
          "short_name": "NY",
          "types": [
            "administrative_area_level_1",
            "political"
          ]
        },
        {
          "long_name": "United States",
          "short_name": "US",
          "types": [
            "country",
            "political"
          ]
        }
      ],
      "formatted_address": "Freeport, NY, USA",
      "geometry": {
        "bounds": {
          "northeast": {
            "lat": 40.6735478,
            "lng": -73.5646509
          },
          "southwest": {
            "lat": 40.62337309999999,
            "lng": -73.603841
          }
        },
        "location": {
          "lat": 40.6576022,
          "lng": -73.58318349999999
        },
        "location_type": "APPROXIMATE",
        "viewport": {
          "northeast": {
            "lat": 40.6735478,
            "lng": -73.5646509
          },
          "southwest": {
            "lat": 40.62337309999999,
            "lng": -73.603841
          }
        }
      },
      "place_id": "ChIJ1esxKIZ7wokRFTkePKJbt4U",
      "types": [
        "locality",
        "political"
      ]
    },
    {
      "address_components": [
        {
          "long_name": "11520",
          "short_name": "11520",
          "types": [
            "postal_code"
          ]
        },
        {
          "long_name": "Freeport",
          "short_name": "Freeport",
          "types": [
            "locality",
            "political"
          ]
        },
        {
          "long_name": "Hempstead",
          "short_name": "Hempstead",
          "types": [
            "administrative_area_level_3",
            "political"
          ]
        },
        {
          "long_name": "Nassau County",
          "short_name": "Nassau County",
          "types": [
            "administrative_area_level_2",
            "political"
          ]
        },
        {
          "long_name": "New York",
          "short_name": "NY",
          "types": [
            "administrative_area_level_1",
            "political"
          ]
        },
        {
          "long_name": "United States",
          "short_name": "US",
          "types": [
            "country",
            "political"
          ]
        }
      ],
      "formatted_address": "Freeport, NY 11520, USA",
      "geometry": {
        "bounds": {
          "northeast": {
            "lat": 40.6735478,
            "lng": -73.5585579
          },
          "southwest": {
            "lat": 40.608592,
            "lng": -73.603841
          }
        },
        "location": {
          "lat": 40.6440775,
          "lng": -73.5888575
        },
        "location_type": "APPROXIMATE",
        "viewport": {
          "northeast": {
            "lat": 40.6735478,
            "lng": -73.5585579
          },
          "southwest": {
            "lat": 40.608592,
            "lng": -73.603841
          }
        }
      },
      "place_id": "ChIJB57Q14x7wokRANSUrGwEq0Q",
      "types": [
        "postal_code"
      ]
    },
    {
      "address_components": [
        {
          "long_name": "Hempstead",
          "short_name": "Hempstead",
          "types": [
            "administrative_area_level_3",
            "political"
          ]
        },
        {
          "long_name": "Nassau County",
          "short_name": "Nassau County",
          "types": [
            "administrative_area_level_2",
            "political"
          ]
        },
        {
          "long_name": "New York",
          "short_name": "NY",
          "types": [
            "administrative_area_level_1",
            "political"
          ]
        },
        {
          "long_name": "United States",
          "short_name": "US",
          "types": [
            "country",
            "political"
          ]
        }
      ],
      "formatted_address": "Hempstead, NY, USA",
      "geometry": {
        "bounds": {
          "northeast": {
            "lat": 40.7566779,
            "lng": -73.4815866
          },
          "southwest": {
            "lat": 40.5730904,
            "lng": -73.7667408
          }
        },
        "location": {
          "lat": 40.6451257,
          "lng": -73.6300729
        },
        "location_type": "APPROXIMATE",
        "viewport": {
          "northeast": {
            "lat": 40.7566779,
            "lng": -73.4815866
          },
          "southwest": {
            "lat": 40.5730904,
            "lng": -73.7667408
          }
        }
      },
      "place_id": "ChIJHTbFH9BkwokR6paY895RsDs",
      "types": [
        "administrative_area_level_3",
        "political"
      ]
    },
    {
      "address_components": [
        {
          "long_name": "Nassau County",
          "short_name": "Nassau County",
          "types": [
            "administrative_area_level_2",
            "political"
          ]
        },
        {
          "long_name": "New York",
          "short_name": "NY",
          "types": [
            "administrative_area_level_1",
            "political"
          ]
        },
        {
          "long_name": "United States",
          "short_name": "US",
          "types": [
            "country",
            "political"
          ]
        }
      ],
      "formatted_address": "Nassau County, NY, USA",
      "geometry": {
        "bounds": {
          "northeast": {
            "lat": 40.9478348,
            "lng": -73.4232586
          },
          "southwest": {
            "lat": 40.5730904,
            "lng": -73.7667408
          }
        },
        "location": {
          "lat": 40.6546145,
          "lng": -73.55941279999999
        },
        "location_type": "APPROXIMATE",
        "viewport": {
          "northeast": {
            "lat": 40.9478286,
            "lng": -73.4232586
          },
          "southwest": {
            "lat": 40.5730904,
            "lng": -73.7667408
          }
        }
      },
      "place_id": "ChIJoQxey52xwokRap4G05mKJBs",
      "types": [
        "administrative_area_level_2",
        "political"
      ]
    },
    {
      "address_components": [
        {
          "long_name": "New York",
          "short_name": "NY",
          "types": [
            "administrative_area_level_1",
            "political"
          ]
        },
        {
          "long_name": "United States",
          "short_name": "US",
          "types": [
            "country",
            "political"
          ]
        }
      ],
      "formatted_address": "New York, USA",
      "geometry": {
        "bounds": {
          "northeast": {
            "lat": 45.015865,
            "lng": -71.85620639999999
          },
          "southwest": {
            "lat": 40.496091,
            "lng": -79.76214379999999
          }
        },
        "location": {
          "lat": 43.2994285,
          "lng": -74.21793260000001
        },
        "location_type": "APPROXIMATE",
        "viewport": {
          "northeast": {
            "lat": 45.015859,
            "lng": -71.85620639999999
          },
          "southwest": {
            "lat": 40.496091,
            "lng": -79.76214379999999
          }
        }
      },
      "place_id": "ChIJqaUj8fBLzEwRZ5UY3sHGz90",
      "types": [
        "administrative_area_level_1",
        "political"
      ]
    },
    {
      "address_components": [
        {
          "long_name": "United States",
          "short_name": "US",
          "types": [
            "country",
            "political"
          ]
        }
      ],
      "formatted_address": "United States",
      "geometry": {
        "bounds": {
          "northeast": {
            "lat": 71.3867745,
            "lng": -66.9502861
          },
          "southwest": {
            "lat": 18.9106768,
            "lng": 172.4458955
          }
        },
        "location": {
          "lat": 37.09024,
          "lng": -95.712891
        },
        "location_type": "APPROXIMATE",
        "viewport": {
          "northeast": {
            "lat": 49.38,
            "lng": -66.94
          },
          "southwest": {
            "lat": 25.82,
            "lng": -124.39
          }
        }
      },
      "place_id": "ChIJCzYy5IS16lQRQrfeQ5K5Oxw",
      "types": [
        "country",
        "political"
      ]
    }
  ],
  "status": "OK"
}
