{
  "results": [
    {
      "address_components": [
        {
          "long_name": "545",
          "short_name": "545",
          "types": [
            "street_number"
          ]
        },
        {
          "long_name": "North Street",
          "short_name": "North St",
          "types": [
            "route"
          ]
        },
        {
          "long_name": "Waynesville",
          "short_name": "Waynesville",
          "types": [
            "locality",
            "political"
          ]
        },
        {
          "long_name": "Wayne Township",
          "short_name": "Wayne Township",
          "types": [
            "administrative_area_level_3",
            "political"
          ]
        },
        {
          "long_name": "Warren County",
          "short_name": "Warren County",
          "types": [
            "administrative_area_level_2",
            "political"
          ]
        },
        {
          "long_name": "Ohio",
          "short_name": "OH",
          "types": [
            "administrative_area_level_1",
            "political"
          ]
        },
        {
          "long_name": "United States",
          "short_name": "US",
          "types": [
            "country",
            "political"
          ]
        },
        {
          "long_name": "45068",
          "short_name": "45068",
          "types": [
            "postal_code"
          ]
        },
        {
          "long_name": "9842",
          "short_name": "9842",
          "types": [
            "postal_code_suffix"
          ]
        }
      ],
      "formatted_address": "545 North St, Waynesville, OH 45068, USA",
      "geometry": {
        "location": {
          "lat": 39.532826,
          "lng": -84.09033099999999
        },
        "location_type": "ROOFTOP",
        "viewport": {
          "northeast": {
            "lat": 39.5341749802915,
            "lng": -84.0889820197085
          },
          "southwest": {
            "lat": 39.5314770197085,
            "lng": -84.0916799802915
          }
        }
      },
      "place_id": "ChIJPyz0_Y-SQIgRncCvCGoiDMY",
      "types": [
        "street_address"
      ]
    },
    {
      "address_components": [
        {
          "long_name": "Waynesville",
          "short_name": "Waynesville",
          "types": [
            "locality",
            "political"
          ]
        },
        {
          "long_name": "Wayne Township",
          "short_name": "Wayne Township",
          "types": [
            "administrative_area_level_3",
            "political"
          ]
        },
        {
          "long_name": "Warren County",
          "short_name": "Warren County",
          "types": [
            "administrative_area_level_2",
            "political"
          ]
        },
        {
          "long_name": "Ohio",
          "short_name": "OH",
          "types": [
            "administrative_area_level_1",
            "political"
          ]
        },
        {
          "long_name": "United States",
          "short_name": "US",
          "types": [
            "country",
            "political"
          ]
        }
      ],
      "formatted_address": "Waynesville, OH, USA",
      "geometry": {
        "bounds": {
          "northeast": {
            "lat": 39.5465211,
            "lng": -84.0611931
          },
          "southwest": {
            "lat": 39.5171239,
            "lng": -84.1099299
          }
        },
        "location": {
          "lat": 39.52978239999999,
          "lng": -84.086601
        },
        "location_type": "APPROXIMATE",
        "viewport": {
          "northeast": {
            "lat": 39.5465211,
            "lng": -84.0611931
          },
          "southwest": {
            "lat": 39.5171239,
            "lng": -84.1099299
          }
        }
      },
      "place_id": "ChIJN_0_5wCNQIgRQaNxpG9buVw",
      "types": [
        "locality",
        "political"
      ]
    },
    {
      "address_components": [
        {
          "long_name": "Wayne Township",
          "short_name": "Wayne Township",
          "types": [
            "administrative_area_level_3",
            "political"
          ]
        },
        {
          "long_name": "Warren County",
          "short_name": "Warren County",
          "types": [
            "administrative_area_level_2",
            "political"
          ]
        },
        {
          "long_name": "Ohio",
          "short_name": "OH",
          "types": [
            "administrative_area_level_1",
            "political"
          ]
        },
        {
          "long_name": "United States",
          "short_name": "US",
          "types": [
            "country",
            "political"
          ]
        }
      ],
      "formatted_address": "Wayne Township, OH, USA",
      "geometry": {
        "bounds": {
          "northeast": {
            "lat": 39.57922,
            "lng": -83.9770049
          },
          "southwest": {
            "lat": 39.4573629,
            "lng": -84.142883
          }
        },
        "location": {
          "lat": 39.5219903,
          "lng": -84.0801613
        },
        "location_type": "APPROXIMATE",
        "viewport": {
          "northeast": {
            "lat": 39.57922,
            "lng": -83.9770049
          },
          "southwest": {
            "lat": 39.4573629,
            "lng": -84.142883
          }
        }
      },
      "place_id": "ChIJBQu0VRKTQIgRg9QrQ7uU8eE",
      "types": [
        "administrative_area_level_3",
        "political"
      ]
    },
    {
      "address_components": [
        {
          "long_name": "45068",
          "short_name": "45068",
          "types": [
            "postal_code"
          ]
        },
        {
          "long_name": "Waynesville",
          "short_name": "Waynesville",
          "types": [
            "locality",
            "political"
          ]
        },
        {
          "long_name": "Ohio",
          "short_name": "OH",
          "types": [
            "administrative_area_level_1",
            "political"
          ]
        },
        {
          "long_name": "United States",
          "short_name": "US",
          "types": [
            "country",
            "political"
          ]
        }
      ],
      "formatted_address": "Waynesville, OH 45068, USA",
      "geometry": {
        "bounds": {
          "northeast": {
            "lat": 39.5834839,
            "lng": -83.9770049
          },
          "southwest": {
            "lat": 39.452068,
            "lng": -84.1755329
          }
        },
        "location": {
          "lat": 39.5198309,
          "lng": -84.0378894
        },
        "location_type": "APPROXIMATE",
        "viewport": {
          "northeast": {
            "lat": 39.5834839,
            "lng": -83.9770049
          },
          "southwest": {
            "lat": 39.452068,
            "lng": -84.1755329
          }
        }
      },
      "place_id": "ChIJm_asLueSQIgRqYycx3ozoDU",
      "types": [
        "postal_code"
      ]
    },
    {
      "address_components": [
        {
          "long_name": "Warren County",
          "short_name": "Warren County",
          "types": [
            "administrative_area_level_2",
            "political"
          ]
        },
        {
          "long_name": "Ohio",
          "short_name": "OH",
          "types": [
            "administrative_area_level_1",
            "political"
          ]
        },
        {
          "long_name": "United States",
          "short_name": "US",
          "types": [
            "country",
            "political"
          ]
        }
      ],
      "formatted_address": "Warren County, OH, USA",
      "geometry": {
        "bounds": {
          "northeast": {
            "lat": 39.5896429,
            "lng": -83.9770049
          },
          "southwest": {
            "lat": 39.255068,
            "lng": -84.3652369
          }
        },
        "location": {
          "lat": 39.4241422,
          "lng": -84.1857115
        },
        "location_type": "APPROXIMATE",
        "viewport": {
          "northeast": {
            "lat": 39.5896429,
            "lng": -83.9770049
          },
          "southwest": {
            "lat": 39.255068,
            "lng": -84.3652369
          }
        }
      },
      "place_id": "ChIJQcLNcG76QIgR1Nznyf8frn8",
      "types": [
        "administrative_area_level_2",
        "political"
      ]
    },
    {
      "address_components": [
        {
          "long_name": "Ohio",
          "short_name": "OH",
          "types": [
            "administrative_area_level_1",
            "political"
          ]
        },
        {
          "long_name": "United States",
          "short_name": "US",
          "types": [
            "country",
            "political"
          ]
        }
      ],
      "formatted_address": "Ohio, USA",
      "geometry": {
        "bounds": {
          "northeast": {
            "lat": 41.9773019,
            "lng": -80.5182
          },
          "southwest": {
            "lat": 38.4034229,
            "lng": -84.8203049
          }
        },
        "location": {
          "lat": 40.4172871,
          "lng": -82.90712300000001
        },
        "location_type": "APPROXIMATE",
        "viewport": {
          "northeast": {
            "lat": 41.9773019,
            "lng": -80.5182
          },
          "southwest": {
            "lat": 38.4034229,
            "lng": -84.8203049
          }
        }
      },
      "place_id": "ChIJwY5NtXrpNogRFtmfnDlkzeU",
      "types": [
        "administrative_area_level_1",
        "political"
      ]
    },
    {
      "address_components": [
        {
          "long_name": "United States",
          "short_name": "US",
          "types": [
            "country",
            "political"
          ]
        }
      ],
      "formatted_address": "United States",
      "geometry": {
        "bounds": {
          "northeast": {
            "lat": 71.3867745,
            "lng": -66.9502861
          },
          "southwest": {
            "lat": 18.9106768,
            "lng": 172.4458955
          }
        },
        "location": {
          "lat": 37.09024,
          "lng": -95.712891
        },
        "location_type": "APPROXIMATE",
        "viewport": {
          "northeast": {
            "lat": 49.38,
            "lng": -66.94
          },
          "southwest": {
            "lat": 25.82,
            "lng": -124.39
          }
        }
      },
      "place_id": "ChIJCzYy5IS16lQRQrfeQ5K5Oxw",
      "types": [
        "country",
        "political"
      ]
    }
  ],
  "status": "OK"
}
