{
  "results": [
    {
      "address_components": [
        {
          "long_name": "81",
          "short_name": "81",
          "types": [
            "street_number"
          ]
        },
        {
          "long_name": "West South Avenue",
          "short_name": "W South Ave",
          "types": [
            "route"
          ]
        },
        {
          "long_name": "Hesperia",
          "short_name": "Hesperia",
          "types": [
            "locality",
            "political"
          ]
        },
        {
          "long_name": "Newfield Township",
          "short_name": "Newfield Township",
          "types": [
            "administrative_area_level_3",
            "political"
          ]
        },
        {
          "long_name": "Oceana County",
          "short_name": "Oceana County",
          "types": [
            "administrative_area_level_2",
            "political"
          ]
        },
        {
          "long_name": "Michigan",
          "short_name": "MI",
          "types": [
            "administrative_area_level_1",
            "political"
          ]
        },
        {
          "long_name": "United States",
          "short_name": "US",
          "types": [
            "country",
            "political"
          ]
        },
        {
          "long_name": "49421",
          "short_name": "49421",
          "types": [
            "postal_code"
          ]
        },
        {
          "long_name": "9702",
          "short_name": "9702",
          "types": [
            "postal_code_suffix"
          ]
        }
      ],
      "formatted_address": "81 W South Ave, Hesperia, MI 49421, USA",
      "geometry": {
        "location": {
          "lat": 43.56893100000001,
          "lng": -86.040785
        },
        "location_type": "ROOFTOP",
        "viewport": {
          "northeast": {
            "lat": 43.57027998029151,
            "lng": -86.0394360197085
          },
          "southwest": {
            "lat": 43.56758201970851,
            "lng": -86.04213398029151
          }
        }
      },
      "place_id": "ChIJn0G-KIhFGYgRJGcnu5Yfx-4",
      "types": [
        "street_address"
      ]
    },
    {
      "address_components": [
        {
          "long_name": "Hesperia",
          "short_name": "Hesperia",
          "types": [
            "locality",
            "political"
          ]
        },
        {
          "long_name": "Newaygo County",
          "short_name": "Newaygo County",
          "types": [
            "administrative_area_level_2",
            "political"
          ]
        },
        {
          "long_name": "Michigan",
          "short_name": "MI",
          "types": [
            "administrative_area_level_1",
            "political"
          ]
        },
        {
          "long_name": "United States",
          "short_name": "US",
          "types": [
            "country",
            "political"
          ]
        },
        {
          "long_name": "49421",
          "short_name": "49421",
          "types": [
            "postal_code"
          ]
        }
      ],
      "formatted_address": "Hesperia, MI 49421, USA",
      "geometry": {
        "bounds": {
          "northeast": {
            "lat": 43.5757039,
            "lng": -86.0295569
          },
          "southwest": {
            "lat": 43.5614289,
            "lng": -86.049594
          }
        },
        "location": {
          "lat": 43.5689029,
          "lng": -86.0395071
        },
        "location_type": "APPROXIMATE",
        "viewport": {
          "northeast": {
            "lat": 43.5757039,
            "lng": -86.0295569
          },
          "southwest": {
            "lat": 43.5614289,
            "lng": -86.049594
          }
        }
      },
      "place_id": "ChIJqeOuNIhFGYgR9cnDQcvsf6A",
      "types": [
        "locality",
        "political"
      ]
    },
    {
      "address_components": [
        {
          "long_name": "Newfield Township",
          "short_name": "Newfield Township",
          "types": [
            "administrative_area_level_3",
            "political"
          ]
        },
        {
          "long_name": "Oceana County",
          "short_name": "Oceana County",
          "types": [
            "administrative_area_level_2",
            "political"
          ]
        },
        {
          "long_name": "Michigan",
          "short_name": "MI",
          "types": [
            "administrative_area_level_1",
            "political"
          ]
        },
        {
          "long_name": "United States",
          "short_name": "US",
          "types": [
            "country",
            "political"
          ]
        }
      ],
      "formatted_address": "Newfield Township, MI, USA",
      "geometry": {
        "bounds": {
          "northeast": {
            "lat": 43.64216890000001,
            "lng": -86.0392169
          },
          "southwest": {
            "lat": 43.5541819,
            "lng": -86.1589351
          }
        },
        "location": {
          "lat": 43.5908604,
          "lng": -86.1141045
        },
        "location_type": "APPROXIMATE",
        "viewport": {
          "northeast": {
            "lat": 43.64216890000001,
            "lng": -86.0392169
          },
          "southwest": {
            "lat": 43.5541819,
            "lng": -86.1589351
          }
        }
      },
      "place_id": "ChIJZ7EBcCZQGYgRCV_XWsP7yAM",
      "types": [
        "administrative_area_level_3",
        "political"
      ]
    },
    {
      "address_components": [
        {
          "long_name": "49421",
          "short_name": "49421",
          "types": [
            "postal_code"
          ]
        },
        {
          "long_name": "Hesperia",
          "short_name": "Hesperia",
          "types": [
            "locality",
            "political"
          ]
        },
        {
          "long_name": "Michigan",
          "short_name": "MI",
          "types": [
            "administrative_area_level_1",
            "political"
          ]
        },
        {
          "long_name": "United States",
          "short_name": "US",
          "types": [
            "country",
            "political"
          ]
        }
      ],
      "formatted_address": "Hesperia, MI 49421, USA",
      "geometry": {
        "bounds": {
          "northeast": {
            "lat": 43.698721,
            "lng": -85.8951369
          },
          "southwest": {
            "lat": 43.4855741,
            "lng": -86.24880700000001
          }
        },
        "location": {
          "lat": 43.5894707,
          "lng": -86.0733498
        },
        "location_type": "APPROXIMATE",
        "viewport": {
          "northeast": {
            "lat": 43.698721,
            "lng": -85.8951369
          },
          "southwest": {
            "lat": 43.4855741,
            "lng": -86.24880700000001
          }
        }
      },
      "place_id": "ChIJ77AxfeJOGYgRpulCf1uqh38",
      "types": [
        "postal_code"
      ]
    },
    {
      "address_components": [
        {
          "long_name": "Oceana County",
          "short_name": "Oceana County",
          "types": [
            "administrative_area_level_2",
            "political"
          ]
        },
        {
          "long_name": "Michigan",
          "short_name": "MI",
          "types": [
            "administrative_area_level_1",
            "political"
          ]
        },
        {
          "long_name": "United States",
          "short_name": "US",
          "types": [
            "country",
            "political"
          ]
        }
      ],
      "formatted_address": "Oceana County, MI, USA",
      "geometry": {
        "bounds": {
          "northeast": {
            "lat": 43.8195051,
            "lng": -86.0378839
          },
          "southwest": {
            "lat": 43.467447,
            "lng": -86.5411266
          }
        },
        "location": {
          "lat": 43.643476,
          "lng": -86.2895052
        },
        "location_type": "APPROXIMATE",
        "viewport": {
          "northeast": {
            "lat": 43.8195051,
            "lng": -86.0378839
          },
          "southwest": {
            "lat": 43.467447,
            "lng": -86.5411266
          }
        }
      },
      "place_id": "ChIJIUZfB8fzG4gRHSqMbCV0uXg",
      "types": [
        "administrative_area_level_2",
        "political"
      ]
    },
    {
      "address_components": [
        {
          "long_name": "Michigan",
          "short_name": "MI",
          "types": [
            "administrative_area_level_1",
            "political"
          ]
        },
        {
          "long_name": "United States",
          "short_name": "US",
          "types": [
            "country",
            "political"
          ]
        }
      ],
      "formatted_address": "Michigan, USA",
      "geometry": {
        "bounds": {
          "northeast": {
            "lat": 48.1986461,
            "lng": -82.413474
          },
          "southwest": {
            "lat": 41.696118,
            "lng": -90.4181358
          }
        },
        "location": {
          "lat": 44.3148443,
          "lng": -85.60236429999999
        },
        "location_type": "APPROXIMATE",
        "viewport": {
          "northeast": {
            "lat": 48.198602,
            "lng": -82.413474
          },
          "southwest": {
            "lat": 41.696118,
            "lng": -90.4181358
          }
        }
      },
      "place_id": "ChIJEQTKxz2qTE0Rs8liellI3Zc",
      "types": [
        "administrative_area_level_1",
        "political"
      ]
    },
    {
      "address_components": [
        {
          "long_name": "United States",
          "short_name": "US",
          "types": [
            "country",
            "political"
          ]
        }
      ],
      "formatted_address": "United States",
      "geometry": {
        "bounds": {
          "northeast": {
            "lat": 71.3867745,
            "lng": -66.9502861
          },
          "southwest": {
            "lat": 18.9106768,
            "lng": 172.4458955
          }
        },
        "location": {
          "lat": 37.09024,
          "lng": -95.712891
        },
        "location_type": "APPROXIMATE",
        "viewport": {
          "northeast": {
            "lat": 49.38,
            "lng": -66.94
          },
          "southwest": {
            "lat": 25.82,
            "lng": -124.39
          }
        }
      },
      "place_id": "ChIJCzYy5IS16lQRQrfeQ5K5Oxw",
      "types": [
        "country",
        "political"
      ]
    }
  ],
  "status": "OK"
}
