{
  "results": [
    {
      "address_components": [
        {
          "long_name": "302",
          "short_name": "302",
          "types": [
            "street_number"
          ]
        },
        {
          "long_name": "Millersburg Street",
          "short_name": "Millersburg St",
          "types": [
            "route"
          ]
        },
        {
          "long_name": "Holmesville",
          "short_name": "Holmesville",
          "types": [
            "locality",
            "political"
          ]
        },
        {
          "long_name": "Prairie Township",
          "short_name": "Prairie Township",
          "types": [
            "administrative_area_level_3",
            "political"
          ]
        },
        {
          "long_name": "Holmes County",
          "short_name": "Holmes County",
          "types": [
            "administrative_area_level_2",
            "political"
          ]
        },
        {
          "long_name": "Ohio",
          "short_name": "OH",
          "types": [
            "administrative_area_level_1",
            "political"
          ]
        },
        {
          "long_name": "United States",
          "short_name": "US",
          "types": [
            "country",
            "political"
          ]
        },
        {
          "long_name": "44633",
          "short_name": "44633",
          "types": [
            "postal_code"
          ]
        }
      ],
      "formatted_address": "302 Millersburg St, Holmesville, OH 44633, USA",
      "geometry": {
        "bounds": {
          "northeast": {
            "lat": 40.6290231,
            "lng": -81.9227092
          },
          "southwest": {
            "lat": 40.6272729,
            "lng": -81.9227952
          }
        },
        "location": {
          "lat": 40.62897299999999,
          "lng": -81.9228119
        },
        "location_type": "RANGE_INTERPOLATED",
        "viewport": {
          "northeast": {
            "lat": 40.6294969802915,
            "lng": -81.9214032197085
          },
          "southwest": {
            "lat": 40.6267990197085,
            "lng": -81.92410118029152
          }
        }
      },
      "place_id": "Ei4zMDIgTWlsbGVyc2J1cmcgU3QsIEhvbG1lc3ZpbGxlLCBPSCA0NDYzMywgVVNB",
      "types": [
        "street_address"
      ]
    },
    {
      "address_components": [
        {
          "long_name": "Holmesville",
          "short_name": "Holmesville",
          "types": [
            "locality",
            "political"
          ]
        },
        {
          "long_name": "Prairie Township",
          "short_name": "Prairie Township",
          "types": [
            "administrative_area_level_3",
            "political"
          ]
        },
        {
          "long_name": "Holmes County",
          "short_name": "Holmes County",
          "types": [
            "administrative_area_level_2",
            "political"
          ]
        },
        {
          "long_name": "Ohio",
          "short_name": "OH",
          "types": [
            "administrative_area_level_1",
            "political"
          ]
        },
        {
          "long_name": "United States",
          "short_name": "US",
          "types": [
            "country",
            "political"
          ]
        },
        {
          "long_name": "44633",
          "short_name": "44633",
          "types": [
            "postal_code"
          ]
        }
      ],
      "formatted_address": "Holmesville, OH 44633, USA",
      "geometry": {
        "bounds": {
          "northeast": {
            "lat": 40.630851,
            "lng": -81.914358
          },
          "southwest": {
            "lat": 40.6257589,
            "lng": -81.932857
          }
        },
        "location": {
          "lat": 40.6295049,
          "lng": -81.9243089
        },
        "location_type": "APPROXIMATE",
        "viewport": {
          "northeast": {
            "lat": 40.630851,
            "lng": -81.914358
          },
          "southwest": {
            "lat": 40.6257589,
            "lng": -81.932857
          }
        }
      },
      "place_id": "ChIJw3VwqrFrN4gRFFPJsDPVAHg",
      "types": [
        "locality",
        "political"
      ]
    },
    {
      "address_components": [
        {
          "long_name": "44633",
          "short_name": "44633",
          "types": [
            "postal_code"
          ]
        },
        {
          "long_name": "Holmesville",
          "short_name": "Holmesville",
          "types": [
            "locality",
            "political"
          ]
        },
        {
          "long_name": "Ohio",
          "short_name": "OH",
          "types": [
            "administrative_area_level_1",
            "political"
          ]
        },
        {
          "long_name": "United States",
          "short_name": "US",
          "types": [
            "country",
            "political"
          ]
        }
      ],
      "formatted_address": "Holmesville, OH 44633, USA",
      "geometry": {
        "bounds": {
          "northeast": {
            "lat": 40.6676679,
            "lng": -81.88500499999999
          },
          "southwest": {
            "lat": 40.574199,
            "lng": -81.99768809999999
          }
        },
        "location": {
          "lat": 40.6255361,
          "lng": -81.9207423
        },
        "location_type": "APPROXIMATE",
        "viewport": {
          "northeast": {
            "lat": 40.6676679,
            "lng": -81.88500499999999
          },
          "southwest": {
            "lat": 40.574199,
            "lng": -81.99768809999999
          }
        }
      },
      "place_id": "ChIJ2wqgZ8ZrN4gRs_wdEQy34ZY",
      "types": [
        "postal_code"
      ]
    },
    {
      "address_components": [
        {
          "long_name": "Prairie Township",
          "short_name": "Prairie Township",
          "types": [
            "administrative_area_level_3",
            "political"
          ]
        },
        {
          "long_name": "Holmes County",
          "short_name": "Holmes County",
          "types": [
            "administrative_area_level_2",
            "political"
          ]
        },
        {
          "long_name": "Ohio",
          "short_name": "OH",
          "types": [
            "administrative_area_level_1",
            "political"
          ]
        },
        {
          "long_name": "United States",
          "short_name": "US",
          "types": [
            "country",
            "political"
          ]
        }
      ],
      "formatted_address": "Prairie Township, OH, USA",
      "geometry": {
        "bounds": {
          "northeast": {
            "lat": 40.66796310000001,
            "lng": -81.8682189
          },
          "southwest": {
            "lat": 40.594508,
            "lng": -81.9960321
          }
        },
        "location": {
          "lat": 40.6270652,
          "lng": -81.9425701
        },
        "location_type": "APPROXIMATE",
        "viewport": {
          "northeast": {
            "lat": 40.66796310000001,
            "lng": -81.8682189
          },
          "southwest": {
            "lat": 40.594508,
            "lng": -81.9960321
          }
        }
      },
      "place_id": "ChIJJ9AkDcprN4gRzRMZ6H-vw6Q",
      "types": [
        "administrative_area_level_3",
        "political"
      ]
    },
    {
      "address_components": [
        {
          "long_name": "Holmes County",
          "short_name": "Holmes County",
          "types": [
            "administrative_area_level_2",
            "political"
          ]
        },
        {
          "long_name": "Ohio",
          "short_name": "OH",
          "types": [
            "administrative_area_level_1",
            "political"
          ]
        },
        {
          "long_name": "United States",
          "short_name": "US",
          "types": [
            "country",
            "political"
          ]
        }
      ],
      "formatted_address": "Holmes County, OH, USA",
      "geometry": {
        "bounds": {
          "northeast": {
            "lat": 40.668411,
            "lng": -81.64984779999999
          },
          "southwest": {
            "lat": 40.443866,
            "lng": -82.220737
          }
        },
        "location": {
          "lat": 40.5540928,
          "lng": -81.909826
        },
        "location_type": "APPROXIMATE",
        "viewport": {
          "northeast": {
            "lat": 40.668411,
            "lng": -81.64984779999999
          },
          "southwest": {
            "lat": 40.443866,
            "lng": -82.220737
          }
        }
      },
      "place_id": "ChIJeW0lzN1uN4gRjho7zqb39NY",
      "types": [
        "administrative_area_level_2",
        "political"
      ]
    },
    {
      "address_components": [
        {
          "long_name": "Ohio",
          "short_name": "OH",
          "types": [
            "administrative_area_level_1",
            "political"
          ]
        },
        {
          "long_name": "United States",
          "short_name": "US",
          "types": [
            "country",
            "political"
          ]
        }
      ],
      "formatted_address": "Ohio, USA",
      "geometry": {
        "bounds": {
          "northeast": {
            "lat": 41.9773019,
            "lng": -80.5182
          },
          "southwest": {
            "lat": 38.4034229,
            "lng": -84.8203049
          }
        },
        "location": {
          "lat": 40.4172871,
          "lng": -82.90712300000001
        },
        "location_type": "APPROXIMATE",
        "viewport": {
          "northeast": {
            "lat": 41.9773019,
            "lng": -80.5182
          },
          "southwest": {
            "lat": 38.4034229,
            "lng": -84.8203049
          }
        }
      },
      "place_id": "ChIJwY5NtXrpNogRFtmfnDlkzeU",
      "types": [
        "administrative_area_level_1",
        "political"
      ]
    },
    {
      "address_components": [
        {
          "long_name": "United States",
          "short_name": "US",
          "types": [
            "country",
            "political"
          ]
        }
      ],
      "formatted_address": "United States",
      "geometry": {
        "bounds": {
          "northeast": {
            "lat": 71.3867745,
            "lng": -66.9502861
          },
          "southwest": {
            "lat": 18.9106768,
            "lng": 172.4458955
          }
        },
        "location": {
          "lat": 37.09024,
          "lng": -95.712891
        },
        "location_type": "APPROXIMATE",
        "viewport": {
          "northeast": {
            "lat": 49.38,
            "lng": -66.94
          },
          "southwest": {
            "lat": 25.82,
            "lng": -124.39
          }
        }
      },
      "place_id": "ChIJCzYy5IS16lQRQrfeQ5K5Oxw",
      "types": [
        "country",
        "political"
      ]
    }
  ],
  "status": "OK"
}
