{
  "results": [
    {
      "address_components": [
        {
          "long_name": "1211-1235",
          "short_name": "1211-1235",
          "types": [
            "street_number"
          ]
        },
        {
          "long_name": "Little Neck Avenue",
          "short_name": "Little Neck Ave",
          "types": [
            "route"
          ]
        },
        {
          "long_name": "North Bellmore",
          "short_name": "North Bellmore",
          "types": [
            "locality",
            "political"
          ]
        },
        {
          "long_name": "Hempstead",
          "short_name": "Hempstead",
          "types": [
            "administrative_area_level_3",
            "political"
          ]
        },
        {
          "long_name": "Nassau County",
          "short_name": "Nassau County",
          "types": [
            "administrative_area_level_2",
            "political"
          ]
        },
        {
          "long_name": "New York",
          "short_name": "NY",
          "types": [
            "administrative_area_level_1",
            "political"
          ]
        },
        {
          "long_name": "United States",
          "short_name": "US",
          "types": [
            "country",
            "political"
          ]
        },
        {
          "long_name": "11710",
          "short_name": "11710",
          "types": [
            "postal_code"
          ]
        },
        {
          "long_name": "1801",
          "short_name": "1801",
          "types": [
            "postal_code_suffix"
          ]
        }
      ],
      "formatted_address": "1211-1235 Little Neck Ave, North Bellmore, NY 11710, USA",
      "geometry": {
        "bounds": {
          "northeast": {
            "lat": 40.6912238,
            "lng": -73.53907699999999
          },
          "southwest": {
            "lat": 40.69025200000001,
            "lng": -73.5395444
          }
        },
        "location": {
          "lat": 40.6903261,
          "lng": -73.5390926
        },
        "location_type": "RANGE_INTERPOLATED",
        "viewport": {
          "northeast": {
            "lat": 40.69208688029151,
            "lng": -73.53796171970849
          },
          "southwest": {
            "lat": 40.68938891970851,
            "lng": -73.5406596802915
          }
        }
      },
      "place_id": "EjgxMjExLTEyMzUgTGl0dGxlIE5lY2sgQXZlLCBOb3J0aCBCZWxsbW9yZSwgTlkgMTE3MTAsIFVTQQ",
      "types": [
        "street_address"
      ]
    },
    {
      "address_components": [
        {
          "long_name": "North Bellmore",
          "short_name": "North Bellmore",
          "types": [
            "locality",
            "political"
          ]
        },
        {
          "long_name": "Hempstead",
          "short_name": "Hempstead",
          "types": [
            "administrative_area_level_3",
            "political"
          ]
        },
        {
          "long_name": "Nassau County",
          "short_name": "Nassau County",
          "types": [
            "administrative_area_level_2",
            "political"
          ]
        },
        {
          "long_name": "New York",
          "short_name": "NY",
          "types": [
            "administrative_area_level_1",
            "political"
          ]
        },
        {
          "long_name": "United States",
          "short_name": "US",
          "types": [
            "country",
            "political"
          ]
        }
      ],
      "formatted_address": "North Bellmore, NY, USA",
      "geometry": {
        "bounds": {
          "northeast": {
            "lat": 40.706379,
            "lng": -73.52109879999999
          },
          "southwest": {
            "lat": 40.6741369,
            "lng": -73.5592219
          }
        },
        "location": {
          "lat": 40.69148999999999,
          "lng": -73.5334597
        },
        "location_type": "APPROXIMATE",
        "viewport": {
          "northeast": {
            "lat": 40.706379,
            "lng": -73.52109879999999
          },
          "southwest": {
            "lat": 40.6741369,
            "lng": -73.5592219
          }
        }
      },
      "place_id": "ChIJJx4VKCl5wokRZPVc5-lsvW4",
      "types": [
        "locality",
        "political"
      ]
    },
    {
      "address_components": [
        {
          "long_name": "11710",
          "short_name": "11710",
          "types": [
            "postal_code"
          ]
        },
        {
          "long_name": "Bellmore",
          "short_name": "Bellmore",
          "types": [
            "locality",
            "political"
          ]
        },
        {
          "long_name": "Hempstead",
          "short_name": "Hempstead",
          "types": [
            "administrative_area_level_3",
            "political"
          ]
        },
        {
          "long_name": "Nassau County",
          "short_name": "Nassau County",
          "types": [
            "administrative_area_level_2",
            "political"
          ]
        },
        {
          "long_name": "New York",
          "short_name": "NY",
          "types": [
            "administrative_area_level_1",
            "political"
          ]
        },
        {
          "long_name": "United States",
          "short_name": "US",
          "types": [
            "country",
            "political"
          ]
        }
      ],
      "formatted_address": "Bellmore, NY 11710, USA",
      "geometry": {
        "bounds": {
          "northeast": {
            "lat": 40.706379,
            "lng": -73.509818
          },
          "southwest": {
            "lat": 40.6035269,
            "lng": -73.559304
          }
        },
        "location": {
          "lat": 40.6651384,
          "lng": -73.52996399999999
        },
        "location_type": "APPROXIMATE",
        "viewport": {
          "northeast": {
            "lat": 40.706379,
            "lng": -73.509818
          },
          "southwest": {
            "lat": 40.6035269,
            "lng": -73.559304
          }
        }
      },
      "place_id": "ChIJgUDckrN-wokRRs3Alr8OPZI",
      "postcode_localities": [
        "Bellmore",
        "North Bellmore"
      ],
      "types": [
        "postal_code"
      ]
    },
    {
      "address_components": [
        {
          "long_name": "Hempstead",
          "short_name": "Hempstead",
          "types": [
            "administrative_area_level_3",
            "political"
          ]
        },
        {
          "long_name": "Nassau County",
          "short_name": "Nassau County",
          "types": [
            "administrative_area_level_2",
            "political"
          ]
        },
        {
          "long_name": "New York",
          "short_name": "NY",
          "types": [
            "administrative_area_level_1",
            "political"
          ]
        },
        {
          "long_name": "United States",
          "short_name": "US",
          "types": [
            "country",
            "political"
          ]
        }
      ],
      "formatted_address": "Hempstead, NY, USA",
      "geometry": {
        "bounds": {
          "northeast": {
            "lat": 40.7566779,
            "lng": -73.4815866
          },
          "southwest": {
            "lat": 40.5730904,
            "lng": -73.7667408
          }
        },
        "location": {
          "lat": 40.6451257,
          "lng": -73.6300729
        },
        "location_type": "APPROXIMATE",
        "viewport": {
          "northeast": {
            "lat": 40.7566779,
            "lng": -73.4815866
          },
          "southwest": {
            "lat": 40.5730904,
            "lng": -73.7667408
          }
        }
      },
      "place_id": "ChIJHTbFH9BkwokR6paY895RsDs",
      "types": [
        "administrative_area_level_3",
        "political"
      ]
    },
    {
      "address_components": [
        {
          "long_name": "Nassau County",
          "short_name": "Nassau County",
          "types": [
            "administrative_area_level_2",
            "political"
          ]
        },
        {
          "long_name": "New York",
          "short_name": "NY",
          "types": [
            "administrative_area_level_1",
            "political"
          ]
        },
        {
          "long_name": "United States",
          "short_name": "US",
          "types": [
            "country",
            "political"
          ]
        }
      ],
      "formatted_address": "Nassau County, NY, USA",
      "geometry": {
        "bounds": {
          "northeast": {
            "lat": 40.9478348,
            "lng": -73.4232586
          },
          "southwest": {
            "lat": 40.5730904,
            "lng": -73.7667408
          }
        },
        "location": {
          "lat": 40.6546145,
          "lng": -73.55941279999999
        },
        "location_type": "APPROXIMATE",
        "viewport": {
          "northeast": {
            "lat": 40.9478286,
            "lng": -73.4232586
          },
          "southwest": {
            "lat": 40.5730904,
            "lng": -73.7667408
          }
        }
      },
      "place_id": "ChIJoQxey52xwokRap4G05mKJBs",
      "types": [
        "administrative_area_level_2",
        "political"
      ]
    },
    {
      "address_components": [
        {
          "long_name": "New York",
          "short_name": "NY",
          "types": [
            "administrative_area_level_1",
            "political"
          ]
        },
        {
          "long_name": "United States",
          "short_name": "US",
          "types": [
            "country",
            "political"
          ]
        }
      ],
      "formatted_address": "New York, USA",
      "geometry": {
        "bounds": {
          "northeast": {
            "lat": 45.015865,
            "lng": -71.85620639999999
          },
          "southwest": {
            "lat": 40.496091,
            "lng": -79.76214379999999
          }
        },
        "location": {
          "lat": 43.2994285,
          "lng": -74.21793260000001
        },
        "location_type": "APPROXIMATE",
        "viewport": {
          "northeast": {
            "lat": 45.015859,
            "lng": -71.85620639999999
          },
          "southwest": {
            "lat": 40.496091,
            "lng": -79.76214379999999
          }
        }
      },
      "place_id": "ChIJqaUj8fBLzEwRZ5UY3sHGz90",
      "types": [
        "administrative_area_level_1",
        "political"
      ]
    },
    {
      "address_components": [
        {
          "long_name": "United States",
          "short_name": "US",
          "types": [
            "country",
            "political"
          ]
        }
      ],
      "formatted_address": "United States",
      "geometry": {
        "bounds": {
          "northeast": {
            "lat": 71.3867745,
            "lng": -66.9502861
          },
          "southwest": {
            "lat": 18.9106768,
            "lng": 172.4458955
          }
        },
        "location": {
          "lat": 37.09024,
          "lng": -95.712891
        },
        "location_type": "APPROXIMATE",
        "viewport": {
          "northeast": {
            "lat": 49.38,
            "lng": -66.94
          },
          "southwest": {
            "lat": 25.82,
            "lng": -124.39
          }
        }
      },
      "place_id": "ChIJCzYy5IS16lQRQrfeQ5K5Oxw",
      "types": [
        "country",
        "political"
      ]
    }
  ],
  "status": "OK"
}
