{
  "results": [
    {
      "address_components": [
        {
          "long_name": "4th Street",
          "short_name": "4th St",
          "types": [
            "route"
          ]
        },
        {
          "long_name": "Max",
          "short_name": "Max",
          "types": [
            "locality",
            "political"
          ]
        },
        {
          "long_name": "Dundy County",
          "short_name": "Dundy County",
          "types": [
            "administrative_area_level_2",
            "political"
          ]
        },
        {
          "long_name": "Nebraska",
          "short_name": "NE",
          "types": [
            "administrative_area_level_1",
            "political"
          ]
        },
        {
          "long_name": "United States",
          "short_name": "US",
          "types": [
            "country",
            "political"
          ]
        },
        {
          "long_name": "69037",
          "short_name": "69037",
          "types": [
            "postal_code"
          ]
        }
      ],
      "formatted_address": "4th St, Max, NE 69037, USA",
      "geometry": {
        "bounds": {
          "northeast": {
            "lat": 40.1148828,
            "lng": -101.4043252
          },
          "southwest": {
            "lat": 40.1138535,
            "lng": -101.4043537
          }
        },
        "location": {
          "lat": 40.1143682,
          "lng": -101.4043436
        },
        "location_type": "GEOMETRIC_CENTER",
        "viewport": {
          "northeast": {
            "lat": 40.1157171302915,
            "lng": -101.4029904697085
          },
          "southwest": {
            "lat": 40.1130191697085,
            "lng": -101.4056884302915
          }
        }
      },
      "place_id": "ChIJbw_zZkxUdIcRLbxbobkT7M4",
      "types": [
        "route"
      ]
    },
    {
      "address_components": [
        {
          "long_name": "69037",
          "short_name": "69037",
          "types": [
            "postal_code"
          ]
        },
        {
          "long_name": "Max",
          "short_name": "Max",
          "types": [
            "locality",
            "political"
          ]
        },
        {
          "long_name": "Nebraska",
          "short_name": "NE",
          "types": [
            "administrative_area_level_1",
            "political"
          ]
        },
        {
          "long_name": "United States",
          "short_name": "US",
          "types": [
            "country",
            "political"
          ]
        }
      ],
      "formatted_address": "Max, NE 69037, USA",
      "geometry": {
        "bounds": {
          "northeast": {
            "lat": 40.2781579,
            "lng": -101.324979
          },
          "southwest": {
            "lat": 40.109547,
            "lng": -101.530758
          }
        },
        "location": {
          "lat": 40.1713597,
          "lng": -101.4112049
        },
        "location_type": "APPROXIMATE",
        "viewport": {
          "northeast": {
            "lat": 40.2781579,
            "lng": -101.324979
          },
          "southwest": {
            "lat": 40.109547,
            "lng": -101.530758
          }
        }
      },
      "place_id": "ChIJpxr2xJVTdIcRUD3C8H-rsDA",
      "types": [
        "postal_code"
      ]
    },
    {
      "address_components": [
        {
          "long_name": "Dundy County",
          "short_name": "Dundy County",
          "types": [
            "administrative_area_level_2",
            "political"
          ]
        },
        {
          "long_name": "Nebraska",
          "short_name": "NE",
          "types": [
            "administrative_area_level_1",
            "political"
          ]
        },
        {
          "long_name": "United States",
          "short_name": "US",
          "types": [
            "country",
            "political"
          ]
        }
      ],
      "formatted_address": "Dundy County, NE, USA",
      "geometry": {
        "bounds": {
          "northeast": {
            "lat": 40.3505529,
            "lng": -101.323353
          },
          "southwest": {
            "lat": 40.002385,
            "lng": -102.0519721
          }
        },
        "location": {
          "lat": 40.13061210000001,
          "lng": -101.6157773
        },
        "location_type": "APPROXIMATE",
        "viewport": {
          "northeast": {
            "lat": 40.3505529,
            "lng": -101.323353
          },
          "southwest": {
            "lat": 40.002385,
            "lng": -102.0519721
          }
        }
      },
      "place_id": "ChIJQXgoUk9ddIcR2jbu_XOqWpI",
      "types": [
        "administrative_area_level_2",
        "political"
      ]
    },
    {
      "address_components": [
        {
          "long_name": "Nebraska",
          "short_name": "NE",
          "types": [
            "administrative_area_level_1",
            "political"
          ]
        },
        {
          "long_name": "United States",
          "short_name": "US",
          "types": [
            "country",
            "political"
          ]
        }
      ],
      "formatted_address": "Nebraska, USA",
      "geometry": {
        "bounds": {
          "northeast": {
            "lat": 43.00170689999999,
            "lng": -95.30829000000001
          },
          "southwest": {
            "lat": 39.999932,
            "lng": -104.053514
          }
        },
        "location": {
          "lat": 41.4925374,
          "lng": -99.9018131
        },
        "location_type": "APPROXIMATE",
        "viewport": {
          "northeast": {
            "lat": 43.00170689999999,
            "lng": -95.30829000000001
          },
          "southwest": {
            "lat": 39.999932,
            "lng": -104.053514
          }
        }
      },
      "place_id": "ChIJ7fwMtciNk4cRxArzDwyQJ6E",
      "types": [
        "administrative_area_level_1",
        "political"
      ]
    },
    {
      "address_components": [
        {
          "long_name": "United States",
          "short_name": "US",
          "types": [
            "country",
            "political"
          ]
        }
      ],
      "formatted_address": "United States",
      "geometry": {
        "bounds": {
          "northeast": {
            "lat": 71.3867745,
            "lng": -66.9502861
          },
          "southwest": {
            "lat": 18.9106768,
            "lng": 172.4458955
          }
        },
        "location": {
          "lat": 37.09024,
          "lng": -95.712891
        },
        "location_type": "APPROXIMATE",
        "viewport": {
          "northeast": {
            "lat": 49.38,
            "lng": -66.94
          },
          "southwest": {
            "lat": 25.82,
            "lng": -124.39
          }
        }
      },
      "place_id": "ChIJCzYy5IS16lQRQrfeQ5K5Oxw",
      "types": [
        "country",
        "political"
      ]
    }
  ],
  "status": "OK"
}
