{
  "results": [
    {
      "address_components": [
        {
          "long_name": "18",
          "short_name": "18",
          "types": [
            "street_number"
          ]
        },
        {
          "long_name": "Factory Street",
          "short_name": "Factory St",
          "types": [
            "route"
          ]
        },
        {
          "long_name": "Cleveland",
          "short_name": "Cleveland",
          "types": [
            "locality",
            "political"
          ]
        },
        {
          "long_name": "Constantia",
          "short_name": "Constantia",
          "types": [
            "administrative_area_level_3",
            "political"
          ]
        },
        {
          "long_name": "Oswego County",
          "short_name": "Oswego County",
          "types": [
            "administrative_area_level_2",
            "political"
          ]
        },
        {
          "long_name": "New York",
          "short_name": "NY",
          "types": [
            "administrative_area_level_1",
            "political"
          ]
        },
        {
          "long_name": "United States",
          "short_name": "US",
          "types": [
            "country",
            "political"
          ]
        },
        {
          "long_name": "13042",
          "short_name": "13042",
          "types": [
            "postal_code"
          ]
        },
        {
          "long_name": "3146",
          "short_name": "3146",
          "types": [
            "postal_code_suffix"
          ]
        }
      ],
      "formatted_address": "18 Factory St, Cleveland, NY 13042, USA",
      "geometry": {
        "location": {
          "lat": 43.240156,
          "lng": -75.884953
        },
        "location_type": "ROOFTOP",
        "viewport": {
          "northeast": {
            "lat": 43.2415049802915,
            "lng": -75.88360401970849
          },
          "southwest": {
            "lat": 43.2388070197085,
            "lng": -75.88630198029149
          }
        }
      },
      "place_id": "ChIJgTv7_cai2YkR4bnGjV9dVCY",
      "types": [
        "street_address"
      ]
    },
    {
      "address_components": [
        {
          "long_name": "Cleveland",
          "short_name": "Cleveland",
          "types": [
            "locality",
            "political"
          ]
        },
        {
          "long_name": "Constantia",
          "short_name": "Constantia",
          "types": [
            "administrative_area_level_3",
            "political"
          ]
        },
        {
          "long_name": "Oswego County",
          "short_name": "Oswego County",
          "types": [
            "administrative_area_level_2",
            "political"
          ]
        },
        {
          "long_name": "New York",
          "short_name": "NY",
          "types": [
            "administrative_area_level_1",
            "political"
          ]
        },
        {
          "long_name": "United States",
          "short_name": "US",
          "types": [
            "country",
            "political"
          ]
        }
      ],
      "formatted_address": "Cleveland, NY, USA",
      "geometry": {
        "bounds": {
          "northeast": {
            "lat": 43.248647,
            "lng": -75.872979
          },
          "southwest": {
            "lat": 43.2310737,
            "lng": -75.896721
          }
        },
        "location": {
          "lat": 43.2403467,
          "lng": -75.88380269999999
        },
        "location_type": "APPROXIMATE",
        "viewport": {
          "northeast": {
            "lat": 43.248647,
            "lng": -75.872979
          },
          "southwest": {
            "lat": 43.2310737,
            "lng": -75.896721
          }
        }
      },
      "place_id": "ChIJ68wcjZai2YkRlPZjkPPWYXg",
      "types": [
        "locality",
        "political"
      ]
    },
    {
      "address_components": [
        {
          "long_name": "13042",
          "short_name": "13042",
          "types": [
            "postal_code"
          ]
        },
        {
          "long_name": "Cleveland",
          "short_name": "Cleveland",
          "types": [
            "locality",
            "political"
          ]
        },
        {
          "long_name": "New York",
          "short_name": "NY",
          "types": [
            "administrative_area_level_1",
            "political"
          ]
        },
        {
          "long_name": "United States",
          "short_name": "US",
          "types": [
            "country",
            "political"
          ]
        }
      ],
      "formatted_address": "Cleveland, NY 13042, USA",
      "geometry": {
        "bounds": {
          "northeast": {
            "lat": 43.328223,
            "lng": -75.748092
          },
          "southwest": {
            "lat": 43.220435,
            "lng": -75.9247378
          }
        },
        "location": {
          "lat": 43.2797488,
          "lng": -75.841775
        },
        "location_type": "APPROXIMATE",
        "viewport": {
          "northeast": {
            "lat": 43.328223,
            "lng": -75.748092
          },
          "southwest": {
            "lat": 43.220435,
            "lng": -75.9247378
          }
        }
      },
      "place_id": "ChIJB9XMe5aj2YkRdFtGNA2cc7c",
      "types": [
        "postal_code"
      ]
    },
    {
      "address_components": [
        {
          "long_name": "Constantia",
          "short_name": "Constantia",
          "types": [
            "administrative_area_level_3",
            "political"
          ]
        },
        {
          "long_name": "Oswego County",
          "short_name": "Oswego County",
          "types": [
            "administrative_area_level_2",
            "political"
          ]
        },
        {
          "long_name": "New York",
          "short_name": "NY",
          "types": [
            "administrative_area_level_1",
            "political"
          ]
        },
        {
          "long_name": "United States",
          "short_name": "US",
          "types": [
            "country",
            "political"
          ]
        }
      ],
      "formatted_address": "Constantia, NY, USA",
      "geometry": {
        "bounds": {
          "northeast": {
            "lat": 43.355072,
            "lng": -75.862927
          },
          "southwest": {
            "lat": 43.16014390000001,
            "lng": -76.0853329
          }
        },
        "location": {
          "lat": 43.2644105,
          "lng": -75.94632399999999
        },
        "location_type": "APPROXIMATE",
        "viewport": {
          "northeast": {
            "lat": 43.355072,
            "lng": -75.862927
          },
          "southwest": {
            "lat": 43.16014390000001,
            "lng": -76.0853329
          }
        }
      },
      "place_id": "ChIJ0YtPksa92YkR5bNDfuZPyAE",
      "types": [
        "administrative_area_level_3",
        "political"
      ]
    },
    {
      "address_components": [
        {
          "long_name": "Oswego County",
          "short_name": "Oswego County",
          "types": [
            "administrative_area_level_2",
            "political"
          ]
        },
        {
          "long_name": "New York",
          "short_name": "NY",
          "types": [
            "administrative_area_level_1",
            "political"
          ]
        },
        {
          "long_name": "United States",
          "short_name": "US",
          "types": [
            "country",
            "political"
          ]
        }
      ],
      "formatted_address": "Oswego County, NY, USA",
      "geometry": {
        "bounds": {
          "northeast": {
            "lat": 43.7070179,
            "lng": -75.756213
          },
          "southwest": {
            "lat": 43.16014390000001,
            "lng": -76.6169508
          }
        },
        "location": {
          "lat": 43.482533,
          "lng": -76.17837390000001
        },
        "location_type": "APPROXIMATE",
        "viewport": {
          "northeast": {
            "lat": 43.7070179,
            "lng": -75.756213
          },
          "southwest": {
            "lat": 43.16014390000001,
            "lng": -76.6169508
          }
        }
      },
      "place_id": "ChIJORAViijJ2YkRH4R5J2dm7Y0",
      "types": [
        "administrative_area_level_2",
        "political"
      ]
    },
    {
      "address_components": [
        {
          "long_name": "Syracuse",
          "short_name": "Syracuse",
          "types": [
            "political"
          ]
        },
        {
          "long_name": "New York",
          "short_name": "NY",
          "types": [
            "administrative_area_level_1",
            "political"
          ]
        },
        {
          "long_name": "United States",
          "short_name": "US",
          "types": [
            "country",
            "political"
          ]
        }
      ],
      "formatted_address": "Syracuse, NY, USA",
      "geometry": {
        "bounds": {
          "northeast": {
            "lat": 43.7070179,
            "lng": -75.239972
          },
          "southwest": {
            "lat": 42.723844,
            "lng": -76.6170478
          }
        },
        "location": {
          "lat": 43.114397,
          "lng": -76.2710833
        },
        "location_type": "APPROXIMATE",
        "viewport": {
          "northeast": {
            "lat": 43.7070179,
            "lng": -75.239972
          },
          "southwest": {
            "lat": 42.723844,
            "lng": -76.6170478
          }
        }
      },
      "place_id": "ChIJG1ByhoST2YkRpx440X2eFGo",
      "types": [
        "political"
      ]
    },
    {
      "address_components": [
        {
          "long_name": "New York",
          "short_name": "NY",
          "types": [
            "administrative_area_level_1",
            "political"
          ]
        },
        {
          "long_name": "United States",
          "short_name": "US",
          "types": [
            "country",
            "political"
          ]
        }
      ],
      "formatted_address": "New York, USA",
      "geometry": {
        "bounds": {
          "northeast": {
            "lat": 45.015865,
            "lng": -71.85620639999999
          },
          "southwest": {
            "lat": 40.496091,
            "lng": -79.76214379999999
          }
        },
        "location": {
          "lat": 43.2994285,
          "lng": -74.21793260000001
        },
        "location_type": "APPROXIMATE",
        "viewport": {
          "northeast": {
            "lat": 45.015859,
            "lng": -71.85620639999999
          },
          "southwest": {
            "lat": 40.496091,
            "lng": -79.76214379999999
          }
        }
      },
      "place_id": "ChIJqaUj8fBLzEwRZ5UY3sHGz90",
      "types": [
        "administrative_area_level_1",
        "political"
      ]
    },
    {
      "address_components": [
        {
          "long_name": "United States",
          "short_name": "US",
          "types": [
            "country",
            "political"
          ]
        }
      ],
      "formatted_address": "United States",
      "geometry": {
        "bounds": {
          "northeast": {
            "lat": 71.3867745,
            "lng": -66.9502861
          },
          "southwest": {
            "lat": 18.9106768,
            "lng": 172.4458955
          }
        },
        "location": {
          "lat": 37.09024,
          "lng": -95.712891
        },
        "location_type": "APPROXIMATE",
        "viewport": {
          "northeast": {
            "lat": 49.38,
            "lng": -66.94
          },
          "southwest": {
            "lat": 25.82,
            "lng": -124.39
          }
        }
      },
      "place_id": "ChIJCzYy5IS16lQRQrfeQ5K5Oxw",
      "types": [
        "country",
        "political"
      ]
    }
  ],
  "status": "OK"
}
