{
  "results": [
    {
      "address_components": [
        {
          "long_name": "15609",
          "short_name": "15609",
          "types": [
            "street_number"
          ]
        },
        {
          "long_name": "Nutmeg Road",
          "short_name": "Nutmeg Rd",
          "types": [
            "route"
          ]
        },
        {
          "long_name": "Carthage",
          "short_name": "Carthage",
          "types": [
            "locality",
            "political"
          ]
        },
        {
          "long_name": "Preston Township",
          "short_name": "Preston Township",
          "types": [
            "administrative_area_level_3",
            "political"
          ]
        },
        {
          "long_name": "Jasper County",
          "short_name": "Jasper County",
          "types": [
            "administrative_area_level_2",
            "political"
          ]
        },
        {
          "long_name": "Missouri",
          "short_name": "MO",
          "types": [
            "administrative_area_level_1",
            "political"
          ]
        },
        {
          "long_name": "United States",
          "short_name": "US",
          "types": [
            "country",
            "political"
          ]
        },
        {
          "long_name": "64836",
          "short_name": "64836",
          "types": [
            "postal_code"
          ]
        },
        {
          "long_name": "9388",
          "short_name": "9388",
          "types": [
            "postal_code_suffix"
          ]
        }
      ],
      "formatted_address": "15609 Nutmeg Rd, Carthage, MO 64836, USA",
      "geometry": {
        "location": {
          "lat": 37.258304,
          "lng": -94.33596999999999
        },
        "location_type": "ROOFTOP",
        "viewport": {
          "northeast": {
            "lat": 37.2596529802915,
            "lng": -94.33462101970848
          },
          "southwest": {
            "lat": 37.2569550197085,
            "lng": -94.3373189802915
          }
        }
      },
      "place_id": "ChIJ7-kqgEoqxocRtvXne3hkHeI",
      "types": [
        "street_address"
      ]
    },
    {
      "address_components": [
        {
          "long_name": "Carytown",
          "short_name": "Carytown",
          "types": [
            "locality",
            "political"
          ]
        },
        {
          "long_name": "Jasper County",
          "short_name": "Jasper County",
          "types": [
            "administrative_area_level_2",
            "political"
          ]
        },
        {
          "long_name": "Missouri",
          "short_name": "MO",
          "types": [
            "administrative_area_level_1",
            "political"
          ]
        },
        {
          "long_name": "United States",
          "short_name": "US",
          "types": [
            "country",
            "political"
          ]
        },
        {
          "long_name": "64836",
          "short_name": "64836",
          "types": [
            "postal_code"
          ]
        }
      ],
      "formatted_address": "Carytown, MO 64836, USA",
      "geometry": {
        "bounds": {
          "northeast": {
            "lat": 37.297419,
            "lng": -94.303719
          },
          "southwest": {
            "lat": 37.2273858,
            "lng": -94.36388
          }
        },
        "location": {
          "lat": 37.2661665,
          "lng": -94.3093911
        },
        "location_type": "APPROXIMATE",
        "viewport": {
          "northeast": {
            "lat": 37.297419,
            "lng": -94.303719
          },
          "southwest": {
            "lat": 37.2273858,
            "lng": -94.36388
          }
        }
      },
      "place_id": "ChIJx7QEV3ApxocRHurNrGWB83c",
      "types": [
        "locality",
        "political"
      ]
    },
    {
      "address_components": [
        {
          "long_name": "Preston Township",
          "short_name": "Preston Township",
          "types": [
            "administrative_area_level_3",
            "political"
          ]
        },
        {
          "long_name": "Jasper County",
          "short_name": "Jasper County",
          "types": [
            "administrative_area_level_2",
            "political"
          ]
        },
        {
          "long_name": "Missouri",
          "short_name": "MO",
          "types": [
            "administrative_area_level_1",
            "political"
          ]
        },
        {
          "long_name": "United States",
          "short_name": "US",
          "types": [
            "country",
            "political"
          ]
        }
      ],
      "formatted_address": "Preston Township, MO, USA",
      "geometry": {
        "bounds": {
          "northeast": {
            "lat": 37.35642989999999,
            "lng": -94.2830879
          },
          "southwest": {
            "lat": 37.2561028,
            "lng": -94.39907
          }
        },
        "location": {
          "lat": 37.324875,
          "lng": -94.33596349999999
        },
        "location_type": "APPROXIMATE",
        "viewport": {
          "northeast": {
            "lat": 37.35642989999999,
            "lng": -94.2830879
          },
          "southwest": {
            "lat": 37.2561028,
            "lng": -94.39907
          }
        }
      },
      "place_id": "ChIJJVRxKnQsxocRCZAHREHf63w",
      "types": [
        "administrative_area_level_3",
        "political"
      ]
    },
    {
      "address_components": [
        {
          "long_name": "64836",
          "short_name": "64836",
          "types": [
            "postal_code"
          ]
        },
        {
          "long_name": "Carthage",
          "short_name": "Carthage",
          "types": [
            "locality",
            "political"
          ]
        },
        {
          "long_name": "Missouri",
          "short_name": "MO",
          "types": [
            "administrative_area_level_1",
            "political"
          ]
        },
        {
          "long_name": "United States",
          "short_name": "US",
          "types": [
            "country",
            "political"
          ]
        }
      ],
      "formatted_address": "Carthage, MO 64836, USA",
      "geometry": {
        "bounds": {
          "northeast": {
            "lat": 37.3121499,
            "lng": -94.14286179999999
          },
          "southwest": {
            "lat": 37.0524739,
            "lng": -94.42903199999999
          }
        },
        "location": {
          "lat": 37.19818679999999,
          "lng": -94.29488839999999
        },
        "location_type": "APPROXIMATE",
        "viewport": {
          "northeast": {
            "lat": 37.3121499,
            "lng": -94.14286179999999
          },
          "southwest": {
            "lat": 37.0524739,
            "lng": -94.42903199999999
          }
        }
      },
      "place_id": "ChIJpSrZFTGCyIcRYJaz7oFtUoM",
      "types": [
        "postal_code"
      ]
    },
    {
      "address_components": [
        {
          "long_name": "Jasper County",
          "short_name": "Jasper County",
          "types": [
            "administrative_area_level_2",
            "political"
          ]
        },
        {
          "long_name": "Missouri",
          "short_name": "MO",
          "types": [
            "administrative_area_level_1",
            "political"
          ]
        },
        {
          "long_name": "United States",
          "short_name": "US",
          "types": [
            "country",
            "political"
          ]
        }
      ],
      "formatted_address": "Jasper County, MO, USA",
      "geometry": {
        "bounds": {
          "northeast": {
            "lat": 37.364173,
            "lng": -94.05231309999999
          },
          "southwest": {
            "lat": 37.048127,
            "lng": -94.6184579
          }
        },
        "location": {
          "lat": 37.17455650000001,
          "lng": -94.35651299999999
        },
        "location_type": "APPROXIMATE",
        "viewport": {
          "northeast": {
            "lat": 37.364173,
            "lng": -94.05231309999999
          },
          "southwest": {
            "lat": 37.048127,
            "lng": -94.6184579
          }
        }
      },
      "place_id": "ChIJQbU6TfIoxocRTrzoDWs-CLc",
      "types": [
        "administrative_area_level_2",
        "political"
      ]
    },
    {
      "address_components": [
        {
          "long_name": "Joplin",
          "short_name": "Joplin",
          "types": [
            "political"
          ]
        },
        {
          "long_name": "United States",
          "short_name": "US",
          "types": [
            "country",
            "political"
          ]
        }
      ],
      "formatted_address": "Joplin, USA",
      "geometry": {
        "bounds": {
          "northeast": {
            "lat": 37.364355,
            "lng": -94.05237199999999
          },
          "southwest": {
            "lat": 36.747867,
            "lng": -94.61865809999999
          }
        },
        "location": {
          "lat": 37.0505583,
          "lng": -94.2333355
        },
        "location_type": "APPROXIMATE",
        "viewport": {
          "northeast": {
            "lat": 37.364355,
            "lng": -94.05237199999999
          },
          "southwest": {
            "lat": 36.747867,
            "lng": -94.61865809999999
          }
        }
      },
      "place_id": "ChIJRa5ZQCOGyIcR3FvsNK6zNFI",
      "types": [
        "political"
      ]
    },
    {
      "address_components": [
        {
          "long_name": "Missouri",
          "short_name": "MO",
          "types": [
            "administrative_area_level_1",
            "political"
          ]
        },
        {
          "long_name": "United States",
          "short_name": "US",
          "types": [
            "country",
            "political"
          ]
        }
      ],
      "formatted_address": "Missouri, USA",
      "geometry": {
        "bounds": {
          "northeast": {
            "lat": 40.61364,
            "lng": -89.09949399999999
          },
          "southwest": {
            "lat": 35.9956829,
            "lng": -95.774704
          }
        },
        "location": {
          "lat": 37.9642529,
          "lng": -91.8318334
        },
        "location_type": "APPROXIMATE",
        "viewport": {
          "northeast": {
            "lat": 40.61364,
            "lng": -89.09949399999999
          },
          "southwest": {
            "lat": 35.9956829,
            "lng": -95.774704
          }
        }
      },
      "place_id": "ChIJfeMiSNXmwIcRcr1mBFnEW7U",
      "types": [
        "administrative_area_level_1",
        "political"
      ]
    },
    {
      "address_components": [
        {
          "long_name": "United States",
          "short_name": "US",
          "types": [
            "country",
            "political"
          ]
        }
      ],
      "formatted_address": "United States",
      "geometry": {
        "bounds": {
          "northeast": {
            "lat": 71.3867745,
            "lng": -66.9502861
          },
          "southwest": {
            "lat": 18.9106768,
            "lng": 172.4458955
          }
        },
        "location": {
          "lat": 37.09024,
          "lng": -95.712891
        },
        "location_type": "APPROXIMATE",
        "viewport": {
          "northeast": {
            "lat": 49.38,
            "lng": -66.94
          },
          "southwest": {
            "lat": 25.82,
            "lng": -124.39
          }
        }
      },
      "place_id": "ChIJCzYy5IS16lQRQrfeQ5K5Oxw",
      "types": [
        "country",
        "political"
      ]
    }
  ],
  "status": "OK"
}
