{
  "results": [
    {
      "address_components": [
        {
          "long_name": "6872",
          "short_name": "6872",
          "types": [
            "street_number"
          ]
        },
        {
          "long_name": "West Versailles Street",
          "short_name": "W Versailles St",
          "types": [
            "route"
          ]
        },
        {
          "long_name": "Holton",
          "short_name": "Holton",
          "types": [
            "locality",
            "political"
          ]
        },
        {
          "long_name": "Otter Creek Township",
          "short_name": "Otter Creek Township",
          "types": [
            "administrative_area_level_3",
            "political"
          ]
        },
        {
          "long_name": "Ripley County",
          "short_name": "Ripley County",
          "types": [
            "administrative_area_level_2",
            "political"
          ]
        },
        {
          "long_name": "Indiana",
          "short_name": "IN",
          "types": [
            "administrative_area_level_1",
            "political"
          ]
        },
        {
          "long_name": "United States",
          "short_name": "US",
          "types": [
            "country",
            "political"
          ]
        },
        {
          "long_name": "47023",
          "short_name": "47023",
          "types": [
            "postal_code"
          ]
        }
      ],
      "formatted_address": "6872 W Versailles St, Holton, IN 47023, USA",
      "geometry": {
        "location": {
          "lat": 39.075192,
          "lng": -85.3846612
        },
        "location_type": "ROOFTOP",
        "viewport": {
          "northeast": {
            "lat": 39.0765409802915,
            "lng": -85.38331221970849
          },
          "southwest": {
            "lat": 39.07384301970851,
            "lng": -85.3860101802915
          }
        }
      },
      "place_id": "ChIJkX_YwTpbaogRVwhzlG68ZR0",
      "types": [
        "street_address"
      ]
    },
    {
      "address_components": [
        {
          "long_name": "Holton",
          "short_name": "Holton",
          "types": [
            "locality",
            "political"
          ]
        },
        {
          "long_name": "Otter Creek Township",
          "short_name": "Otter Creek Township",
          "types": [
            "administrative_area_level_3",
            "political"
          ]
        },
        {
          "long_name": "Ripley County",
          "short_name": "Ripley County",
          "types": [
            "administrative_area_level_2",
            "political"
          ]
        },
        {
          "long_name": "Indiana",
          "short_name": "IN",
          "types": [
            "administrative_area_level_1",
            "political"
          ]
        },
        {
          "long_name": "United States",
          "short_name": "US",
          "types": [
            "country",
            "political"
          ]
        },
        {
          "long_name": "47023",
          "short_name": "47023",
          "types": [
            "postal_code"
          ]
        }
      ],
      "formatted_address": "Holton, IN 47023, USA",
      "geometry": {
        "bounds": {
          "northeast": {
            "lat": 39.08383389999999,
            "lng": -85.367753
          },
          "southwest": {
            "lat": 39.067682,
            "lng": -85.40105790000001
          }
        },
        "location": {
          "lat": 39.0750538,
          "lng": -85.387185
        },
        "location_type": "APPROXIMATE",
        "viewport": {
          "northeast": {
            "lat": 39.08383389999999,
            "lng": -85.367753
          },
          "southwest": {
            "lat": 39.067682,
            "lng": -85.40105790000001
          }
        }
      },
      "place_id": "ChIJD0yi5jpbaogRg9MzLxAL9eY",
      "types": [
        "locality",
        "political"
      ]
    },
    {
      "address_components": [
        {
          "long_name": "Otter Creek Township",
          "short_name": "Otter Creek Township",
          "types": [
            "administrative_area_level_3",
            "political"
          ]
        },
        {
          "long_name": "Ripley County",
          "short_name": "Ripley County",
          "types": [
            "administrative_area_level_2",
            "political"
          ]
        },
        {
          "long_name": "Indiana",
          "short_name": "IN",
          "types": [
            "administrative_area_level_1",
            "political"
          ]
        },
        {
          "long_name": "United States",
          "short_name": "US",
          "types": [
            "country",
            "political"
          ]
        }
      ],
      "formatted_address": "Otter Creek Township, IN, USA",
      "geometry": {
        "bounds": {
          "northeast": {
            "lat": 39.162872,
            "lng": -85.3153671
          },
          "southwest": {
            "lat": 39.044483,
            "lng": -85.443708
          }
        },
        "location": {
          "lat": 39.0837177,
          "lng": -85.37562489999999
        },
        "location_type": "APPROXIMATE",
        "viewport": {
          "northeast": {
            "lat": 39.162872,
            "lng": -85.3153671
          },
          "southwest": {
            "lat": 39.044483,
            "lng": -85.443708
          }
        }
      },
      "place_id": "ChIJS9KpFApbaogRbtbuHHNktvA",
      "types": [
        "administrative_area_level_3",
        "political"
      ]
    },
    {
      "address_components": [
        {
          "long_name": "47023",
          "short_name": "47023",
          "types": [
            "postal_code"
          ]
        },
        {
          "long_name": "Holton",
          "short_name": "Holton",
          "types": [
            "locality",
            "political"
          ]
        },
        {
          "long_name": "Indiana",
          "short_name": "IN",
          "types": [
            "administrative_area_level_1",
            "political"
          ]
        },
        {
          "long_name": "United States",
          "short_name": "US",
          "types": [
            "country",
            "political"
          ]
        }
      ],
      "formatted_address": "Holton, IN 47023, USA",
      "geometry": {
        "bounds": {
          "northeast": {
            "lat": 39.1660361,
            "lng": -85.308764
          },
          "southwest": {
            "lat": 38.957179,
            "lng": -85.4438399
          }
        },
        "location": {
          "lat": 39.0837177,
          "lng": -85.37562489999999
        },
        "location_type": "APPROXIMATE",
        "viewport": {
          "northeast": {
            "lat": 39.1660361,
            "lng": -85.308764
          },
          "southwest": {
            "lat": 38.957179,
            "lng": -85.4438399
          }
        }
      },
      "place_id": "ChIJ1yTlnNBEaogRnyjk8vYKp1E",
      "types": [
        "postal_code"
      ]
    },
    {
      "address_components": [
        {
          "long_name": "Ripley County",
          "short_name": "Ripley County",
          "types": [
            "administrative_area_level_2",
            "political"
          ]
        },
        {
          "long_name": "Indiana",
          "short_name": "IN",
          "types": [
            "administrative_area_level_1",
            "political"
          ]
        },
        {
          "long_name": "United States",
          "short_name": "US",
          "types": [
            "country",
            "political"
          ]
        }
      ],
      "formatted_address": "Ripley County, IN, USA",
      "geometry": {
        "bounds": {
          "northeast": {
            "lat": 39.310469,
            "lng": -85.0651001
          },
          "southwest": {
            "lat": 38.9129919,
            "lng": -85.444897
          }
        },
        "location": {
          "lat": 39.0986811,
          "lng": -85.2308414
        },
        "location_type": "APPROXIMATE",
        "viewport": {
          "northeast": {
            "lat": 39.310469,
            "lng": -85.0651001
          },
          "southwest": {
            "lat": 38.9129919,
            "lng": -85.444897
          }
        }
      },
      "place_id": "ChIJucoWu6JeaogRZhKgwiyGrjw",
      "types": [
        "administrative_area_level_2",
        "political"
      ]
    },
    {
      "address_components": [
        {
          "long_name": "Indiana",
          "short_name": "IN",
          "types": [
            "administrative_area_level_1",
            "political"
          ]
        },
        {
          "long_name": "United States",
          "short_name": "US",
          "types": [
            "country",
            "political"
          ]
        }
      ],
      "formatted_address": "Indiana, USA",
      "geometry": {
        "bounds": {
          "northeast": {
            "lat": 41.7606971,
            "lng": -84.784662
          },
          "southwest": {
            "lat": 37.7717419,
            "lng": -88.097892
          }
        },
        "location": {
          "lat": 40.2671941,
          "lng": -86.1349019
        },
        "location_type": "APPROXIMATE",
        "viewport": {
          "northeast": {
            "lat": 41.7606971,
            "lng": -84.784662
          },
          "southwest": {
            "lat": 37.7717419,
            "lng": -88.097892
          }
        }
      },
      "place_id": "ChIJHRv42bxQa4gRcuwyy84vEH4",
      "types": [
        "administrative_area_level_1",
        "political"
      ]
    },
    {
      "address_components": [
        {
          "long_name": "United States",
          "short_name": "US",
          "types": [
            "country",
            "political"
          ]
        }
      ],
      "formatted_address": "United States",
      "geometry": {
        "bounds": {
          "northeast": {
            "lat": 71.3867745,
            "lng": -66.9502861
          },
          "southwest": {
            "lat": 18.9106768,
            "lng": 172.4458955
          }
        },
        "location": {
          "lat": 37.09024,
          "lng": -95.712891
        },
        "location_type": "APPROXIMATE",
        "viewport": {
          "northeast": {
            "lat": 49.38,
            "lng": -66.94
          },
          "southwest": {
            "lat": 25.82,
            "lng": -124.39
          }
        }
      },
      "place_id": "ChIJCzYy5IS16lQRQrfeQ5K5Oxw",
      "types": [
        "country",
        "political"
      ]
    }
  ],
  "status": "OK"
}
