{
  "results": [
    {
      "address_components": [
        {
          "long_name": "332-384",
          "short_name": "332-384",
          "types": [
            "street_number"
          ]
        },
        {
          "long_name": "Monroe Street",
          "short_name": "Monroe St",
          "types": [
            "route"
          ]
        },
        {
          "long_name": "New Washington",
          "short_name": "New Washington",
          "types": [
            "locality",
            "political"
          ]
        },
        {
          "long_name": "Cranberry Township",
          "short_name": "Cranberry Township",
          "types": [
            "administrative_area_level_3",
            "political"
          ]
        },
        {
          "long_name": "Crawford County",
          "short_name": "Crawford County",
          "types": [
            "administrative_area_level_2",
            "political"
          ]
        },
        {
          "long_name": "Ohio",
          "short_name": "OH",
          "types": [
            "administrative_area_level_1",
            "political"
          ]
        },
        {
          "long_name": "United States",
          "short_name": "US",
          "types": [
            "country",
            "political"
          ]
        },
        {
          "long_name": "44854",
          "short_name": "44854",
          "types": [
            "postal_code"
          ]
        }
      ],
      "formatted_address": "332-384 Monroe St, New Washington, OH 44854, USA",
      "geometry": {
        "bounds": {
          "northeast": {
            "lat": 40.9606232,
            "lng": -82.8548414
          },
          "southwest": {
            "lat": 40.95986569999999,
            "lng": -82.8548495
          }
        },
        "location": {
          "lat": 40.9605026,
          "lng": -82.8548239
        },
        "location_type": "RANGE_INTERPOLATED",
        "viewport": {
          "northeast": {
            "lat": 40.96159343029149,
            "lng": -82.85349646970849
          },
          "southwest": {
            "lat": 40.9588954697085,
            "lng": -82.85619443029151
          }
        }
      },
      "place_id": "EjAzMzItMzg0IE1vbnJvZSBTdCwgTmV3IFdhc2hpbmd0b24sIE9IIDQ0ODU0LCBVU0E",
      "types": [
        "street_address"
      ]
    },
    {
      "address_components": [
        {
          "long_name": "New Washington",
          "short_name": "New Washington",
          "types": [
            "locality",
            "political"
          ]
        },
        {
          "long_name": "Cranberry Township",
          "short_name": "Cranberry Township",
          "types": [
            "administrative_area_level_3",
            "political"
          ]
        },
        {
          "long_name": "Crawford County",
          "short_name": "Crawford County",
          "types": [
            "administrative_area_level_2",
            "political"
          ]
        },
        {
          "long_name": "Ohio",
          "short_name": "OH",
          "types": [
            "administrative_area_level_1",
            "political"
          ]
        },
        {
          "long_name": "United States",
          "short_name": "US",
          "types": [
            "country",
            "political"
          ]
        },
        {
          "long_name": "44854",
          "short_name": "44854",
          "types": [
            "postal_code"
          ]
        }
      ],
      "formatted_address": "New Washington, OH 44854, USA",
      "geometry": {
        "bounds": {
          "northeast": {
            "lat": 40.968625,
            "lng": -82.841916
          },
          "southwest": {
            "lat": 40.952705,
            "lng": -82.8680179
          }
        },
        "location": {
          "lat": 40.9622784,
          "lng": -82.85435009999999
        },
        "location_type": "APPROXIMATE",
        "viewport": {
          "northeast": {
            "lat": 40.968625,
            "lng": -82.841916
          },
          "southwest": {
            "lat": 40.952705,
            "lng": -82.8680179
          }
        }
      },
      "place_id": "ChIJOYeBQ8iDOYgRb1wcdiyYH7M",
      "types": [
        "locality",
        "political"
      ]
    },
    {
      "address_components": [
        {
          "long_name": "Cranberry Township",
          "short_name": "Cranberry Township",
          "types": [
            "administrative_area_level_3",
            "political"
          ]
        },
        {
          "long_name": "Crawford County",
          "short_name": "Crawford County",
          "types": [
            "administrative_area_level_2",
            "political"
          ]
        },
        {
          "long_name": "Ohio",
          "short_name": "OH",
          "types": [
            "administrative_area_level_1",
            "political"
          ]
        },
        {
          "long_name": "United States",
          "short_name": "US",
          "types": [
            "country",
            "political"
          ]
        }
      ],
      "formatted_address": "Cranberry Township, OH, USA",
      "geometry": {
        "bounds": {
          "northeast": {
            "lat": 40.996943,
            "lng": -82.7964228
          },
          "southwest": {
            "lat": 40.901981,
            "lng": -82.882677
          }
        },
        "location": {
          "lat": 40.9583695,
          "lng": -82.8425216
        },
        "location_type": "APPROXIMATE",
        "viewport": {
          "northeast": {
            "lat": 40.996943,
            "lng": -82.7964228
          },
          "southwest": {
            "lat": 40.901981,
            "lng": -82.882677
          }
        }
      },
      "place_id": "ChIJC0GSC5eDOYgRrYKzhDMdF2A",
      "types": [
        "administrative_area_level_3",
        "political"
      ]
    },
    {
      "address_components": [
        {
          "long_name": "44854",
          "short_name": "44854",
          "types": [
            "postal_code"
          ]
        },
        {
          "long_name": "New Washington",
          "short_name": "New Washington",
          "types": [
            "locality",
            "political"
          ]
        },
        {
          "long_name": "Ohio",
          "short_name": "OH",
          "types": [
            "administrative_area_level_1",
            "political"
          ]
        },
        {
          "long_name": "United States",
          "short_name": "US",
          "types": [
            "country",
            "political"
          ]
        }
      ],
      "formatted_address": "New Washington, OH 44854, USA",
      "geometry": {
        "bounds": {
          "northeast": {
            "lat": 41.008202,
            "lng": -82.772043
          },
          "southwest": {
            "lat": 40.8872841,
            "lng": -82.920998
          }
        },
        "location": {
          "lat": 40.9583695,
          "lng": -82.8425216
        },
        "location_type": "APPROXIMATE",
        "viewport": {
          "northeast": {
            "lat": 41.008202,
            "lng": -82.772043
          },
          "southwest": {
            "lat": 40.8872841,
            "lng": -82.920998
          }
        }
      },
      "place_id": "ChIJKfkgSa6DOYgRe-tKhRe9JoM",
      "types": [
        "postal_code"
      ]
    },
    {
      "address_components": [
        {
          "long_name": "Bucyrus",
          "short_name": "Bucyrus",
          "types": [
            "political"
          ]
        },
        {
          "long_name": "Ohio",
          "short_name": "OH",
          "types": [
            "administrative_area_level_1",
            "political"
          ]
        },
        {
          "long_name": "United States",
          "short_name": "US",
          "types": [
            "country",
            "political"
          ]
        }
      ],
      "formatted_address": "Bucyrus, OH, USA",
      "geometry": {
        "bounds": {
          "northeast": {
            "lat": 40.997176,
            "lng": -82.724243
          },
          "southwest": {
            "lat": 40.7028739,
            "lng": -83.11266789999999
          }
        },
        "location": {
          "lat": 40.8268068,
          "lng": -82.99316069999999
        },
        "location_type": "APPROXIMATE",
        "viewport": {
          "northeast": {
            "lat": 40.997176,
            "lng": -82.724243
          },
          "southwest": {
            "lat": 40.7028739,
            "lng": -83.11266789999999
          }
        }
      },
      "place_id": "ChIJYSJO7jp2OYgRDCM0T1HSPrc",
      "types": [
        "political"
      ]
    },
    {
      "address_components": [
        {
          "long_name": "Crawford County",
          "short_name": "Crawford County",
          "types": [
            "administrative_area_level_2",
            "political"
          ]
        },
        {
          "long_name": "Ohio",
          "short_name": "OH",
          "types": [
            "administrative_area_level_1",
            "political"
          ]
        },
        {
          "long_name": "United States",
          "short_name": "US",
          "types": [
            "country",
            "political"
          ]
        }
      ],
      "formatted_address": "Crawford County, OH, USA",
      "geometry": {
        "bounds": {
          "northeast": {
            "lat": 40.996943,
            "lng": -82.7241839
          },
          "southwest": {
            "lat": 40.7025499,
            "lng": -83.1127449
          }
        },
        "location": {
          "lat": 40.8268068,
          "lng": -82.99316069999999
        },
        "location_type": "APPROXIMATE",
        "viewport": {
          "northeast": {
            "lat": 40.996943,
            "lng": -82.7241839
          },
          "southwest": {
            "lat": 40.7025499,
            "lng": -83.1127449
          }
        }
      },
      "place_id": "ChIJn6s3eqydOYgR-xZdtX4vIRo",
      "types": [
        "administrative_area_level_2",
        "political"
      ]
    },
    {
      "address_components": [
        {
          "long_name": "Ohio",
          "short_name": "OH",
          "types": [
            "administrative_area_level_1",
            "political"
          ]
        },
        {
          "long_name": "United States",
          "short_name": "US",
          "types": [
            "country",
            "political"
          ]
        }
      ],
      "formatted_address": "Ohio, USA",
      "geometry": {
        "bounds": {
          "northeast": {
            "lat": 41.9773019,
            "lng": -80.5182
          },
          "southwest": {
            "lat": 38.4034229,
            "lng": -84.8203049
          }
        },
        "location": {
          "lat": 40.4172871,
          "lng": -82.90712300000001
        },
        "location_type": "APPROXIMATE",
        "viewport": {
          "northeast": {
            "lat": 41.9773019,
            "lng": -80.5182
          },
          "southwest": {
            "lat": 38.4034229,
            "lng": -84.8203049
          }
        }
      },
      "place_id": "ChIJwY5NtXrpNogRFtmfnDlkzeU",
      "types": [
        "administrative_area_level_1",
        "political"
      ]
    },
    {
      "address_components": [
        {
          "long_name": "United States",
          "short_name": "US",
          "types": [
            "country",
            "political"
          ]
        }
      ],
      "formatted_address": "United States",
      "geometry": {
        "bounds": {
          "northeast": {
            "lat": 71.3867745,
            "lng": -66.9502861
          },
          "southwest": {
            "lat": 18.9106768,
            "lng": 172.4458955
          }
        },
        "location": {
          "lat": 37.09024,
          "lng": -95.712891
        },
        "location_type": "APPROXIMATE",
        "viewport": {
          "northeast": {
            "lat": 49.38,
            "lng": -66.94
          },
          "southwest": {
            "lat": 25.82,
            "lng": -124.39
          }
        }
      },
      "place_id": "ChIJCzYy5IS16lQRQrfeQ5K5Oxw",
      "types": [
        "country",
        "political"
      ]
    }
  ],
  "status": "OK"
}
