{
  "results": [
    {
      "address_components": [
        {
          "long_name": "14-60",
          "short_name": "14-60",
          "types": [
            "street_number"
          ]
        },
        {
          "long_name": "Railroad Avenue",
          "short_name": "Railroad Ave",
          "types": [
            "route"
          ]
        },
        {
          "long_name": "Ravena",
          "short_name": "Ravena",
          "types": [
            "locality",
            "political"
          ]
        },
        {
          "long_name": "Coeymans",
          "short_name": "Coeymans",
          "types": [
            "administrative_area_level_3",
            "political"
          ]
        },
        {
          "long_name": "Albany County",
          "short_name": "Albany County",
          "types": [
            "administrative_area_level_2",
            "political"
          ]
        },
        {
          "long_name": "New York",
          "short_name": "NY",
          "types": [
            "administrative_area_level_1",
            "political"
          ]
        },
        {
          "long_name": "United States",
          "short_name": "US",
          "types": [
            "country",
            "political"
          ]
        },
        {
          "long_name": "12143",
          "short_name": "12143",
          "types": [
            "postal_code"
          ]
        }
      ],
      "formatted_address": "14-60 Railroad Ave, Ravena, NY 12143, USA",
      "geometry": {
        "bounds": {
          "northeast": {
            "lat": 42.4754875,
            "lng": -73.8096779
          },
          "southwest": {
            "lat": 42.4727836,
            "lng": -73.8117159
          }
        },
        "location": {
          "lat": 42.4754887,
          "lng": -73.811292
        },
        "location_type": "RANGE_INTERPOLATED",
        "viewport": {
          "northeast": {
            "lat": 42.4754875,
            "lng": -73.8093479197085
          },
          "southwest": {
            "lat": 42.4727836,
            "lng": -73.8120458802915
          }
        }
      },
      "place_id": "EikxNC02MCBSYWlscm9hZCBBdmUsIFJhdmVuYSwgTlkgMTIxNDMsIFVTQQ",
      "types": [
        "street_address"
      ]
    },
    {
      "address_components": [
        {
          "long_name": "Ravena",
          "short_name": "Ravena",
          "types": [
            "locality",
            "political"
          ]
        },
        {
          "long_name": "Coeymans",
          "short_name": "Coeymans",
          "types": [
            "administrative_area_level_3",
            "political"
          ]
        },
        {
          "long_name": "Albany County",
          "short_name": "Albany County",
          "types": [
            "administrative_area_level_2",
            "political"
          ]
        },
        {
          "long_name": "New York",
          "short_name": "NY",
          "types": [
            "administrative_area_level_1",
            "political"
          ]
        },
        {
          "long_name": "United States",
          "short_name": "US",
          "types": [
            "country",
            "political"
          ]
        }
      ],
      "formatted_address": "Ravena, NY, USA",
      "geometry": {
        "bounds": {
          "northeast": {
            "lat": 42.5024761,
            "lng": -73.7995601
          },
          "southwest": {
            "lat": 42.461907,
            "lng": -73.8271759
          }
        },
        "location": {
          "lat": 42.4684148,
          "lng": -73.8162354
        },
        "location_type": "APPROXIMATE",
        "viewport": {
          "northeast": {
            "lat": 42.5024761,
            "lng": -73.7995601
          },
          "southwest": {
            "lat": 42.461907,
            "lng": -73.8271759
          }
        }
      },
      "place_id": "ChIJNbhh9XHo3YkR4L8Z4NQ_lyU",
      "types": [
        "locality",
        "political"
      ]
    },
    {
      "address_components": [
        {
          "long_name": "12143",
          "short_name": "12143",
          "types": [
            "postal_code"
          ]
        },
        {
          "long_name": "Ravena",
          "short_name": "Ravena",
          "types": [
            "locality",
            "political"
          ]
        },
        {
          "long_name": "New York",
          "short_name": "NY",
          "types": [
            "administrative_area_level_1",
            "political"
          ]
        },
        {
          "long_name": "United States",
          "short_name": "US",
          "types": [
            "country",
            "political"
          ]
        }
      ],
      "formatted_address": "Ravena, NY 12143, USA",
      "geometry": {
        "bounds": {
          "northeast": {
            "lat": 42.535063,
            "lng": -73.7787659
          },
          "southwest": {
            "lat": 42.443932,
            "lng": -73.9044359
          }
        },
        "location": {
          "lat": 42.4968966,
          "lng": -73.8536683
        },
        "location_type": "APPROXIMATE",
        "viewport": {
          "northeast": {
            "lat": 42.535063,
            "lng": -73.7787659
          },
          "southwest": {
            "lat": 42.443932,
            "lng": -73.9044359
          }
        }
      },
      "place_id": "ChIJi_ISJE3d3YkRtUSefZD4Gao",
      "types": [
        "postal_code"
      ]
    },
    {
      "address_components": [
        {
          "long_name": "Coeymans",
          "short_name": "Coeymans",
          "types": [
            "administrative_area_level_3",
            "political"
          ]
        },
        {
          "long_name": "Albany County",
          "short_name": "Albany County",
          "types": [
            "administrative_area_level_2",
            "political"
          ]
        },
        {
          "long_name": "New York",
          "short_name": "NY",
          "types": [
            "administrative_area_level_1",
            "political"
          ]
        },
        {
          "long_name": "United States",
          "short_name": "US",
          "types": [
            "country",
            "political"
          ]
        }
      ],
      "formatted_address": "Coeymans, NY, USA",
      "geometry": {
        "bounds": {
          "northeast": {
            "lat": 42.5427199,
            "lng": -73.7665057
          },
          "southwest": {
            "lat": 42.4416219,
            "lng": -73.975523
          }
        },
        "location": {
          "lat": 42.5081605,
          "lng": -73.86542949999999
        },
        "location_type": "APPROXIMATE",
        "viewport": {
          "northeast": {
            "lat": 42.5427199,
            "lng": -73.7665057
          },
          "southwest": {
            "lat": 42.4416219,
            "lng": -73.975523
          }
        }
      },
      "place_id": "ChIJRSTVlDbd3YkRpQtcLkMarXA",
      "types": [
        "administrative_area_level_3",
        "political"
      ]
    },
    {
      "address_components": [
        {
          "long_name": "Albany County",
          "short_name": "Albany County",
          "types": [
            "administrative_area_level_2",
            "political"
          ]
        },
        {
          "long_name": "New York",
          "short_name": "NY",
          "types": [
            "administrative_area_level_1",
            "political"
          ]
        },
        {
          "long_name": "United States",
          "short_name": "US",
          "types": [
            "country",
            "political"
          ]
        }
      ],
      "formatted_address": "Albany County, NY, USA",
      "geometry": {
        "bounds": {
          "northeast": {
            "lat": 42.8225768,
            "lng": -73.67788279999999
          },
          "southwest": {
            "lat": 42.40712690000001,
            "lng": -74.26486299999999
          }
        },
        "location": {
          "lat": 42.57567969999999,
          "lng": -73.93598209999999
        },
        "location_type": "APPROXIMATE",
        "viewport": {
          "northeast": {
            "lat": 42.8225768,
            "lng": -73.67788279999999
          },
          "southwest": {
            "lat": 42.40712690000001,
            "lng": -74.26486299999999
          }
        }
      },
      "place_id": "ChIJKXDqHfHY3YkR58pus3faMs8",
      "types": [
        "administrative_area_level_2",
        "political"
      ]
    },
    {
      "address_components": [
        {
          "long_name": "New York",
          "short_name": "NY",
          "types": [
            "administrative_area_level_1",
            "political"
          ]
        },
        {
          "long_name": "United States",
          "short_name": "US",
          "types": [
            "country",
            "political"
          ]
        }
      ],
      "formatted_address": "New York, USA",
      "geometry": {
        "bounds": {
          "northeast": {
            "lat": 45.015865,
            "lng": -71.85620639999999
          },
          "southwest": {
            "lat": 40.496091,
            "lng": -79.76214379999999
          }
        },
        "location": {
          "lat": 43.2994285,
          "lng": -74.21793260000001
        },
        "location_type": "APPROXIMATE",
        "viewport": {
          "northeast": {
            "lat": 45.015859,
            "lng": -71.85620639999999
          },
          "southwest": {
            "lat": 40.496091,
            "lng": -79.76214379999999
          }
        }
      },
      "place_id": "ChIJqaUj8fBLzEwRZ5UY3sHGz90",
      "types": [
        "administrative_area_level_1",
        "political"
      ]
    },
    {
      "address_components": [
        {
          "long_name": "United States",
          "short_name": "US",
          "types": [
            "country",
            "political"
          ]
        }
      ],
      "formatted_address": "United States",
      "geometry": {
        "bounds": {
          "northeast": {
            "lat": 71.3867745,
            "lng": -66.9502861
          },
          "southwest": {
            "lat": 18.9106768,
            "lng": 172.4458955
          }
        },
        "location": {
          "lat": 37.09024,
          "lng": -95.712891
        },
        "location_type": "APPROXIMATE",
        "viewport": {
          "northeast": {
            "lat": 49.38,
            "lng": -66.94
          },
          "southwest": {
            "lat": 25.82,
            "lng": -124.39
          }
        }
      },
      "place_id": "ChIJCzYy5IS16lQRQrfeQ5K5Oxw",
      "types": [
        "country",
        "political"
      ]
    }
  ],
  "status": "OK"
}
