{
  "results": [
    {
      "address_components": [
        {
          "long_name": "1348",
          "short_name": "1348",
          "types": [
            "street_number"
          ]
        },
        {
          "long_name": "Parkview Estates Drive",
          "short_name": "Parkview Estates Dr",
          "types": [
            "route"
          ]
        },
        {
          "long_name": "Ellisville",
          "short_name": "Ellisville",
          "types": [
            "locality",
            "political"
          ]
        },
        {
          "long_name": "Wildhorse Township",
          "short_name": "Wildhorse Township",
          "types": [
            "administrative_area_level_3",
            "political"
          ]
        },
        {
          "long_name": "St. Louis County",
          "short_name": "St Louis County",
          "types": [
            "administrative_area_level_2",
            "political"
          ]
        },
        {
          "long_name": "Missouri",
          "short_name": "MO",
          "types": [
            "administrative_area_level_1",
            "political"
          ]
        },
        {
          "long_name": "United States",
          "short_name": "US",
          "types": [
            "country",
            "political"
          ]
        },
        {
          "long_name": "63021",
          "short_name": "63021",
          "types": [
            "postal_code"
          ]
        },
        {
          "long_name": "4643",
          "short_name": "4643",
          "types": [
            "postal_code_suffix"
          ]
        }
      ],
      "formatted_address": "1348 Parkview Estates Dr, Ellisville, MO 63021, USA",
      "geometry": {
        "location": {
          "lat": 38.589553,
          "lng": -90.588129
        },
        "location_type": "ROOFTOP",
        "viewport": {
          "northeast": {
            "lat": 38.59090198029151,
            "lng": -90.58678001970848
          },
          "southwest": {
            "lat": 38.58820401970851,
            "lng": -90.5894779802915
          }
        }
      },
      "place_id": "ChIJNYj4Q5PV2IcRiXhs5UeBCS8",
      "types": [
        "street_address"
      ]
    },
    {
      "address_components": [
        {
          "long_name": "Ellisville",
          "short_name": "Ellisville",
          "types": [
            "locality",
            "political"
          ]
        },
        {
          "long_name": "Wildhorse Township",
          "short_name": "Wildhorse Township",
          "types": [
            "administrative_area_level_3",
            "political"
          ]
        },
        {
          "long_name": "St. Louis County",
          "short_name": "St Louis County",
          "types": [
            "administrative_area_level_2",
            "political"
          ]
        },
        {
          "long_name": "Missouri",
          "short_name": "MO",
          "types": [
            "administrative_area_level_1",
            "political"
          ]
        },
        {
          "long_name": "United States",
          "short_name": "US",
          "types": [
            "country",
            "political"
          ]
        }
      ],
      "formatted_address": "Ellisville, MO, USA",
      "geometry": {
        "bounds": {
          "northeast": {
            "lat": 38.608553,
            "lng": -90.55835599999999
          },
          "southwest": {
            "lat": 38.5671001,
            "lng": -90.618394
          }
        },
        "location": {
          "lat": 38.5925532,
          "lng": -90.5870686
        },
        "location_type": "APPROXIMATE",
        "viewport": {
          "northeast": {
            "lat": 38.608553,
            "lng": -90.55835599999999
          },
          "southwest": {
            "lat": 38.5671001,
            "lng": -90.618394
          }
        }
      },
      "place_id": "ChIJD9VByJTV2IcRbjwwmp4fhps",
      "types": [
        "locality",
        "political"
      ]
    },
    {
      "address_components": [
        {
          "long_name": "Wildhorse Township",
          "short_name": "Wildhorse Township",
          "types": [
            "administrative_area_level_3",
            "political"
          ]
        },
        {
          "long_name": "St. Louis County",
          "short_name": "St Louis County",
          "types": [
            "administrative_area_level_2",
            "political"
          ]
        },
        {
          "long_name": "Missouri",
          "short_name": "MO",
          "types": [
            "administrative_area_level_1",
            "political"
          ]
        },
        {
          "long_name": "United States",
          "short_name": "US",
          "types": [
            "country",
            "political"
          ]
        }
      ],
      "formatted_address": "Wildhorse Township, MO, USA",
      "geometry": {
        "bounds": {
          "northeast": {
            "lat": 38.607894,
            "lng": -90.5249219
          },
          "southwest": {
            "lat": 38.53833900000001,
            "lng": -90.6471261
          }
        },
        "location": {
          "lat": 38.5778526,
          "lng": -90.6298922
        },
        "location_type": "APPROXIMATE",
        "viewport": {
          "northeast": {
            "lat": 38.607894,
            "lng": -90.5249219
          },
          "southwest": {
            "lat": 38.53833900000001,
            "lng": -90.6471261
          }
        }
      },
      "place_id": "ChIJqdutzubV2IcRGjvn3Vzsz80",
      "types": [
        "administrative_area_level_3",
        "political"
      ]
    },
    {
      "address_components": [
        {
          "long_name": "63021",
          "short_name": "63021",
          "types": [
            "postal_code"
          ]
        },
        {
          "long_name": "Ballwin",
          "short_name": "Ballwin",
          "types": [
            "locality",
            "political"
          ]
        },
        {
          "long_name": "St. Louis County",
          "short_name": "St Louis County",
          "types": [
            "administrative_area_level_2",
            "political"
          ]
        },
        {
          "long_name": "Missouri",
          "short_name": "MO",
          "types": [
            "administrative_area_level_1",
            "political"
          ]
        },
        {
          "long_name": "United States",
          "short_name": "US",
          "types": [
            "country",
            "political"
          ]
        }
      ],
      "formatted_address": "Ballwin, MO 63021, USA",
      "geometry": {
        "bounds": {
          "northeast": {
            "lat": 38.5971769,
            "lng": -90.461429
          },
          "southwest": {
            "lat": 38.5307308,
            "lng": -90.61258099999999
          }
        },
        "location": {
          "lat": 38.557323,
          "lng": -90.5352356
        },
        "location_type": "APPROXIMATE",
        "viewport": {
          "northeast": {
            "lat": 38.5971769,
            "lng": -90.461429
          },
          "southwest": {
            "lat": 38.5307308,
            "lng": -90.61258099999999
          }
        }
      },
      "place_id": "ChIJ0Yd6OyDU2IcR0c_XF0xSK0s",
      "postcode_localities": [
        "Ballwin",
        "Ellisville",
        "Manchester",
        "Wildwood"
      ],
      "types": [
        "postal_code"
      ]
    },
    {
      "address_components": [
        {
          "long_name": "St. Louis County",
          "short_name": "St Louis County",
          "types": [
            "administrative_area_level_2",
            "political"
          ]
        },
        {
          "long_name": "Missouri",
          "short_name": "MO",
          "types": [
            "administrative_area_level_1",
            "political"
          ]
        },
        {
          "long_name": "United States",
          "short_name": "US",
          "types": [
            "country",
            "political"
          ]
        }
      ],
      "formatted_address": "St Louis County, MO, USA",
      "geometry": {
        "bounds": {
          "northeast": {
            "lat": 38.8911839,
            "lng": -90.11770709999999
          },
          "southwest": {
            "lat": 38.396902,
            "lng": -90.7365301
          }
        },
        "location": {
          "lat": 38.6103023,
          "lng": -90.4125181
        },
        "location_type": "APPROXIMATE",
        "viewport": {
          "northeast": {
            "lat": 38.8911839,
            "lng": -90.11770709999999
          },
          "southwest": {
            "lat": 38.396902,
            "lng": -90.7365301
          }
        }
      },
      "place_id": "ChIJBe3muPnK2IcRO8QfrOB9Xn0",
      "types": [
        "administrative_area_level_2",
        "political"
      ]
    },
    {
      "address_components": [
        {
          "long_name": "St. Louis",
          "short_name": "St. Louis",
          "types": [
            "political"
          ]
        },
        {
          "long_name": "United States",
          "short_name": "US",
          "types": [
            "country",
            "political"
          ]
        }
      ],
      "formatted_address": "St. Louis, USA",
      "geometry": {
        "bounds": {
          "northeast": {
            "lat": 39.5233661,
            "lng": -89.138356
          },
          "southwest": {
            "lat": 37.7341961,
            "lng": -91.4186371
          }
        },
        "location": {
          "lat": 38.8196814,
          "lng": -90.4502368
        },
        "location_type": "APPROXIMATE",
        "viewport": {
          "northeast": {
            "lat": 39.5233661,
            "lng": -89.138356
          },
          "southwest": {
            "lat": 37.7341961,
            "lng": -91.4186371
          }
        }
      },
      "place_id": "ChIJneBzzj4z34cRFGg2ez6q57o",
      "types": [
        "political"
      ]
    },
    {
      "address_components": [
        {
          "long_name": "Missouri",
          "short_name": "MO",
          "types": [
            "administrative_area_level_1",
            "political"
          ]
        },
        {
          "long_name": "United States",
          "short_name": "US",
          "types": [
            "country",
            "political"
          ]
        }
      ],
      "formatted_address": "Missouri, USA",
      "geometry": {
        "bounds": {
          "northeast": {
            "lat": 40.61364,
            "lng": -89.09949399999999
          },
          "southwest": {
            "lat": 35.9956829,
            "lng": -95.774704
          }
        },
        "location": {
          "lat": 37.9642529,
          "lng": -91.8318334
        },
        "location_type": "APPROXIMATE",
        "viewport": {
          "northeast": {
            "lat": 40.61364,
            "lng": -89.09949399999999
          },
          "southwest": {
            "lat": 35.9956829,
            "lng": -95.774704
          }
        }
      },
      "place_id": "ChIJfeMiSNXmwIcRcr1mBFnEW7U",
      "types": [
        "administrative_area_level_1",
        "political"
      ]
    },
    {
      "address_components": [
        {
          "long_name": "United States",
          "short_name": "US",
          "types": [
            "country",
            "political"
          ]
        }
      ],
      "formatted_address": "United States",
      "geometry": {
        "bounds": {
          "northeast": {
            "lat": 71.3867745,
            "lng": -66.9502861
          },
          "southwest": {
            "lat": 18.9106768,
            "lng": 172.4458955
          }
        },
        "location": {
          "lat": 37.09024,
          "lng": -95.712891
        },
        "location_type": "APPROXIMATE",
        "viewport": {
          "northeast": {
            "lat": 49.38,
            "lng": -66.94
          },
          "southwest": {
            "lat": 25.82,
            "lng": -124.39
          }
        }
      },
      "place_id": "ChIJCzYy5IS16lQRQrfeQ5K5Oxw",
      "types": [
        "country",
        "political"
      ]
    }
  ],
  "status": "OK"
}
