{
  "results": [
    {
      "address_components": [
        {
          "long_name": "1317",
          "short_name": "1317",
          "types": [
            "street_number"
          ]
        },
        {
          "long_name": "Trumansburg Road",
          "short_name": "Trumansburg Rd",
          "types": [
            "route"
          ]
        },
        {
          "long_name": "Ithaca",
          "short_name": "Ithaca",
          "types": [
            "locality",
            "political"
          ]
        },
        {
          "long_name": "Ithaca",
          "short_name": "Ithaca",
          "types": [
            "administrative_area_level_3",
            "political"
          ]
        },
        {
          "long_name": "Tompkins County",
          "short_name": "Tompkins County",
          "types": [
            "administrative_area_level_2",
            "political"
          ]
        },
        {
          "long_name": "New York",
          "short_name": "NY",
          "types": [
            "administrative_area_level_1",
            "political"
          ]
        },
        {
          "long_name": "United States",
          "short_name": "US",
          "types": [
            "country",
            "political"
          ]
        },
        {
          "long_name": "14850",
          "short_name": "14850",
          "types": [
            "postal_code"
          ]
        },
        {
          "long_name": "9528",
          "short_name": "9528",
          "types": [
            "postal_code_suffix"
          ]
        }
      ],
      "formatted_address": "1317 Trumansburg Rd, Ithaca, NY 14850, USA",
      "geometry": {
        "location": {
          "lat": 42.47029,
          "lng": -76.542247
        },
        "location_type": "ROOFTOP",
        "viewport": {
          "northeast": {
            "lat": 42.4716389802915,
            "lng": -76.5408980197085
          },
          "southwest": {
            "lat": 42.4689410197085,
            "lng": -76.54359598029151
          }
        }
      },
      "place_id": "ChIJS5MVRvGD0IkReqSnZkI4gYc",
      "types": [
        "street_address"
      ]
    },
    {
      "address_components": [
        {
          "long_name": "Northwest Ithaca",
          "short_name": "Northwest Ithaca",
          "types": [
            "locality",
            "political"
          ]
        },
        {
          "long_name": "Ithaca",
          "short_name": "Ithaca",
          "types": [
            "administrative_area_level_3",
            "political"
          ]
        },
        {
          "long_name": "Tompkins County",
          "short_name": "Tompkins County",
          "types": [
            "administrative_area_level_2",
            "political"
          ]
        },
        {
          "long_name": "New York",
          "short_name": "NY",
          "types": [
            "administrative_area_level_1",
            "political"
          ]
        },
        {
          "long_name": "United States",
          "short_name": "US",
          "types": [
            "country",
            "political"
          ]
        },
        {
          "long_name": "14850",
          "short_name": "14850",
          "types": [
            "postal_code"
          ]
        }
      ],
      "formatted_address": "Northwest Ithaca, NY 14850, USA",
      "geometry": {
        "bounds": {
          "northeast": {
            "lat": 42.4808959,
            "lng": -76.5183121
          },
          "southwest": {
            "lat": 42.455216,
            "lng": -76.573033
          }
        },
        "location": {
          "lat": 42.4699832,
          "lng": -76.5314817
        },
        "location_type": "APPROXIMATE",
        "viewport": {
          "northeast": {
            "lat": 42.4808959,
            "lng": -76.5183121
          },
          "southwest": {
            "lat": 42.455216,
            "lng": -76.573033
          }
        }
      },
      "place_id": "ChIJtXSyzfCD0IkR8Y14Vjj_Pzc",
      "types": [
        "locality",
        "political"
      ]
    },
    {
      "address_components": [
        {
          "long_name": "Ithaca",
          "short_name": "Ithaca",
          "types": [
            "administrative_area_level_3",
            "political"
          ]
        },
        {
          "long_name": "Tompkins County",
          "short_name": "Tompkins County",
          "types": [
            "administrative_area_level_2",
            "political"
          ]
        },
        {
          "long_name": "New York",
          "short_name": "NY",
          "types": [
            "administrative_area_level_1",
            "political"
          ]
        },
        {
          "long_name": "United States",
          "short_name": "US",
          "types": [
            "country",
            "political"
          ]
        }
      ],
      "formatted_address": "Ithaca, NY, USA",
      "geometry": {
        "bounds": {
          "northeast": {
            "lat": 42.4808959,
            "lng": -76.445932
          },
          "southwest": {
            "lat": 42.3938,
            "lng": -76.573033
          }
        },
        "location": {
          "lat": 42.4079163,
          "lng": -76.5372625
        },
        "location_type": "APPROXIMATE",
        "viewport": {
          "northeast": {
            "lat": 42.4808959,
            "lng": -76.445932
          },
          "southwest": {
            "lat": 42.3938,
            "lng": -76.573033
          }
        }
      },
      "place_id": "ChIJLzjbC_yA0IkREYlHt04RM44",
      "types": [
        "administrative_area_level_3",
        "political"
      ]
    },
    {
      "address_components": [
        {
          "long_name": "14850",
          "short_name": "14850",
          "types": [
            "postal_code"
          ]
        },
        {
          "long_name": "Ithaca",
          "short_name": "Ithaca",
          "types": [
            "locality",
            "political"
          ]
        },
        {
          "long_name": "New York",
          "short_name": "NY",
          "types": [
            "administrative_area_level_1",
            "political"
          ]
        },
        {
          "long_name": "United States",
          "short_name": "US",
          "types": [
            "country",
            "political"
          ]
        }
      ],
      "formatted_address": "Ithaca, NY 14850, USA",
      "geometry": {
        "bounds": {
          "northeast": {
            "lat": 42.545595,
            "lng": -76.3421429
          },
          "southwest": {
            "lat": 42.2810549,
            "lng": -76.6895298
          }
        },
        "location": {
          "lat": 42.435511,
          "lng": -76.5257007
        },
        "location_type": "APPROXIMATE",
        "viewport": {
          "northeast": {
            "lat": 42.545595,
            "lng": -76.3421429
          },
          "southwest": {
            "lat": 42.2810549,
            "lng": -76.6895298
          }
        }
      },
      "place_id": "ChIJ8QPrieWA0IkRhMlVx--AuPo",
      "types": [
        "postal_code"
      ]
    },
    {
      "address_components": [
        {
          "long_name": "Ithaca",
          "short_name": "Ithaca",
          "types": [
            "political"
          ]
        },
        {
          "long_name": "New York",
          "short_name": "NY",
          "types": [
            "administrative_area_level_1",
            "political"
          ]
        },
        {
          "long_name": "United States",
          "short_name": "US",
          "types": [
            "country",
            "political"
          ]
        }
      ],
      "formatted_address": "Ithaca, NY, USA",
      "geometry": {
        "bounds": {
          "northeast": {
            "lat": 42.627162,
            "lng": -76.2378159
          },
          "southwest": {
            "lat": 42.26297599999999,
            "lng": -76.69664999999999
          }
        },
        "location": {
          "lat": 42.4575747,
          "lng": -76.5488232
        },
        "location_type": "APPROXIMATE",
        "viewport": {
          "northeast": {
            "lat": 42.627162,
            "lng": -76.2378159
          },
          "southwest": {
            "lat": 42.26297599999999,
            "lng": -76.69664999999999
          }
        }
      },
      "place_id": "ChIJb2oGnh6C0IkRCPMHrlfcBAA",
      "types": [
        "political"
      ]
    },
    {
      "address_components": [
        {
          "long_name": "Tompkins County",
          "short_name": "Tompkins County",
          "types": [
            "administrative_area_level_2",
            "political"
          ]
        },
        {
          "long_name": "New York",
          "short_name": "NY",
          "types": [
            "administrative_area_level_1",
            "political"
          ]
        },
        {
          "long_name": "United States",
          "short_name": "US",
          "types": [
            "country",
            "political"
          ]
        }
      ],
      "formatted_address": "Tompkins County, NY, USA",
      "geometry": {
        "bounds": {
          "northeast": {
            "lat": 42.6274188,
            "lng": -76.237695
          },
          "southwest": {
            "lat": 42.2629759,
            "lng": -76.6966571
          }
        },
        "location": {
          "lat": 42.4575747,
          "lng": -76.5488232
        },
        "location_type": "APPROXIMATE",
        "viewport": {
          "northeast": {
            "lat": 42.6274188,
            "lng": -76.237695
          },
          "southwest": {
            "lat": 42.2629759,
            "lng": -76.6966571
          }
        }
      },
      "place_id": "ChIJPdZvpB-C0IkRoFN9R7uJuuw",
      "types": [
        "administrative_area_level_2",
        "political"
      ]
    },
    {
      "address_components": [
        {
          "long_name": "New York",
          "short_name": "NY",
          "types": [
            "administrative_area_level_1",
            "political"
          ]
        },
        {
          "long_name": "United States",
          "short_name": "US",
          "types": [
            "country",
            "political"
          ]
        }
      ],
      "formatted_address": "New York, USA",
      "geometry": {
        "bounds": {
          "northeast": {
            "lat": 45.015865,
            "lng": -71.85620639999999
          },
          "southwest": {
            "lat": 40.496091,
            "lng": -79.76214379999999
          }
        },
        "location": {
          "lat": 43.2994285,
          "lng": -74.21793260000001
        },
        "location_type": "APPROXIMATE",
        "viewport": {
          "northeast": {
            "lat": 45.015859,
            "lng": -71.85620639999999
          },
          "southwest": {
            "lat": 40.496091,
            "lng": -79.76214379999999
          }
        }
      },
      "place_id": "ChIJqaUj8fBLzEwRZ5UY3sHGz90",
      "types": [
        "administrative_area_level_1",
        "political"
      ]
    },
    {
      "address_components": [
        {
          "long_name": "United States",
          "short_name": "US",
          "types": [
            "country",
            "political"
          ]
        }
      ],
      "formatted_address": "United States",
      "geometry": {
        "bounds": {
          "northeast": {
            "lat": 71.3867745,
            "lng": -66.9502861
          },
          "southwest": {
            "lat": 18.9106768,
            "lng": 172.4458955
          }
        },
        "location": {
          "lat": 37.09024,
          "lng": -95.712891
        },
        "location_type": "APPROXIMATE",
        "viewport": {
          "northeast": {
            "lat": 49.38,
            "lng": -66.94
          },
          "southwest": {
            "lat": 25.82,
            "lng": -124.39
          }
        }
      },
      "place_id": "ChIJCzYy5IS16lQRQrfeQ5K5Oxw",
      "types": [
        "country",
        "political"
      ]
    }
  ],
  "status": "OK"
}
