{
  "results": [
    {
      "address_components": [
        {
          "long_name": "163",
          "short_name": "163",
          "types": [
            "street_number"
          ]
        },
        {
          "long_name": "West Broadway",
          "short_name": "W Broadway",
          "types": [
            "route"
          ]
        },
        {
          "long_name": "Bunker Hill",
          "short_name": "Bunker Hill",
          "types": [
            "locality",
            "political"
          ]
        },
        {
          "long_name": "Pipe Creek Township",
          "short_name": "Pipe Creek Township",
          "types": [
            "administrative_area_level_3",
            "political"
          ]
        },
        {
          "long_name": "Miami County",
          "short_name": "Miami County",
          "types": [
            "administrative_area_level_2",
            "political"
          ]
        },
        {
          "long_name": "Indiana",
          "short_name": "IN",
          "types": [
            "administrative_area_level_1",
            "political"
          ]
        },
        {
          "long_name": "United States",
          "short_name": "US",
          "types": [
            "country",
            "political"
          ]
        },
        {
          "long_name": "46914",
          "short_name": "46914",
          "types": [
            "postal_code"
          ]
        },
        {
          "long_name": "8500",
          "short_name": "8500",
          "types": [
            "postal_code_suffix"
          ]
        }
      ],
      "formatted_address": "163 W Broadway, Bunker Hill, IN 46914, USA",
      "geometry": {
        "location": {
          "lat": 40.659944,
          "lng": -86.10118
        },
        "location_type": "ROOFTOP",
        "viewport": {
          "northeast": {
            "lat": 40.6612929802915,
            "lng": -86.09983101970849
          },
          "southwest": {
            "lat": 40.6585950197085,
            "lng": -86.1025289802915
          }
        }
      },
      "place_id": "ChIJd--k01F7FIgRtbSPSI8NjC4",
      "types": [
        "street_address"
      ]
    },
    {
      "address_components": [
        {
          "long_name": "Bunker Hill",
          "short_name": "Bunker Hill",
          "types": [
            "locality",
            "political"
          ]
        },
        {
          "long_name": "Pipe Creek Township",
          "short_name": "Pipe Creek Township",
          "types": [
            "administrative_area_level_3",
            "political"
          ]
        },
        {
          "long_name": "Miami County",
          "short_name": "Miami County",
          "types": [
            "administrative_area_level_2",
            "political"
          ]
        },
        {
          "long_name": "Indiana",
          "short_name": "IN",
          "types": [
            "administrative_area_level_1",
            "political"
          ]
        },
        {
          "long_name": "United States",
          "short_name": "US",
          "types": [
            "country",
            "political"
          ]
        }
      ],
      "formatted_address": "Bunker Hill, IN, USA",
      "geometry": {
        "bounds": {
          "northeast": {
            "lat": 40.67153589999999,
            "lng": -86.090969
          },
          "southwest": {
            "lat": 40.65006289999999,
            "lng": -86.1082969
          }
        },
        "location": {
          "lat": 40.6603181,
          "lng": -86.1027701
        },
        "location_type": "APPROXIMATE",
        "viewport": {
          "northeast": {
            "lat": 40.67153589999999,
            "lng": -86.090969
          },
          "southwest": {
            "lat": 40.65006289999999,
            "lng": -86.1082969
          }
        }
      },
      "place_id": "ChIJS7DnKVB7FIgRAE5xijAeT5w",
      "types": [
        "locality",
        "political"
      ]
    },
    {
      "address_components": [
        {
          "long_name": "Pipe Creek Township",
          "short_name": "Pipe Creek Township",
          "types": [
            "administrative_area_level_3",
            "political"
          ]
        },
        {
          "long_name": "Miami County",
          "short_name": "Miami County",
          "types": [
            "administrative_area_level_2",
            "political"
          ]
        },
        {
          "long_name": "Indiana",
          "short_name": "IN",
          "types": [
            "administrative_area_level_1",
            "political"
          ]
        },
        {
          "long_name": "United States",
          "short_name": "US",
          "types": [
            "country",
            "political"
          ]
        }
      ],
      "formatted_address": "Pipe Creek Township, IN, USA",
      "geometry": {
        "bounds": {
          "northeast": {
            "lat": 40.7472879,
            "lng": -86.08794499999999
          },
          "southwest": {
            "lat": 40.649637,
            "lng": -86.166707
          }
        },
        "location": {
          "lat": 40.7114499,
          "lng": -86.1141045
        },
        "location_type": "APPROXIMATE",
        "viewport": {
          "northeast": {
            "lat": 40.7472879,
            "lng": -86.08794499999999
          },
          "southwest": {
            "lat": 40.649637,
            "lng": -86.166707
          }
        }
      },
      "place_id": "ChIJCU5FvAF7FIgRNx3W5St5YEg",
      "types": [
        "administrative_area_level_3",
        "political"
      ]
    },
    {
      "address_components": [
        {
          "long_name": "46914",
          "short_name": "46914",
          "types": [
            "postal_code"
          ]
        },
        {
          "long_name": "Bunker Hill",
          "short_name": "Bunker Hill",
          "types": [
            "locality",
            "political"
          ]
        },
        {
          "long_name": "Indiana",
          "short_name": "IN",
          "types": [
            "administrative_area_level_1",
            "political"
          ]
        },
        {
          "long_name": "United States",
          "short_name": "US",
          "types": [
            "country",
            "political"
          ]
        }
      ],
      "formatted_address": "Bunker Hill, IN 46914, USA",
      "geometry": {
        "bounds": {
          "northeast": {
            "lat": 40.67873,
            "lng": -85.9870909
          },
          "southwest": {
            "lat": 40.5631221,
            "lng": -86.16584209999999
          }
        },
        "location": {
          "lat": 40.6290161,
          "lng": -86.0733498
        },
        "location_type": "APPROXIMATE",
        "viewport": {
          "northeast": {
            "lat": 40.67873,
            "lng": -85.9870909
          },
          "southwest": {
            "lat": 40.5631221,
            "lng": -86.16584209999999
          }
        }
      },
      "place_id": "ChIJMRPi3UZjFIgRQ9W_36jhBrs",
      "types": [
        "postal_code"
      ]
    },
    {
      "address_components": [
        {
          "long_name": "Peru",
          "short_name": "Peru",
          "types": [
            "political"
          ]
        },
        {
          "long_name": "Indiana",
          "short_name": "IN",
          "types": [
            "administrative_area_level_1",
            "political"
          ]
        },
        {
          "long_name": "United States",
          "short_name": "US",
          "types": [
            "country",
            "political"
          ]
        }
      ],
      "formatted_address": "Peru, IN, USA",
      "geometry": {
        "bounds": {
          "northeast": {
            "lat": 40.9991969,
            "lng": -85.863846
          },
          "southwest": {
            "lat": 40.5627131,
            "lng": -86.16915399999999
          }
        },
        "location": {
          "lat": 40.77009899999999,
          "lng": -86.05296039999999
        },
        "location_type": "APPROXIMATE",
        "viewport": {
          "northeast": {
            "lat": 40.9991969,
            "lng": -85.863846
          },
          "southwest": {
            "lat": 40.5627131,
            "lng": -86.16915399999999
          }
        }
      },
      "place_id": "ChIJyZtvhgJvFIgRS84p54YUDEI",
      "types": [
        "political"
      ]
    },
    {
      "address_components": [
        {
          "long_name": "Miami County",
          "short_name": "Miami County",
          "types": [
            "administrative_area_level_2",
            "political"
          ]
        },
        {
          "long_name": "Indiana",
          "short_name": "IN",
          "types": [
            "administrative_area_level_1",
            "political"
          ]
        },
        {
          "long_name": "United States",
          "short_name": "US",
          "types": [
            "country",
            "political"
          ]
        }
      ],
      "formatted_address": "Miami County, IN, USA",
      "geometry": {
        "bounds": {
          "northeast": {
            "lat": 40.999195,
            "lng": -85.863641
          },
          "southwest": {
            "lat": 40.562649,
            "lng": -86.1691439
          }
        },
        "location": {
          "lat": 40.77009899999999,
          "lng": -86.05296039999999
        },
        "location_type": "APPROXIMATE",
        "viewport": {
          "northeast": {
            "lat": 40.999195,
            "lng": -85.863641
          },
          "southwest": {
            "lat": 40.562649,
            "lng": -86.1691439
          }
        }
      },
      "place_id": "ChIJ_YQ75pJwFIgRZaRGnODdLY8",
      "types": [
        "administrative_area_level_2",
        "political"
      ]
    },
    {
      "address_components": [
        {
          "long_name": "Indiana",
          "short_name": "IN",
          "types": [
            "administrative_area_level_1",
            "political"
          ]
        },
        {
          "long_name": "United States",
          "short_name": "US",
          "types": [
            "country",
            "political"
          ]
        }
      ],
      "formatted_address": "Indiana, USA",
      "geometry": {
        "bounds": {
          "northeast": {
            "lat": 41.7606971,
            "lng": -84.784662
          },
          "southwest": {
            "lat": 37.7717419,
            "lng": -88.097892
          }
        },
        "location": {
          "lat": 40.2671941,
          "lng": -86.1349019
        },
        "location_type": "APPROXIMATE",
        "viewport": {
          "northeast": {
            "lat": 41.7606971,
            "lng": -84.784662
          },
          "southwest": {
            "lat": 37.7717419,
            "lng": -88.097892
          }
        }
      },
      "place_id": "ChIJHRv42bxQa4gRcuwyy84vEH4",
      "types": [
        "administrative_area_level_1",
        "political"
      ]
    },
    {
      "address_components": [
        {
          "long_name": "United States",
          "short_name": "US",
          "types": [
            "country",
            "political"
          ]
        }
      ],
      "formatted_address": "United States",
      "geometry": {
        "bounds": {
          "northeast": {
            "lat": 71.3867745,
            "lng": -66.9502861
          },
          "southwest": {
            "lat": 18.9106768,
            "lng": 172.4458955
          }
        },
        "location": {
          "lat": 37.09024,
          "lng": -95.712891
        },
        "location_type": "APPROXIMATE",
        "viewport": {
          "northeast": {
            "lat": 49.38,
            "lng": -66.94
          },
          "southwest": {
            "lat": 25.82,
            "lng": -124.39
          }
        }
      },
      "place_id": "ChIJCzYy5IS16lQRQrfeQ5K5Oxw",
      "types": [
        "country",
        "political"
      ]
    }
  ],
  "status": "OK"
}
