{
  "results": [
    {
      "address_components": [
        {
          "long_name": "2-16",
          "short_name": "2-16",
          "types": [
            "street_number"
          ]
        },
        {
          "long_name": "Rogers Drive",
          "short_name": "Rogers Dr",
          "types": [
            "route"
          ]
        },
        {
          "long_name": "Cold Spring Harbor",
          "short_name": "Cold Spring Harbor",
          "types": [
            "locality",
            "political"
          ]
        },
        {
          "long_name": "Huntington",
          "short_name": "Huntington",
          "types": [
            "administrative_area_level_3",
            "political"
          ]
        },
        {
          "long_name": "Suffolk County",
          "short_name": "Suffolk County",
          "types": [
            "administrative_area_level_2",
            "political"
          ]
        },
        {
          "long_name": "New York",
          "short_name": "NY",
          "types": [
            "administrative_area_level_1",
            "political"
          ]
        },
        {
          "long_name": "United States",
          "short_name": "US",
          "types": [
            "country",
            "political"
          ]
        },
        {
          "long_name": "11724",
          "short_name": "11724",
          "types": [
            "postal_code"
          ]
        },
        {
          "long_name": "1907",
          "short_name": "1907",
          "types": [
            "postal_code_suffix"
          ]
        }
      ],
      "formatted_address": "2-16 Rogers Dr, Cold Spring Harbor, NY 11724, USA",
      "geometry": {
        "bounds": {
          "northeast": {
            "lat": 40.8616165,
            "lng": -73.4483563
          },
          "southwest": {
            "lat": 40.8607997,
            "lng": -73.4491743
          }
        },
        "location": {
          "lat": 40.8612957,
          "lng": -73.44892500000002
        },
        "location_type": "RANGE_INTERPOLATED",
        "viewport": {
          "northeast": {
            "lat": 40.8625570802915,
            "lng": -73.4474163197085
          },
          "southwest": {
            "lat": 40.8598591197085,
            "lng": -73.45011428029152
          }
        }
      },
      "place_id": "EjEyLTE2IFJvZ2VycyBEciwgQ29sZCBTcHJpbmcgSGFyYm9yLCBOWSAxMTcyNCwgVVNB",
      "types": [
        "street_address"
      ]
    },
    {
      "address_components": [
        {
          "long_name": "Cold Spring Harbor",
          "short_name": "Cold Spring Harbor",
          "types": [
            "locality",
            "political"
          ]
        },
        {
          "long_name": "Huntington",
          "short_name": "Huntington",
          "types": [
            "administrative_area_level_3",
            "political"
          ]
        },
        {
          "long_name": "Suffolk County",
          "short_name": "Suffolk County",
          "types": [
            "administrative_area_level_2",
            "political"
          ]
        },
        {
          "long_name": "New York",
          "short_name": "NY",
          "types": [
            "administrative_area_level_1",
            "political"
          ]
        },
        {
          "long_name": "United States",
          "short_name": "US",
          "types": [
            "country",
            "political"
          ]
        }
      ],
      "formatted_address": "Cold Spring Harbor, NY, USA",
      "geometry": {
        "bounds": {
          "northeast": {
            "lat": 40.88451999999999,
            "lng": -73.429176
          },
          "southwest": {
            "lat": 40.8363853,
            "lng": -73.4714501
          }
        },
        "location": {
          "lat": 40.8714873,
          "lng": -73.456788
        },
        "location_type": "APPROXIMATE",
        "viewport": {
          "northeast": {
            "lat": 40.88451999999999,
            "lng": -73.429176
          },
          "southwest": {
            "lat": 40.8363853,
            "lng": -73.4714501
          }
        }
      },
      "place_id": "ChIJZwwahBEo6IkR6iZp_Aik0RQ",
      "types": [
        "locality",
        "political"
      ]
    },
    {
      "address_components": [
        {
          "long_name": "11724",
          "short_name": "11724",
          "types": [
            "postal_code"
          ]
        },
        {
          "long_name": "Cold Spring Harbor",
          "short_name": "Cold Spring Harbor",
          "types": [
            "locality",
            "political"
          ]
        },
        {
          "long_name": "New York",
          "short_name": "NY",
          "types": [
            "administrative_area_level_1",
            "political"
          ]
        },
        {
          "long_name": "United States",
          "short_name": "US",
          "types": [
            "country",
            "political"
          ]
        }
      ],
      "formatted_address": "Cold Spring Harbor, NY 11724, USA",
      "geometry": {
        "bounds": {
          "northeast": {
            "lat": 40.8994689,
            "lng": -73.4347689
          },
          "southwest": {
            "lat": 40.8359079,
            "lng": -73.47730709999999
          }
        },
        "location": {
          "lat": 40.8601669,
          "lng": -73.4474855
        },
        "location_type": "APPROXIMATE",
        "viewport": {
          "northeast": {
            "lat": 40.8994689,
            "lng": -73.4347689
          },
          "southwest": {
            "lat": 40.8359079,
            "lng": -73.47730709999999
          }
        }
      },
      "place_id": "ChIJLTsTKxco6IkROuu6OQQmi8c",
      "types": [
        "postal_code"
      ]
    },
    {
      "address_components": [
        {
          "long_name": "Huntington",
          "short_name": "Huntington",
          "types": [
            "administrative_area_level_3",
            "political"
          ]
        },
        {
          "long_name": "Suffolk County",
          "short_name": "Suffolk County",
          "types": [
            "administrative_area_level_2",
            "political"
          ]
        },
        {
          "long_name": "New York",
          "short_name": "NY",
          "types": [
            "administrative_area_level_1",
            "political"
          ]
        },
        {
          "long_name": "United States",
          "short_name": "US",
          "types": [
            "country",
            "political"
          ]
        }
      ],
      "formatted_address": "Huntington, NY, USA",
      "geometry": {
        "bounds": {
          "northeast": {
            "lat": 40.9557223,
            "lng": -73.28644
          },
          "southwest": {
            "lat": 40.751311,
            "lng": -73.4971345
          }
        },
        "location": {
          "lat": 40.8867997,
          "lng": -73.3944466
        },
        "location_type": "APPROXIMATE",
        "viewport": {
          "northeast": {
            "lat": 40.9557223,
            "lng": -73.28644
          },
          "southwest": {
            "lat": 40.751311,
            "lng": -73.4971345
          }
        }
      },
      "place_id": "ChIJTyWIrhUm6IkRIXE67Cf2oFw",
      "types": [
        "administrative_area_level_3",
        "political"
      ]
    },
    {
      "address_components": [
        {
          "long_name": "Suffolk County",
          "short_name": "Suffolk County",
          "types": [
            "administrative_area_level_2",
            "political"
          ]
        },
        {
          "long_name": "New York",
          "short_name": "NY",
          "types": [
            "administrative_area_level_1",
            "political"
          ]
        },
        {
          "long_name": "United States",
          "short_name": "US",
          "types": [
            "country",
            "political"
          ]
        }
      ],
      "formatted_address": "Suffolk County, NY, USA",
      "geometry": {
        "bounds": {
          "northeast": {
            "lat": 41.2923797,
            "lng": -71.8562082
          },
          "southwest": {
            "lat": 40.6094203,
            "lng": -73.497125
          }
        },
        "location": {
          "lat": 40.9848784,
          "lng": -72.61511689999999
        },
        "location_type": "APPROXIMATE",
        "viewport": {
          "northeast": {
            "lat": 41.2923194,
            "lng": -71.8562082
          },
          "southwest": {
            "lat": 40.6094203,
            "lng": -73.497125
          }
        }
      },
      "place_id": "ChIJ1_mbyICu4IkRU18dDUkMxJU",
      "types": [
        "administrative_area_level_2",
        "political"
      ]
    },
    {
      "address_components": [
        {
          "long_name": "New York",
          "short_name": "NY",
          "types": [
            "administrative_area_level_1",
            "political"
          ]
        },
        {
          "long_name": "United States",
          "short_name": "US",
          "types": [
            "country",
            "political"
          ]
        }
      ],
      "formatted_address": "New York, USA",
      "geometry": {
        "bounds": {
          "northeast": {
            "lat": 45.015865,
            "lng": -71.85620639999999
          },
          "southwest": {
            "lat": 40.496091,
            "lng": -79.76214379999999
          }
        },
        "location": {
          "lat": 43.2994285,
          "lng": -74.21793260000001
        },
        "location_type": "APPROXIMATE",
        "viewport": {
          "northeast": {
            "lat": 45.015859,
            "lng": -71.85620639999999
          },
          "southwest": {
            "lat": 40.496091,
            "lng": -79.76214379999999
          }
        }
      },
      "place_id": "ChIJqaUj8fBLzEwRZ5UY3sHGz90",
      "types": [
        "administrative_area_level_1",
        "political"
      ]
    },
    {
      "address_components": [
        {
          "long_name": "United States",
          "short_name": "US",
          "types": [
            "country",
            "political"
          ]
        }
      ],
      "formatted_address": "United States",
      "geometry": {
        "bounds": {
          "northeast": {
            "lat": 71.3867745,
            "lng": -66.9502861
          },
          "southwest": {
            "lat": 18.9106768,
            "lng": 172.4458955
          }
        },
        "location": {
          "lat": 37.09024,
          "lng": -95.712891
        },
        "location_type": "APPROXIMATE",
        "viewport": {
          "northeast": {
            "lat": 49.38,
            "lng": -66.94
          },
          "southwest": {
            "lat": 25.82,
            "lng": -124.39
          }
        }
      },
      "place_id": "ChIJCzYy5IS16lQRQrfeQ5K5Oxw",
      "types": [
        "country",
        "political"
      ]
    }
  ],
  "status": "OK"
}
