{
  "results": [
    {
      "address_components": [
        {
          "long_name": "509-521",
          "short_name": "509-521",
          "types": [
            "street_number"
          ]
        },
        {
          "long_name": "Defiance Road",
          "short_name": "Defiance Rd",
          "types": [
            "route"
          ]
        },
        {
          "long_name": "Defiance",
          "short_name": "Defiance",
          "types": [
            "neighborhood",
            "political"
          ]
        },
        {
          "long_name": "Boone Township",
          "short_name": "Boone Township",
          "types": [
            "administrative_area_level_3",
            "political"
          ]
        },
        {
          "long_name": "St. Charles County",
          "short_name": "St Charles County",
          "types": [
            "administrative_area_level_2",
            "political"
          ]
        },
        {
          "long_name": "Missouri",
          "short_name": "MO",
          "types": [
            "administrative_area_level_1",
            "political"
          ]
        },
        {
          "long_name": "United States",
          "short_name": "US",
          "types": [
            "country",
            "political"
          ]
        },
        {
          "long_name": "63341",
          "short_name": "63341",
          "types": [
            "postal_code"
          ]
        }
      ],
      "formatted_address": "509-521 Defiance Rd, Defiance, MO 63341, USA",
      "geometry": {
        "bounds": {
          "northeast": {
            "lat": 38.6320635,
            "lng": -90.78419199999999
          },
          "southwest": {
            "lat": 38.6317732,
            "lng": -90.78502759999999
          }
        },
        "location": {
          "lat": 38.6320646,
          "lng": -90.7849846
        },
        "location_type": "RANGE_INTERPOLATED",
        "viewport": {
          "northeast": {
            "lat": 38.6332673302915,
            "lng": -90.78326081970849
          },
          "southwest": {
            "lat": 38.6305693697085,
            "lng": -90.7859587802915
          }
        }
      },
      "place_id": "Eiw1MDktNTIxIERlZmlhbmNlIFJkLCBEZWZpYW5jZSwgTU8gNjMzNDEsIFVTQQ",
      "types": [
        "street_address"
      ]
    },
    {
      "address_components": [
        {
          "long_name": "Defiance",
          "short_name": "Defiance",
          "types": [
            "neighborhood",
            "political"
          ]
        },
        {
          "long_name": "New Melle",
          "short_name": "New Melle",
          "types": [
            "locality",
            "political"
          ]
        },
        {
          "long_name": "Boone Township",
          "short_name": "Boone Township",
          "types": [
            "administrative_area_level_3",
            "political"
          ]
        },
        {
          "long_name": "St. Charles County",
          "short_name": "St Charles County",
          "types": [
            "administrative_area_level_2",
            "political"
          ]
        },
        {
          "long_name": "Missouri",
          "short_name": "MO",
          "types": [
            "administrative_area_level_1",
            "political"
          ]
        },
        {
          "long_name": "United States",
          "short_name": "US",
          "types": [
            "country",
            "political"
          ]
        }
      ],
      "formatted_address": "Defiance, New Melle, MO, USA",
      "geometry": {
        "bounds": {
          "northeast": {
            "lat": 38.731329,
            "lng": -90.73171119999999
          },
          "southwest": {
            "lat": 38.592562,
            "lng": -90.89090399999999
          }
        },
        "location": {
          "lat": 38.6325028,
          "lng": -90.7781828
        },
        "location_type": "APPROXIMATE",
        "viewport": {
          "northeast": {
            "lat": 38.731329,
            "lng": -90.73171119999999
          },
          "southwest": {
            "lat": 38.592562,
            "lng": -90.89090399999999
          }
        }
      },
      "place_id": "ChIJWS-3FLjM3ocRPiwqI_2inag",
      "types": [
        "neighborhood",
        "political"
      ]
    },
    {
      "address_components": [
        {
          "long_name": "63341",
          "short_name": "63341",
          "types": [
            "postal_code"
          ]
        },
        {
          "long_name": "Defiance",
          "short_name": "Defiance",
          "types": [
            "neighborhood",
            "political"
          ]
        },
        {
          "long_name": "Boone Township",
          "short_name": "Boone Township",
          "types": [
            "administrative_area_level_3",
            "political"
          ]
        },
        {
          "long_name": "St. Charles County",
          "short_name": "St Charles County",
          "types": [
            "administrative_area_level_2",
            "political"
          ]
        },
        {
          "long_name": "Missouri",
          "short_name": "MO",
          "types": [
            "administrative_area_level_1",
            "political"
          ]
        },
        {
          "long_name": "United States",
          "short_name": "US",
          "types": [
            "country",
            "political"
          ]
        }
      ],
      "formatted_address": "Defiance, MO 63341, USA",
      "geometry": {
        "bounds": {
          "northeast": {
            "lat": 38.7382751,
            "lng": -90.7316199
          },
          "southwest": {
            "lat": 38.6005811,
            "lng": -90.91971
          }
        },
        "location": {
          "lat": 38.671157,
          "lng": -90.810357
        },
        "location_type": "APPROXIMATE",
        "viewport": {
          "northeast": {
            "lat": 38.7382751,
            "lng": -90.7316199
          },
          "southwest": {
            "lat": 38.6005811,
            "lng": -90.91971
          }
        }
      },
      "place_id": "ChIJpYmLsL3M3ocRLup3JlxMHiE",
      "types": [
        "postal_code"
      ]
    },
    {
      "address_components": [
        {
          "long_name": "Boone Township",
          "short_name": "Boone Township",
          "types": [
            "administrative_area_level_3",
            "political"
          ]
        },
        {
          "long_name": "St. Charles County",
          "short_name": "St Charles County",
          "types": [
            "administrative_area_level_2",
            "political"
          ]
        },
        {
          "long_name": "Missouri",
          "short_name": "MO",
          "types": [
            "administrative_area_level_1",
            "political"
          ]
        },
        {
          "long_name": "United States",
          "short_name": "US",
          "types": [
            "country",
            "political"
          ]
        }
      ],
      "formatted_address": "Boone Township, MO, USA",
      "geometry": {
        "bounds": {
          "northeast": {
            "lat": 38.8176419,
            "lng": -90.662725
          },
          "southwest": {
            "lat": 38.5341339,
            "lng": -90.964461
          }
        },
        "location": {
          "lat": 38.6917102,
          "lng": -90.86751339999999
        },
        "location_type": "APPROXIMATE",
        "viewport": {
          "northeast": {
            "lat": 38.8176419,
            "lng": -90.662725
          },
          "southwest": {
            "lat": 38.5341339,
            "lng": -90.964461
          }
        }
      },
      "place_id": "ChIJIVqOqMDN3ocRa8vmJK_U420",
      "types": [
        "administrative_area_level_3",
        "political"
      ]
    },
    {
      "address_components": [
        {
          "long_name": "St. Charles County",
          "short_name": "St Charles County",
          "types": [
            "administrative_area_level_2",
            "political"
          ]
        },
        {
          "long_name": "Missouri",
          "short_name": "MO",
          "types": [
            "administrative_area_level_1",
            "political"
          ]
        },
        {
          "long_name": "United States",
          "short_name": "US",
          "types": [
            "country",
            "political"
          ]
        }
      ],
      "formatted_address": "St Charles County, MO, USA",
      "geometry": {
        "bounds": {
          "northeast": {
            "lat": 38.96776880000001,
            "lng": -90.1091069
          },
          "southwest": {
            "lat": 38.5341339,
            "lng": -90.964461
          }
        },
        "location": {
          "lat": 38.7338885,
          "lng": -90.8294002
        },
        "location_type": "APPROXIMATE",
        "viewport": {
          "northeast": {
            "lat": 38.96776880000001,
            "lng": -90.1091069
          },
          "southwest": {
            "lat": 38.5341339,
            "lng": -90.964461
          }
        }
      },
      "place_id": "ChIJ8_ejCwAp34cR6jFA8VaN-pA",
      "types": [
        "administrative_area_level_2",
        "political"
      ]
    },
    {
      "address_components": [
        {
          "long_name": "St. Louis",
          "short_name": "St. Louis",
          "types": [
            "political"
          ]
        },
        {
          "long_name": "United States",
          "short_name": "US",
          "types": [
            "country",
            "political"
          ]
        }
      ],
      "formatted_address": "St. Louis, USA",
      "geometry": {
        "bounds": {
          "northeast": {
            "lat": 39.5233661,
            "lng": -89.138356
          },
          "southwest": {
            "lat": 37.7341961,
            "lng": -91.4186371
          }
        },
        "location": {
          "lat": 38.8196814,
          "lng": -90.4502368
        },
        "location_type": "APPROXIMATE",
        "viewport": {
          "northeast": {
            "lat": 39.5233661,
            "lng": -89.138356
          },
          "southwest": {
            "lat": 37.7341961,
            "lng": -91.4186371
          }
        }
      },
      "place_id": "ChIJneBzzj4z34cRFGg2ez6q57o",
      "types": [
        "political"
      ]
    },
    {
      "address_components": [
        {
          "long_name": "Missouri",
          "short_name": "MO",
          "types": [
            "administrative_area_level_1",
            "political"
          ]
        },
        {
          "long_name": "United States",
          "short_name": "US",
          "types": [
            "country",
            "political"
          ]
        }
      ],
      "formatted_address": "Missouri, USA",
      "geometry": {
        "bounds": {
          "northeast": {
            "lat": 40.61364,
            "lng": -89.09949399999999
          },
          "southwest": {
            "lat": 35.9956829,
            "lng": -95.774704
          }
        },
        "location": {
          "lat": 37.9642529,
          "lng": -91.8318334
        },
        "location_type": "APPROXIMATE",
        "viewport": {
          "northeast": {
            "lat": 40.61364,
            "lng": -89.09949399999999
          },
          "southwest": {
            "lat": 35.9956829,
            "lng": -95.774704
          }
        }
      },
      "place_id": "ChIJfeMiSNXmwIcRcr1mBFnEW7U",
      "types": [
        "administrative_area_level_1",
        "political"
      ]
    },
    {
      "address_components": [
        {
          "long_name": "United States",
          "short_name": "US",
          "types": [
            "country",
            "political"
          ]
        }
      ],
      "formatted_address": "United States",
      "geometry": {
        "bounds": {
          "northeast": {
            "lat": 71.3867745,
            "lng": -66.9502861
          },
          "southwest": {
            "lat": 18.9106768,
            "lng": 172.4458955
          }
        },
        "location": {
          "lat": 37.09024,
          "lng": -95.712891
        },
        "location_type": "APPROXIMATE",
        "viewport": {
          "northeast": {
            "lat": 49.38,
            "lng": -66.94
          },
          "southwest": {
            "lat": 25.82,
            "lng": -124.39
          }
        }
      },
      "place_id": "ChIJCzYy5IS16lQRQrfeQ5K5Oxw",
      "types": [
        "country",
        "political"
      ]
    }
  ],
  "status": "OK"
}
