{
  "results": [
    {
      "address_components": [
        {
          "long_name": "100-198",
          "short_name": "100-198",
          "types": [
            "street_number"
          ]
        },
        {
          "long_name": "North Juniper Avenue",
          "short_name": "N Juniper Ave",
          "types": [
            "route"
          ]
        },
        {
          "long_name": "Davenport",
          "short_name": "Davenport",
          "types": [
            "locality",
            "political"
          ]
        },
        {
          "long_name": "Davenport",
          "short_name": "Davenport",
          "types": [
            "administrative_area_level_3",
            "political"
          ]
        },
        {
          "long_name": "Thayer County",
          "short_name": "Thayer County",
          "types": [
            "administrative_area_level_2",
            "political"
          ]
        },
        {
          "long_name": "Nebraska",
          "short_name": "NE",
          "types": [
            "administrative_area_level_1",
            "political"
          ]
        },
        {
          "long_name": "United States",
          "short_name": "US",
          "types": [
            "country",
            "political"
          ]
        },
        {
          "long_name": "68335",
          "short_name": "68335",
          "types": [
            "postal_code"
          ]
        },
        {
          "long_name": "3010",
          "short_name": "3010",
          "types": [
            "postal_code_suffix"
          ]
        }
      ],
      "formatted_address": "100-198 N Juniper Ave, Davenport, NE 68335, USA",
      "geometry": {
        "bounds": {
          "northeast": {
            "lat": 40.3129041,
            "lng": -97.8104312
          },
          "southwest": {
            "lat": 40.3123973,
            "lng": -97.81182299999999
          }
        },
        "location": {
          "lat": 40.3123863,
          "lng": -97.81151349999999
        },
        "location_type": "RANGE_INTERPOLATED",
        "viewport": {
          "northeast": {
            "lat": 40.3139996802915,
            "lng": -97.8097781197085
          },
          "southwest": {
            "lat": 40.3113017197085,
            "lng": -97.8124760802915
          }
        }
      },
      "place_id": "Ei8xMDAtMTk4IE4gSnVuaXBlciBBdmUsIERhdmVucG9ydCwgTkUgNjgzMzUsIFVTQQ",
      "types": [
        "street_address"
      ]
    },
    {
      "address_components": [
        {
          "long_name": "Davenport",
          "short_name": "Davenport",
          "types": [
            "locality",
            "political"
          ]
        },
        {
          "long_name": "Davenport",
          "short_name": "Davenport",
          "types": [
            "administrative_area_level_3",
            "political"
          ]
        },
        {
          "long_name": "Thayer County",
          "short_name": "Thayer County",
          "types": [
            "administrative_area_level_2",
            "political"
          ]
        },
        {
          "long_name": "Nebraska",
          "short_name": "NE",
          "types": [
            "administrative_area_level_1",
            "political"
          ]
        },
        {
          "long_name": "United States",
          "short_name": "US",
          "types": [
            "country",
            "political"
          ]
        }
      ],
      "formatted_address": "Davenport, NE, USA",
      "geometry": {
        "bounds": {
          "northeast": {
            "lat": 40.3192049,
            "lng": -97.80222599999999
          },
          "southwest": {
            "lat": 40.307029,
            "lng": -97.82069589999999
          }
        },
        "location": {
          "lat": 40.3128941,
          "lng": -97.811833
        },
        "location_type": "APPROXIMATE",
        "viewport": {
          "northeast": {
            "lat": 40.3192049,
            "lng": -97.80222599999999
          },
          "southwest": {
            "lat": 40.307029,
            "lng": -97.82069589999999
          }
        }
      },
      "place_id": "ChIJ0UTL80AqmIcRBF-uM4JxJrg",
      "types": [
        "locality",
        "political"
      ]
    },
    {
      "address_components": [
        {
          "long_name": "68335",
          "short_name": "68335",
          "types": [
            "postal_code"
          ]
        },
        {
          "long_name": "Davenport",
          "short_name": "Davenport",
          "types": [
            "locality",
            "political"
          ]
        },
        {
          "long_name": "Nebraska",
          "short_name": "NE",
          "types": [
            "administrative_area_level_1",
            "political"
          ]
        },
        {
          "long_name": "United States",
          "short_name": "US",
          "types": [
            "country",
            "political"
          ]
        }
      ],
      "formatted_address": "Davenport, NE 68335, USA",
      "geometry": {
        "bounds": {
          "northeast": {
            "lat": 40.380376,
            "lng": -97.7457269
          },
          "southwest": {
            "lat": 40.263495,
            "lng": -97.8401579
          }
        },
        "location": {
          "lat": 40.32122469999999,
          "lng": -97.7960118
        },
        "location_type": "APPROXIMATE",
        "viewport": {
          "northeast": {
            "lat": 40.380376,
            "lng": -97.7457269
          },
          "southwest": {
            "lat": 40.263495,
            "lng": -97.8401579
          }
        }
      },
      "place_id": "ChIJ1wpSOJiAl4cRdeODFNohWVE",
      "types": [
        "postal_code"
      ]
    },
    {
      "address_components": [
        {
          "long_name": "Davenport",
          "short_name": "Davenport",
          "types": [
            "administrative_area_level_3",
            "political"
          ]
        },
        {
          "long_name": "Thayer County",
          "short_name": "Thayer County",
          "types": [
            "administrative_area_level_2",
            "political"
          ]
        },
        {
          "long_name": "Nebraska",
          "short_name": "NE",
          "types": [
            "administrative_area_level_1",
            "political"
          ]
        },
        {
          "long_name": "United States",
          "short_name": "US",
          "types": [
            "country",
            "political"
          ]
        }
      ],
      "formatted_address": "Davenport, NE, USA",
      "geometry": {
        "bounds": {
          "northeast": {
            "lat": 40.350634,
            "lng": -97.660996
          },
          "southwest": {
            "lat": 40.19064789999999,
            "lng": -97.8208159
          }
        },
        "location": {
          "lat": 40.2538053,
          "lng": -97.7416703
        },
        "location_type": "APPROXIMATE",
        "viewport": {
          "northeast": {
            "lat": 40.350634,
            "lng": -97.660996
          },
          "southwest": {
            "lat": 40.19064789999999,
            "lng": -97.8208159
          }
        }
      },
      "place_id": "ChIJG9E_xeGGl4cRuPmHlbos_Hk",
      "types": [
        "administrative_area_level_3",
        "political"
      ]
    },
    {
      "address_components": [
        {
          "long_name": "Thayer County",
          "short_name": "Thayer County",
          "types": [
            "administrative_area_level_2",
            "political"
          ]
        },
        {
          "long_name": "Nebraska",
          "short_name": "NE",
          "types": [
            "administrative_area_level_1",
            "political"
          ]
        },
        {
          "long_name": "United States",
          "short_name": "US",
          "types": [
            "country",
            "political"
          ]
        }
      ],
      "formatted_address": "Thayer County, NE, USA",
      "geometry": {
        "bounds": {
          "northeast": {
            "lat": 40.3506468,
            "lng": -97.368448
          },
          "southwest": {
            "lat": 40.001697,
            "lng": -97.82150999999999
          }
        },
        "location": {
          "lat": 40.1460895,
          "lng": -97.5247243
        },
        "location_type": "APPROXIMATE",
        "viewport": {
          "northeast": {
            "lat": 40.3506468,
            "lng": -97.368448
          },
          "southwest": {
            "lat": 40.001697,
            "lng": -97.82150999999999
          }
        }
      },
      "place_id": "ChIJ4fj9KyqOl4cR6yGqpUuZoVw",
      "types": [
        "administrative_area_level_2",
        "political"
      ]
    },
    {
      "address_components": [
        {
          "long_name": "Nebraska",
          "short_name": "NE",
          "types": [
            "administrative_area_level_1",
            "political"
          ]
        },
        {
          "long_name": "United States",
          "short_name": "US",
          "types": [
            "country",
            "political"
          ]
        }
      ],
      "formatted_address": "Nebraska, USA",
      "geometry": {
        "bounds": {
          "northeast": {
            "lat": 43.00170689999999,
            "lng": -95.30829000000001
          },
          "southwest": {
            "lat": 39.999932,
            "lng": -104.053514
          }
        },
        "location": {
          "lat": 41.4925374,
          "lng": -99.9018131
        },
        "location_type": "APPROXIMATE",
        "viewport": {
          "northeast": {
            "lat": 43.00170689999999,
            "lng": -95.30829000000001
          },
          "southwest": {
            "lat": 39.999932,
            "lng": -104.053514
          }
        }
      },
      "place_id": "ChIJ7fwMtciNk4cRxArzDwyQJ6E",
      "types": [
        "administrative_area_level_1",
        "political"
      ]
    },
    {
      "address_components": [
        {
          "long_name": "United States",
          "short_name": "US",
          "types": [
            "country",
            "political"
          ]
        }
      ],
      "formatted_address": "United States",
      "geometry": {
        "bounds": {
          "northeast": {
            "lat": 71.3867745,
            "lng": -66.9502861
          },
          "southwest": {
            "lat": 18.9106768,
            "lng": 172.4458955
          }
        },
        "location": {
          "lat": 37.09024,
          "lng": -95.712891
        },
        "location_type": "APPROXIMATE",
        "viewport": {
          "northeast": {
            "lat": 49.38,
            "lng": -66.94
          },
          "southwest": {
            "lat": 25.82,
            "lng": -124.39
          }
        }
      },
      "place_id": "ChIJCzYy5IS16lQRQrfeQ5K5Oxw",
      "types": [
        "country",
        "political"
      ]
    }
  ],
  "status": "OK"
}
