{
  "results": [
    {
      "address_components": [
        {
          "long_name": "438",
          "short_name": "438",
          "types": [
            "street_number"
          ]
        },
        {
          "long_name": "Pine Street",
          "short_name": "Pine St",
          "types": [
            "route"
          ]
        },
        {
          "long_name": "Moran",
          "short_name": "Moran",
          "types": [
            "locality",
            "political"
          ]
        },
        {
          "long_name": "Marmaton",
          "short_name": "Marmaton",
          "types": [
            "administrative_area_level_3",
            "political"
          ]
        },
        {
          "long_name": "Allen County",
          "short_name": "Allen County",
          "types": [
            "administrative_area_level_2",
            "political"
          ]
        },
        {
          "long_name": "Kansas",
          "short_name": "KS",
          "types": [
            "administrative_area_level_1",
            "political"
          ]
        },
        {
          "long_name": "United States",
          "short_name": "US",
          "types": [
            "country",
            "political"
          ]
        },
        {
          "long_name": "66755",
          "short_name": "66755",
          "types": [
            "postal_code"
          ]
        }
      ],
      "formatted_address": "438 Pine St, Moran, KS 66755, USA",
      "geometry": {
        "location": {
          "lat": 37.91749009999999,
          "lng": -95.17154939999999
        },
        "location_type": "ROOFTOP",
        "viewport": {
          "northeast": {
            "lat": 37.9188390802915,
            "lng": -95.1702004197085
          },
          "southwest": {
            "lat": 37.9161411197085,
            "lng": -95.1728983802915
          }
        }
      },
      "place_id": "ChIJXbqdhOWGuIcRPPVOrFi8bVU",
      "types": [
        "street_address"
      ]
    },
    {
      "address_components": [
        {
          "long_name": "Moran",
          "short_name": "Moran",
          "types": [
            "locality",
            "political"
          ]
        },
        {
          "long_name": "Marmaton",
          "short_name": "Marmaton",
          "types": [
            "administrative_area_level_3",
            "political"
          ]
        },
        {
          "long_name": "Allen County",
          "short_name": "Allen County",
          "types": [
            "administrative_area_level_2",
            "political"
          ]
        },
        {
          "long_name": "Kansas",
          "short_name": "KS",
          "types": [
            "administrative_area_level_1",
            "political"
          ]
        },
        {
          "long_name": "United States",
          "short_name": "US",
          "types": [
            "country",
            "political"
          ]
        },
        {
          "long_name": "66755",
          "short_name": "66755",
          "types": [
            "postal_code"
          ]
        }
      ],
      "formatted_address": "Moran, KS 66755, USA",
      "geometry": {
        "bounds": {
          "northeast": {
            "lat": 37.922747,
            "lng": -95.16501099999999
          },
          "southwest": {
            "lat": 37.910373,
            "lng": -95.179482
          }
        },
        "location": {
          "lat": 37.9161474,
          "lng": -95.17025459999999
        },
        "location_type": "APPROXIMATE",
        "viewport": {
          "northeast": {
            "lat": 37.922747,
            "lng": -95.16501099999999
          },
          "southwest": {
            "lat": 37.910373,
            "lng": -95.179482
          }
        }
      },
      "place_id": "ChIJj_5VL-qGuIcRB_O7UUyxliw",
      "types": [
        "locality",
        "political"
      ]
    },
    {
      "address_components": [
        {
          "long_name": "Marmaton",
          "short_name": "Marmaton",
          "types": [
            "administrative_area_level_3",
            "political"
          ]
        },
        {
          "long_name": "Allen County",
          "short_name": "Allen County",
          "types": [
            "administrative_area_level_2",
            "political"
          ]
        },
        {
          "long_name": "Kansas",
          "short_name": "KS",
          "types": [
            "administrative_area_level_1",
            "political"
          ]
        },
        {
          "long_name": "United States",
          "short_name": "US",
          "types": [
            "country",
            "political"
          ]
        }
      ],
      "formatted_address": "Marmaton, KS, USA",
      "geometry": {
        "bounds": {
          "northeast": {
            "lat": 37.9507058,
            "lng": -95.0789719
          },
          "southwest": {
            "lat": 37.8487358,
            "lng": -95.225858
          }
        },
        "location": {
          "lat": 37.8866405,
          "lng": -95.16406049999999
        },
        "location_type": "APPROXIMATE",
        "viewport": {
          "northeast": {
            "lat": 37.9507058,
            "lng": -95.0789719
          },
          "southwest": {
            "lat": 37.8487358,
            "lng": -95.225858
          }
        }
      },
      "place_id": "ChIJ0QQhmC-HuIcR9ygpiU4RZQY",
      "types": [
        "administrative_area_level_3",
        "political"
      ]
    },
    {
      "address_components": [
        {
          "long_name": "66755",
          "short_name": "66755",
          "types": [
            "postal_code"
          ]
        },
        {
          "long_name": "Moran",
          "short_name": "Moran",
          "types": [
            "locality",
            "political"
          ]
        },
        {
          "long_name": "Kansas",
          "short_name": "KS",
          "types": [
            "administrative_area_level_1",
            "political"
          ]
        },
        {
          "long_name": "United States",
          "short_name": "US",
          "types": [
            "country",
            "political"
          ]
        }
      ],
      "formatted_address": "Moran, KS 66755, USA",
      "geometry": {
        "bounds": {
          "northeast": {
            "lat": 38.041499,
            "lng": -95.0614669
          },
          "southwest": {
            "lat": 37.790622,
            "lng": -95.2810679
          }
        },
        "location": {
          "lat": 37.9068788,
          "lng": -95.18492189999999
        },
        "location_type": "APPROXIMATE",
        "viewport": {
          "northeast": {
            "lat": 38.041499,
            "lng": -95.0614669
          },
          "southwest": {
            "lat": 37.790622,
            "lng": -95.2810679
          }
        }
      },
      "place_id": "ChIJc04xAk-GuIcRxpzeXuoCg0k",
      "types": [
        "postal_code"
      ]
    },
    {
      "address_components": [
        {
          "long_name": "Allen County",
          "short_name": "Allen County",
          "types": [
            "administrative_area_level_2",
            "political"
          ]
        },
        {
          "long_name": "Kansas",
          "short_name": "KS",
          "types": [
            "administrative_area_level_1",
            "political"
          ]
        },
        {
          "long_name": "United States",
          "short_name": "US",
          "types": [
            "country",
            "political"
          ]
        }
      ],
      "formatted_address": "Allen County, KS, USA",
      "geometry": {
        "bounds": {
          "northeast": {
            "lat": 38.03859380000001,
            "lng": -95.0778759
          },
          "southwest": {
            "lat": 37.7323558,
            "lng": -95.5255009
          }
        },
        "location": {
          "lat": 37.9435853,
          "lng": -95.3102505
        },
        "location_type": "APPROXIMATE",
        "viewport": {
          "northeast": {
            "lat": 38.03859380000001,
            "lng": -95.0778759
          },
          "southwest": {
            "lat": 37.7323558,
            "lng": -95.5255009
          }
        }
      },
      "place_id": "ChIJdZyMHQ1huIcRPHKRSqcUfBk",
      "types": [
        "administrative_area_level_2",
        "political"
      ]
    },
    {
      "address_components": [
        {
          "long_name": "Kansas",
          "short_name": "KS",
          "types": [
            "administrative_area_level_1",
            "political"
          ]
        },
        {
          "long_name": "United States",
          "short_name": "US",
          "types": [
            "country",
            "political"
          ]
        }
      ],
      "formatted_address": "Kansas, USA",
      "geometry": {
        "bounds": {
          "northeast": {
            "lat": 40.0045419,
            "lng": -94.588387
          },
          "southwest": {
            "lat": 36.9930159,
            "lng": -102.0517688
          }
        },
        "location": {
          "lat": 39.011902,
          "lng": -98.4842465
        },
        "location_type": "APPROXIMATE",
        "viewport": {
          "northeast": {
            "lat": 40.0045419,
            "lng": -94.588387
          },
          "southwest": {
            "lat": 36.9930159,
            "lng": -102.0517688
          }
        }
      },
      "place_id": "ChIJawF8cXEXo4cRXwk-S6m0wmg",
      "types": [
        "administrative_area_level_1",
        "political"
      ]
    },
    {
      "address_components": [
        {
          "long_name": "United States",
          "short_name": "US",
          "types": [
            "country",
            "political"
          ]
        }
      ],
      "formatted_address": "United States",
      "geometry": {
        "bounds": {
          "northeast": {
            "lat": 71.3867745,
            "lng": -66.9502861
          },
          "southwest": {
            "lat": 18.9106768,
            "lng": 172.4458955
          }
        },
        "location": {
          "lat": 37.09024,
          "lng": -95.712891
        },
        "location_type": "APPROXIMATE",
        "viewport": {
          "northeast": {
            "lat": 49.38,
            "lng": -66.94
          },
          "southwest": {
            "lat": 25.82,
            "lng": -124.39
          }
        }
      },
      "place_id": "ChIJCzYy5IS16lQRQrfeQ5K5Oxw",
      "types": [
        "country",
        "political"
      ]
    }
  ],
  "status": "OK"
}
