{
  "results": [
    {
      "address_components": [
        {
          "long_name": "3188",
          "short_name": "3188",
          "types": [
            "street_number"
          ]
        },
        {
          "long_name": "U.S. 54",
          "short_name": "US-54",
          "types": [
            "route"
          ]
        },
        {
          "long_name": "Kingdom City",
          "short_name": "Kingdom City",
          "types": [
            "locality",
            "political"
          ]
        },
        {
          "long_name": "McCredie Township",
          "short_name": "McCredie Township",
          "types": [
            "administrative_area_level_3",
            "political"
          ]
        },
        {
          "long_name": "Callaway County",
          "short_name": "Callaway County",
          "types": [
            "administrative_area_level_2",
            "political"
          ]
        },
        {
          "long_name": "Missouri",
          "short_name": "MO",
          "types": [
            "administrative_area_level_1",
            "political"
          ]
        },
        {
          "long_name": "United States",
          "short_name": "US",
          "types": [
            "country",
            "political"
          ]
        },
        {
          "long_name": "65262",
          "short_name": "65262",
          "types": [
            "postal_code"
          ]
        }
      ],
      "formatted_address": "3188 US-54, Kingdom City, MO 65262, USA",
      "geometry": {
        "location": {
          "lat": 38.9457308,
          "lng": -91.940242
        },
        "location_type": "ROOFTOP",
        "viewport": {
          "northeast": {
            "lat": 38.9470797802915,
            "lng": -91.93889301970849
          },
          "southwest": {
            "lat": 38.9443818197085,
            "lng": -91.94159098029151
          }
        }
      },
      "place_id": "ChIJ9f6mC-aM3IcRsw-hOGI1buc",
      "types": [
        "street_address"
      ]
    },
    {
      "address_components": [
        {
          "long_name": "Kingdom City",
          "short_name": "Kingdom City",
          "types": [
            "locality",
            "political"
          ]
        },
        {
          "long_name": "McCredie Township",
          "short_name": "McCredie Township",
          "types": [
            "administrative_area_level_3",
            "political"
          ]
        },
        {
          "long_name": "Callaway County",
          "short_name": "Callaway County",
          "types": [
            "administrative_area_level_2",
            "political"
          ]
        },
        {
          "long_name": "Missouri",
          "short_name": "MO",
          "types": [
            "administrative_area_level_1",
            "political"
          ]
        },
        {
          "long_name": "United States",
          "short_name": "US",
          "types": [
            "country",
            "political"
          ]
        }
      ],
      "formatted_address": "Kingdom City, MO, USA",
      "geometry": {
        "bounds": {
          "northeast": {
            "lat": 38.9645731,
            "lng": -91.919158
          },
          "southwest": {
            "lat": 38.9298549,
            "lng": -91.96074689999999
          }
        },
        "location": {
          "lat": 38.952819,
          "lng": -91.9390674
        },
        "location_type": "APPROXIMATE",
        "viewport": {
          "northeast": {
            "lat": 38.9645731,
            "lng": -91.919158
          },
          "southwest": {
            "lat": 38.9298549,
            "lng": -91.96074689999999
          }
        }
      },
      "place_id": "ChIJV2Zd2uiM3IcRc0t5GFxYxmI",
      "types": [
        "locality",
        "political"
      ]
    },
    {
      "address_components": [
        {
          "long_name": "McCredie Township",
          "short_name": "McCredie Township",
          "types": [
            "administrative_area_level_3",
            "political"
          ]
        },
        {
          "long_name": "Callaway County",
          "short_name": "Callaway County",
          "types": [
            "administrative_area_level_2",
            "political"
          ]
        },
        {
          "long_name": "Missouri",
          "short_name": "MO",
          "types": [
            "administrative_area_level_1",
            "political"
          ]
        },
        {
          "long_name": "United States",
          "short_name": "US",
          "types": [
            "country",
            "political"
          ]
        }
      ],
      "formatted_address": "McCredie Township, MO, USA",
      "geometry": {
        "bounds": {
          "northeast": {
            "lat": 39.0048299,
            "lng": -91.858356
          },
          "southwest": {
            "lat": 38.9145699,
            "lng": -92.035839
          }
        },
        "location": {
          "lat": 38.9502688,
          "lng": -91.96858259999999
        },
        "location_type": "APPROXIMATE",
        "viewport": {
          "northeast": {
            "lat": 39.0048299,
            "lng": -91.858356
          },
          "southwest": {
            "lat": 38.9145699,
            "lng": -92.035839
          }
        }
      },
      "place_id": "ChIJvTY8SNiM3IcR1de4lZgZQBA",
      "types": [
        "administrative_area_level_3",
        "political"
      ]
    },
    {
      "address_components": [
        {
          "long_name": "65262",
          "short_name": "65262",
          "types": [
            "postal_code"
          ]
        },
        {
          "long_name": "Kingdom City",
          "short_name": "Kingdom City",
          "types": [
            "locality",
            "political"
          ]
        },
        {
          "long_name": "Callaway County",
          "short_name": "Callaway County",
          "types": [
            "administrative_area_level_2",
            "political"
          ]
        },
        {
          "long_name": "Missouri",
          "short_name": "MO",
          "types": [
            "administrative_area_level_1",
            "political"
          ]
        },
        {
          "long_name": "United States",
          "short_name": "US",
          "types": [
            "country",
            "political"
          ]
        }
      ],
      "formatted_address": "Kingdom City, MO 65262, USA",
      "geometry": {
        "bounds": {
          "northeast": {
            "lat": 38.997127,
            "lng": -91.7892059
          },
          "southwest": {
            "lat": 38.909954,
            "lng": -92.079174
          }
        },
        "location": {
          "lat": 38.9502688,
          "lng": -91.96858259999999
        },
        "location_type": "APPROXIMATE",
        "viewport": {
          "northeast": {
            "lat": 38.997127,
            "lng": -91.7892059
          },
          "southwest": {
            "lat": 38.909954,
            "lng": -92.079174
          }
        }
      },
      "place_id": "ChIJoXYl4s-M3IcRe2Nfez6XEAY",
      "types": [
        "postal_code"
      ]
    },
    {
      "address_components": [
        {
          "long_name": "Callaway County",
          "short_name": "Callaway County",
          "types": [
            "administrative_area_level_2",
            "political"
          ]
        },
        {
          "long_name": "Missouri",
          "short_name": "MO",
          "types": [
            "administrative_area_level_1",
            "political"
          ]
        },
        {
          "long_name": "United States",
          "short_name": "US",
          "types": [
            "country",
            "political"
          ]
        }
      ],
      "formatted_address": "Callaway County, MO, USA",
      "geometry": {
        "bounds": {
          "northeast": {
            "lat": 39.0644931,
            "lng": -91.6339979
          },
          "southwest": {
            "lat": 38.557842,
            "lng": -92.226091
          }
        },
        "location": {
          "lat": 38.8886044,
          "lng": -91.9099238
        },
        "location_type": "APPROXIMATE",
        "viewport": {
          "northeast": {
            "lat": 39.0644931,
            "lng": -91.6339979
          },
          "southwest": {
            "lat": 38.557842,
            "lng": -92.226091
          }
        }
      },
      "place_id": "ChIJwW7F7wSxw4cR3_IDVcX9V0U",
      "types": [
        "administrative_area_level_2",
        "political"
      ]
    },
    {
      "address_components": [
        {
          "long_name": "Jefferson City",
          "short_name": "Jefferson City",
          "types": [
            "political"
          ]
        },
        {
          "long_name": "Missouri",
          "short_name": "MO",
          "types": [
            "administrative_area_level_1",
            "political"
          ]
        },
        {
          "long_name": "United States",
          "short_name": "US",
          "types": [
            "country",
            "political"
          ]
        }
      ],
      "formatted_address": "Jefferson City, MO, USA",
      "geometry": {
        "bounds": {
          "northeast": {
            "lat": 39.064697,
            "lng": -91.6339991
          },
          "southwest": {
            "lat": 38.28814,
            "lng": -92.84187109999999
          }
        },
        "location": {
          "lat": 38.468187,
          "lng": -91.9881527
        },
        "location_type": "APPROXIMATE",
        "viewport": {
          "northeast": {
            "lat": 39.064697,
            "lng": -91.6339991
          },
          "southwest": {
            "lat": 38.28814,
            "lng": -92.84187109999999
          }
        }
      },
      "place_id": "ChIJS1oEHiSe3IcReDWU-udvLWw",
      "types": [
        "political"
      ]
    },
    {
      "address_components": [
        {
          "long_name": "Missouri",
          "short_name": "MO",
          "types": [
            "administrative_area_level_1",
            "political"
          ]
        },
        {
          "long_name": "United States",
          "short_name": "US",
          "types": [
            "country",
            "political"
          ]
        }
      ],
      "formatted_address": "Missouri, USA",
      "geometry": {
        "bounds": {
          "northeast": {
            "lat": 40.61364,
            "lng": -89.09949399999999
          },
          "southwest": {
            "lat": 35.9956829,
            "lng": -95.774704
          }
        },
        "location": {
          "lat": 37.9642529,
          "lng": -91.8318334
        },
        "location_type": "APPROXIMATE",
        "viewport": {
          "northeast": {
            "lat": 40.61364,
            "lng": -89.09949399999999
          },
          "southwest": {
            "lat": 35.9956829,
            "lng": -95.774704
          }
        }
      },
      "place_id": "ChIJfeMiSNXmwIcRcr1mBFnEW7U",
      "types": [
        "administrative_area_level_1",
        "political"
      ]
    },
    {
      "address_components": [
        {
          "long_name": "United States",
          "short_name": "US",
          "types": [
            "country",
            "political"
          ]
        }
      ],
      "formatted_address": "United States",
      "geometry": {
        "bounds": {
          "northeast": {
            "lat": 71.3867745,
            "lng": -66.9502861
          },
          "southwest": {
            "lat": 18.9106768,
            "lng": 172.4458955
          }
        },
        "location": {
          "lat": 37.09024,
          "lng": -95.712891
        },
        "location_type": "APPROXIMATE",
        "viewport": {
          "northeast": {
            "lat": 49.38,
            "lng": -66.94
          },
          "southwest": {
            "lat": 25.82,
            "lng": -124.39
          }
        }
      },
      "place_id": "ChIJCzYy5IS16lQRQrfeQ5K5Oxw",
      "types": [
        "country",
        "political"
      ]
    }
  ],
  "status": "OK"
}
