{
  "results": [
    {
      "address_components": [
        {
          "long_name": "23",
          "short_name": "23",
          "types": [
            "street_number"
          ]
        },
        {
          "long_name": "Fairlawn Drive",
          "short_name": "Fairlawn Dr",
          "types": [
            "route"
          ]
        },
        {
          "long_name": "Montauk",
          "short_name": "Montauk",
          "types": [
            "locality",
            "political"
          ]
        },
        {
          "long_name": "East Hampton",
          "short_name": "East Hampton",
          "types": [
            "administrative_area_level_3",
            "political"
          ]
        },
        {
          "long_name": "Suffolk County",
          "short_name": "Suffolk County",
          "types": [
            "administrative_area_level_2",
            "political"
          ]
        },
        {
          "long_name": "New York",
          "short_name": "NY",
          "types": [
            "administrative_area_level_1",
            "political"
          ]
        },
        {
          "long_name": "United States",
          "short_name": "US",
          "types": [
            "country",
            "political"
          ]
        },
        {
          "long_name": "11954",
          "short_name": "11954",
          "types": [
            "postal_code"
          ]
        },
        {
          "long_name": "5331",
          "short_name": "5331",
          "types": [
            "postal_code_suffix"
          ]
        }
      ],
      "formatted_address": "23 Fairlawn Dr, Montauk, NY 11954, USA",
      "geometry": {
        "location": {
          "lat": 41.04739199999999,
          "lng": -71.944943
        },
        "location_type": "ROOFTOP",
        "viewport": {
          "northeast": {
            "lat": 41.0487409802915,
            "lng": -71.94359401970848
          },
          "southwest": {
            "lat": 41.0460430197085,
            "lng": -71.9462919802915
          }
        }
      },
      "place_id": "ChIJrRZ_nrFU74kRfsQtoLdI6GU",
      "types": [
        "street_address"
      ]
    },
    {
      "address_components": [
        {
          "long_name": "Montauk",
          "short_name": "Montauk",
          "types": [
            "locality",
            "political"
          ]
        },
        {
          "long_name": "East Hampton",
          "short_name": "East Hampton",
          "types": [
            "administrative_area_level_3",
            "political"
          ]
        },
        {
          "long_name": "Suffolk County",
          "short_name": "Suffolk County",
          "types": [
            "administrative_area_level_2",
            "political"
          ]
        },
        {
          "long_name": "New York",
          "short_name": "NY",
          "types": [
            "administrative_area_level_1",
            "political"
          ]
        },
        {
          "long_name": "United States",
          "short_name": "US",
          "types": [
            "country",
            "political"
          ]
        }
      ],
      "formatted_address": "Montauk, NY, USA",
      "geometry": {
        "bounds": {
          "northeast": {
            "lat": 41.0858556,
            "lng": -71.85620109999999
          },
          "southwest": {
            "lat": 40.9991039,
            "lng": -72.055956
          }
        },
        "location": {
          "lat": 41.0359353,
          "lng": -71.9545146
        },
        "location_type": "APPROXIMATE",
        "viewport": {
          "northeast": {
            "lat": 41.0858556,
            "lng": -71.85620109999999
          },
          "southwest": {
            "lat": 40.9991039,
            "lng": -72.055956
          }
        }
      },
      "place_id": "ChIJ9w76UFKr6IkRT2G_wWK3LgE",
      "types": [
        "locality",
        "political"
      ]
    },
    {
      "address_components": [
        {
          "long_name": "11954",
          "short_name": "11954",
          "types": [
            "postal_code"
          ]
        },
        {
          "long_name": "Montauk",
          "short_name": "Montauk",
          "types": [
            "locality",
            "political"
          ]
        },
        {
          "long_name": "East Hampton",
          "short_name": "East Hampton",
          "types": [
            "administrative_area_level_3",
            "political"
          ]
        },
        {
          "long_name": "Suffolk County",
          "short_name": "Suffolk County",
          "types": [
            "administrative_area_level_2",
            "political"
          ]
        },
        {
          "long_name": "New York",
          "short_name": "NY",
          "types": [
            "administrative_area_level_1",
            "political"
          ]
        },
        {
          "long_name": "United States",
          "short_name": "US",
          "types": [
            "country",
            "political"
          ]
        }
      ],
      "formatted_address": "Montauk, NY 11954, USA",
      "geometry": {
        "bounds": {
          "northeast": {
            "lat": 41.0952208,
            "lng": -71.84770689999999
          },
          "southwest": {
            "lat": 40.9940541,
            "lng": -72.06269
          }
        },
        "location": {
          "lat": 41.0443143,
          "lng": -71.940134
        },
        "location_type": "APPROXIMATE",
        "viewport": {
          "northeast": {
            "lat": 41.0952208,
            "lng": -71.84770689999999
          },
          "southwest": {
            "lat": 40.9940541,
            "lng": -72.06269
          }
        }
      },
      "place_id": "ChIJxRUBCKes6IkREC3mmTfNGW4",
      "types": [
        "postal_code"
      ]
    },
    {
      "address_components": [
        {
          "long_name": "East Hampton",
          "short_name": "East Hampton",
          "types": [
            "administrative_area_level_3",
            "political"
          ]
        },
        {
          "long_name": "Suffolk County",
          "short_name": "Suffolk County",
          "types": [
            "administrative_area_level_2",
            "political"
          ]
        },
        {
          "long_name": "New York",
          "short_name": "NY",
          "types": [
            "administrative_area_level_1",
            "political"
          ]
        },
        {
          "long_name": "United States",
          "short_name": "US",
          "types": [
            "country",
            "political"
          ]
        }
      ],
      "formatted_address": "East Hampton, NY, USA",
      "geometry": {
        "bounds": {
          "northeast": {
            "lat": 41.124145,
            "lng": -71.8562029
          },
          "southwest": {
            "lat": 40.9237119,
            "lng": -72.296179
          }
        },
        "location": {
          "lat": 41.083151,
          "lng": -71.9994067
        },
        "location_type": "APPROXIMATE",
        "viewport": {
          "northeast": {
            "lat": 41.124145,
            "lng": -71.8562029
          },
          "southwest": {
            "lat": 40.9237119,
            "lng": -72.296179
          }
        }
      },
      "place_id": "ChIJt4t0DgWs6IkRUU8e_gBUcys",
      "types": [
        "administrative_area_level_3",
        "political"
      ]
    },
    {
      "address_components": [
        {
          "long_name": "Suffolk County",
          "short_name": "Suffolk County",
          "types": [
            "administrative_area_level_2",
            "political"
          ]
        },
        {
          "long_name": "New York",
          "short_name": "NY",
          "types": [
            "administrative_area_level_1",
            "political"
          ]
        },
        {
          "long_name": "United States",
          "short_name": "US",
          "types": [
            "country",
            "political"
          ]
        }
      ],
      "formatted_address": "Suffolk County, NY, USA",
      "geometry": {
        "bounds": {
          "northeast": {
            "lat": 41.2923797,
            "lng": -71.8562082
          },
          "southwest": {
            "lat": 40.6094203,
            "lng": -73.497125
          }
        },
        "location": {
          "lat": 40.9848784,
          "lng": -72.61511689999999
        },
        "location_type": "APPROXIMATE",
        "viewport": {
          "northeast": {
            "lat": 41.2923194,
            "lng": -71.8562082
          },
          "southwest": {
            "lat": 40.6094203,
            "lng": -73.497125
          }
        }
      },
      "place_id": "ChIJ1_mbyICu4IkRU18dDUkMxJU",
      "types": [
        "administrative_area_level_2",
        "political"
      ]
    },
    {
      "address_components": [
        {
          "long_name": "New York",
          "short_name": "NY",
          "types": [
            "administrative_area_level_1",
            "political"
          ]
        },
        {
          "long_name": "United States",
          "short_name": "US",
          "types": [
            "country",
            "political"
          ]
        }
      ],
      "formatted_address": "New York, USA",
      "geometry": {
        "bounds": {
          "northeast": {
            "lat": 45.015865,
            "lng": -71.85620639999999
          },
          "southwest": {
            "lat": 40.496091,
            "lng": -79.76214379999999
          }
        },
        "location": {
          "lat": 43.2994285,
          "lng": -74.21793260000001
        },
        "location_type": "APPROXIMATE",
        "viewport": {
          "northeast": {
            "lat": 45.015859,
            "lng": -71.85620639999999
          },
          "southwest": {
            "lat": 40.496091,
            "lng": -79.76214379999999
          }
        }
      },
      "place_id": "ChIJqaUj8fBLzEwRZ5UY3sHGz90",
      "types": [
        "administrative_area_level_1",
        "political"
      ]
    },
    {
      "address_components": [
        {
          "long_name": "United States",
          "short_name": "US",
          "types": [
            "country",
            "political"
          ]
        }
      ],
      "formatted_address": "United States",
      "geometry": {
        "bounds": {
          "northeast": {
            "lat": 71.3867745,
            "lng": -66.9502861
          },
          "southwest": {
            "lat": 18.9106768,
            "lng": 172.4458955
          }
        },
        "location": {
          "lat": 37.09024,
          "lng": -95.712891
        },
        "location_type": "APPROXIMATE",
        "viewport": {
          "northeast": {
            "lat": 49.38,
            "lng": -66.94
          },
          "southwest": {
            "lat": 25.82,
            "lng": -124.39
          }
        }
      },
      "place_id": "ChIJCzYy5IS16lQRQrfeQ5K5Oxw",
      "types": [
        "country",
        "political"
      ]
    }
  ],
  "status": "OK"
}
