{
  "results": [
    {
      "address_components": [
        {
          "long_name": "314",
          "short_name": "314",
          "types": [
            "street_number"
          ]
        },
        {
          "long_name": "Main Street",
          "short_name": "Main St",
          "types": [
            "route"
          ]
        },
        {
          "long_name": "Lewellen",
          "short_name": "Lewellen",
          "types": [
            "locality",
            "political"
          ]
        },
        {
          "long_name": "Blue Creek",
          "short_name": "Blue Creek",
          "types": [
            "administrative_area_level_3",
            "political"
          ]
        },
        {
          "long_name": "Garden County",
          "short_name": "Garden County",
          "types": [
            "administrative_area_level_2",
            "political"
          ]
        },
        {
          "long_name": "Nebraska",
          "short_name": "NE",
          "types": [
            "administrative_area_level_1",
            "political"
          ]
        },
        {
          "long_name": "United States",
          "short_name": "US",
          "types": [
            "country",
            "political"
          ]
        },
        {
          "long_name": "69147",
          "short_name": "69147",
          "types": [
            "postal_code"
          ]
        }
      ],
      "formatted_address": "314 Main St, Lewellen, NE 69147, USA",
      "geometry": {
        "location": {
          "lat": 41.33041120000001,
          "lng": -102.1441263
        },
        "location_type": "ROOFTOP",
        "viewport": {
          "northeast": {
            "lat": 41.33176018029151,
            "lng": -102.1427773197085
          },
          "southwest": {
            "lat": 41.32906221970851,
            "lng": -102.1454752802915
          }
        }
      },
      "place_id": "ChIJEcGpzT7UcIcRwxTkknDL8rw",
      "types": [
        "street_address"
      ]
    },
    {
      "address_components": [
        {
          "long_name": "Lewellen",
          "short_name": "Lewellen",
          "types": [
            "locality",
            "political"
          ]
        },
        {
          "long_name": "Blue Creek",
          "short_name": "Blue Creek",
          "types": [
            "administrative_area_level_3",
            "political"
          ]
        },
        {
          "long_name": "Garden County",
          "short_name": "Garden County",
          "types": [
            "administrative_area_level_2",
            "political"
          ]
        },
        {
          "long_name": "Nebraska",
          "short_name": "NE",
          "types": [
            "administrative_area_level_1",
            "political"
          ]
        },
        {
          "long_name": "United States",
          "short_name": "US",
          "types": [
            "country",
            "political"
          ]
        },
        {
          "long_name": "69147",
          "short_name": "69147",
          "types": [
            "postal_code"
          ]
        }
      ],
      "formatted_address": "Lewellen, NE 69147, USA",
      "geometry": {
        "bounds": {
          "northeast": {
            "lat": 41.3378939,
            "lng": -102.1354069
          },
          "southwest": {
            "lat": 41.3226401,
            "lng": -102.1565481
          }
        },
        "location": {
          "lat": 41.3313749,
          "lng": -102.1437951
        },
        "location_type": "APPROXIMATE",
        "viewport": {
          "northeast": {
            "lat": 41.3378939,
            "lng": -102.1354069
          },
          "southwest": {
            "lat": 41.3226401,
            "lng": -102.1565481
          }
        }
      },
      "place_id": "ChIJHQAu2RXUcIcRbLovYqW1ukE",
      "types": [
        "locality",
        "political"
      ]
    },
    {
      "address_components": [
        {
          "long_name": "Blue Creek",
          "short_name": "Blue Creek",
          "types": [
            "administrative_area_level_3",
            "political"
          ]
        },
        {
          "long_name": "Garden County",
          "short_name": "Garden County",
          "types": [
            "administrative_area_level_2",
            "political"
          ]
        },
        {
          "long_name": "Nebraska",
          "short_name": "NE",
          "types": [
            "administrative_area_level_1",
            "political"
          ]
        },
        {
          "long_name": "United States",
          "short_name": "US",
          "types": [
            "country",
            "political"
          ]
        }
      ],
      "formatted_address": "Blue Creek, NE, USA",
      "geometry": {
        "bounds": {
          "northeast": {
            "lat": 42.0091879,
            "lng": -101.984429
          },
          "southwest": {
            "lat": 41.2213451,
            "lng": -102.247128
          }
        },
        "location": {
          "lat": 41.6338219,
          "lng": -102.1175404
        },
        "location_type": "APPROXIMATE",
        "viewport": {
          "northeast": {
            "lat": 42.0091879,
            "lng": -101.984429
          },
          "southwest": {
            "lat": 41.2213451,
            "lng": -102.247128
          }
        }
      },
      "place_id": "ChIJPdKMMg21cIcReGb3DTl1EE4",
      "types": [
        "administrative_area_level_3",
        "political"
      ]
    },
    {
      "address_components": [
        {
          "long_name": "69147",
          "short_name": "69147",
          "types": [
            "postal_code"
          ]
        },
        {
          "long_name": "Lewellen",
          "short_name": "Lewellen",
          "types": [
            "locality",
            "political"
          ]
        },
        {
          "long_name": "Nebraska",
          "short_name": "NE",
          "types": [
            "administrative_area_level_1",
            "political"
          ]
        },
        {
          "long_name": "United States",
          "short_name": "US",
          "types": [
            "country",
            "political"
          ]
        }
      ],
      "formatted_address": "Lewellen, NE 69147, USA",
      "geometry": {
        "bounds": {
          "northeast": {
            "lat": 41.854195,
            "lng": -101.8727679
          },
          "southwest": {
            "lat": 41.282433,
            "lng": -102.301654
          }
        },
        "location": {
          "lat": 41.5550982,
          "lng": -102.1175404
        },
        "location_type": "APPROXIMATE",
        "viewport": {
          "northeast": {
            "lat": 41.854195,
            "lng": -101.8727679
          },
          "southwest": {
            "lat": 41.282433,
            "lng": -102.301654
          }
        }
      },
      "place_id": "ChIJm_k7c57LcIcRPEfyhWjXeRk",
      "types": [
        "postal_code"
      ]
    },
    {
      "address_components": [
        {
          "long_name": "Garden County",
          "short_name": "Garden County",
          "types": [
            "administrative_area_level_2",
            "political"
          ]
        },
        {
          "long_name": "Nebraska",
          "short_name": "NE",
          "types": [
            "administrative_area_level_1",
            "political"
          ]
        },
        {
          "long_name": "United States",
          "short_name": "US",
          "types": [
            "country",
            "political"
          ]
        }
      ],
      "formatted_address": "Garden County, NE, USA",
      "geometry": {
        "bounds": {
          "northeast": {
            "lat": 42.0091879,
            "lng": -101.984429
          },
          "southwest": {
            "lat": 41.2213451,
            "lng": -102.6790929
          }
        },
        "location": {
          "lat": 41.7369721,
          "lng": -102.2547919
        },
        "location_type": "APPROXIMATE",
        "viewport": {
          "northeast": {
            "lat": 42.0091879,
            "lng": -101.984429
          },
          "southwest": {
            "lat": 41.2213451,
            "lng": -102.6790929
          }
        }
      },
      "place_id": "ChIJTSkxgya7cIcRUuIuxd-FQlc",
      "types": [
        "administrative_area_level_2",
        "political"
      ]
    },
    {
      "address_components": [
        {
          "long_name": "Nebraska",
          "short_name": "NE",
          "types": [
            "administrative_area_level_1",
            "political"
          ]
        },
        {
          "long_name": "United States",
          "short_name": "US",
          "types": [
            "country",
            "political"
          ]
        }
      ],
      "formatted_address": "Nebraska, USA",
      "geometry": {
        "bounds": {
          "northeast": {
            "lat": 43.00170689999999,
            "lng": -95.30829000000001
          },
          "southwest": {
            "lat": 39.999932,
            "lng": -104.053514
          }
        },
        "location": {
          "lat": 41.4925374,
          "lng": -99.9018131
        },
        "location_type": "APPROXIMATE",
        "viewport": {
          "northeast": {
            "lat": 43.00170689999999,
            "lng": -95.30829000000001
          },
          "southwest": {
            "lat": 39.999932,
            "lng": -104.053514
          }
        }
      },
      "place_id": "ChIJ7fwMtciNk4cRxArzDwyQJ6E",
      "types": [
        "administrative_area_level_1",
        "political"
      ]
    },
    {
      "address_components": [
        {
          "long_name": "United States",
          "short_name": "US",
          "types": [
            "country",
            "political"
          ]
        }
      ],
      "formatted_address": "United States",
      "geometry": {
        "bounds": {
          "northeast": {
            "lat": 71.3867745,
            "lng": -66.9502861
          },
          "southwest": {
            "lat": 18.9106768,
            "lng": 172.4458955
          }
        },
        "location": {
          "lat": 37.09024,
          "lng": -95.712891
        },
        "location_type": "APPROXIMATE",
        "viewport": {
          "northeast": {
            "lat": 49.38,
            "lng": -66.94
          },
          "southwest": {
            "lat": 25.82,
            "lng": -124.39
          }
        }
      },
      "place_id": "ChIJCzYy5IS16lQRQrfeQ5K5Oxw",
      "types": [
        "country",
        "political"
      ]
    }
  ],
  "status": "OK"
}
