{
  "results": [
    {
      "address_components": [
        {
          "long_name": "204",
          "short_name": "204",
          "types": [
            "street_number"
          ]
        },
        {
          "long_name": "Kansas Avenue",
          "short_name": "Kansas Ave",
          "types": [
            "route"
          ]
        },
        {
          "long_name": "Riley",
          "short_name": "Riley",
          "types": [
            "locality",
            "political"
          ]
        },
        {
          "long_name": "Madison",
          "short_name": "Madison",
          "types": [
            "administrative_area_level_3",
            "political"
          ]
        },
        {
          "long_name": "Riley County",
          "short_name": "Riley County",
          "types": [
            "administrative_area_level_2",
            "political"
          ]
        },
        {
          "long_name": "Kansas",
          "short_name": "KS",
          "types": [
            "administrative_area_level_1",
            "political"
          ]
        },
        {
          "long_name": "United States",
          "short_name": "US",
          "types": [
            "country",
            "political"
          ]
        },
        {
          "long_name": "66531",
          "short_name": "66531",
          "types": [
            "postal_code"
          ]
        }
      ],
      "formatted_address": "204 Kansas Ave, Riley, KS 66531, USA",
      "geometry": {
        "location": {
          "lat": 39.2989999,
          "lng": -96.8267223
        },
        "location_type": "ROOFTOP",
        "viewport": {
          "northeast": {
            "lat": 39.30034888029149,
            "lng": -96.8253733197085
          },
          "southwest": {
            "lat": 39.2976509197085,
            "lng": -96.82807128029151
          }
        }
      },
      "place_id": "ChIJBUczUfC5vYcRcNb5QgVQyDE",
      "types": [
        "street_address"
      ]
    },
    {
      "address_components": [
        {
          "long_name": "Riley",
          "short_name": "Riley",
          "types": [
            "locality",
            "political"
          ]
        },
        {
          "long_name": "Madison",
          "short_name": "Madison",
          "types": [
            "administrative_area_level_3",
            "political"
          ]
        },
        {
          "long_name": "Riley County",
          "short_name": "Riley County",
          "types": [
            "administrative_area_level_2",
            "political"
          ]
        },
        {
          "long_name": "Kansas",
          "short_name": "KS",
          "types": [
            "administrative_area_level_1",
            "political"
          ]
        },
        {
          "long_name": "United States",
          "short_name": "US",
          "types": [
            "country",
            "political"
          ]
        },
        {
          "long_name": "66531",
          "short_name": "66531",
          "types": [
            "postal_code"
          ]
        }
      ],
      "formatted_address": "Riley, KS 66531, USA",
      "geometry": {
        "bounds": {
          "northeast": {
            "lat": 39.306534,
            "lng": -96.817285
          },
          "southwest": {
            "lat": 39.2937499,
            "lng": -96.84004089999999
          }
        },
        "location": {
          "lat": 39.29888529999999,
          "lng": -96.8308436
        },
        "location_type": "APPROXIMATE",
        "viewport": {
          "northeast": {
            "lat": 39.3037688,
            "lng": -96.817285
          },
          "southwest": {
            "lat": 39.2937499,
            "lng": -96.84004089999999
          }
        }
      },
      "place_id": "ChIJZ2Zw6vC5vYcRKoEslYcARWQ",
      "types": [
        "locality",
        "political"
      ]
    },
    {
      "address_components": [
        {
          "long_name": "66531",
          "short_name": "66531",
          "types": [
            "postal_code"
          ]
        },
        {
          "long_name": "Riley",
          "short_name": "Riley",
          "types": [
            "locality",
            "political"
          ]
        },
        {
          "long_name": "Riley County",
          "short_name": "Riley County",
          "types": [
            "administrative_area_level_2",
            "political"
          ]
        },
        {
          "long_name": "Kansas",
          "short_name": "KS",
          "types": [
            "administrative_area_level_1",
            "political"
          ]
        },
        {
          "long_name": "United States",
          "short_name": "US",
          "types": [
            "country",
            "political"
          ]
        }
      ],
      "formatted_address": "Riley, KS 66531, USA",
      "geometry": {
        "bounds": {
          "northeast": {
            "lat": 39.350082,
            "lng": -96.73778089999999
          },
          "southwest": {
            "lat": 39.1935199,
            "lng": -96.96091
          }
        },
        "location": {
          "lat": 39.2666013,
          "lng": -96.81366419999999
        },
        "location_type": "APPROXIMATE",
        "viewport": {
          "northeast": {
            "lat": 39.350082,
            "lng": -96.73778089999999
          },
          "southwest": {
            "lat": 39.1935199,
            "lng": -96.96091
          }
        }
      },
      "place_id": "ChIJhdNZLbq2vYcR0MzJrbRhUKo",
      "types": [
        "postal_code"
      ]
    },
    {
      "address_components": [
        {
          "long_name": "Madison",
          "short_name": "Madison",
          "types": [
            "administrative_area_level_3",
            "political"
          ]
        },
        {
          "long_name": "Riley County",
          "short_name": "Riley County",
          "types": [
            "administrative_area_level_2",
            "political"
          ]
        },
        {
          "long_name": "Kansas",
          "short_name": "KS",
          "types": [
            "administrative_area_level_1",
            "political"
          ]
        },
        {
          "long_name": "United States",
          "short_name": "US",
          "types": [
            "country",
            "political"
          ]
        }
      ],
      "formatted_address": "Madison, KS, USA",
      "geometry": {
        "bounds": {
          "northeast": {
            "lat": 39.335288,
            "lng": -96.6818541
          },
          "southwest": {
            "lat": 39.0797528,
            "lng": -96.9617068
          }
        },
        "location": {
          "lat": 39.2252321,
          "lng": -96.81366419999999
        },
        "location_type": "APPROXIMATE",
        "viewport": {
          "northeast": {
            "lat": 39.335288,
            "lng": -96.6818541
          },
          "southwest": {
            "lat": 39.0797528,
            "lng": -96.9617068
          }
        }
      },
      "place_id": "ChIJcysQ9qa2vYcR6fEuXw-ujXg",
      "types": [
        "administrative_area_level_3",
        "political"
      ]
    },
    {
      "address_components": [
        {
          "long_name": "Riley County",
          "short_name": "Riley County",
          "types": [
            "administrative_area_level_2",
            "political"
          ]
        },
        {
          "long_name": "Kansas",
          "short_name": "KS",
          "types": [
            "administrative_area_level_1",
            "political"
          ]
        },
        {
          "long_name": "United States",
          "short_name": "US",
          "types": [
            "country",
            "political"
          ]
        }
      ],
      "formatted_address": "Riley County, KS, USA",
      "geometry": {
        "bounds": {
          "northeast": {
            "lat": 39.566587,
            "lng": -96.3888838
          },
          "southwest": {
            "lat": 39.04323189999999,
            "lng": -96.9617068
          }
        },
        "location": {
          "lat": 39.3686475,
          "lng": -96.83509989999999
        },
        "location_type": "APPROXIMATE",
        "viewport": {
          "northeast": {
            "lat": 39.566587,
            "lng": -96.3888838
          },
          "southwest": {
            "lat": 39.04323189999999,
            "lng": -96.9617068
          }
        }
      },
      "place_id": "ChIJLWPDRO-3vYcR2I0x8SjEITk",
      "types": [
        "administrative_area_level_2",
        "political"
      ]
    },
    {
      "address_components": [
        {
          "long_name": "Manhattan",
          "short_name": "Manhattan",
          "types": [
            "political"
          ]
        },
        {
          "long_name": "Kansas",
          "short_name": "KS",
          "types": [
            "administrative_area_level_1",
            "political"
          ]
        },
        {
          "long_name": "United States",
          "short_name": "US",
          "types": [
            "country",
            "political"
          ]
        }
      ],
      "formatted_address": "Manhattan, KS, USA",
      "geometry": {
        "bounds": {
          "northeast": {
            "lat": 39.566627,
            "lng": -96.03464699999999
          },
          "southwest": {
            "lat": 38.869704,
            "lng": -96.96371099999999
          }
        },
        "location": {
          "lat": 39.3008165,
          "lng": -96.57833869999999
        },
        "location_type": "APPROXIMATE",
        "viewport": {
          "northeast": {
            "lat": 39.566627,
            "lng": -96.03464699999999
          },
          "southwest": {
            "lat": 38.869704,
            "lng": -96.96371099999999
          }
        }
      },
      "place_id": "ChIJQ5V00znQvYcR0gfAcC1VuHQ",
      "types": [
        "political"
      ]
    },
    {
      "address_components": [
        {
          "long_name": "Kansas",
          "short_name": "KS",
          "types": [
            "administrative_area_level_1",
            "political"
          ]
        },
        {
          "long_name": "United States",
          "short_name": "US",
          "types": [
            "country",
            "political"
          ]
        }
      ],
      "formatted_address": "Kansas, USA",
      "geometry": {
        "bounds": {
          "northeast": {
            "lat": 40.0045419,
            "lng": -94.588387
          },
          "southwest": {
            "lat": 36.9930159,
            "lng": -102.0517688
          }
        },
        "location": {
          "lat": 39.011902,
          "lng": -98.4842465
        },
        "location_type": "APPROXIMATE",
        "viewport": {
          "northeast": {
            "lat": 40.0045419,
            "lng": -94.588387
          },
          "southwest": {
            "lat": 36.9930159,
            "lng": -102.0517688
          }
        }
      },
      "place_id": "ChIJawF8cXEXo4cRXwk-S6m0wmg",
      "types": [
        "administrative_area_level_1",
        "political"
      ]
    },
    {
      "address_components": [
        {
          "long_name": "United States",
          "short_name": "US",
          "types": [
            "country",
            "political"
          ]
        }
      ],
      "formatted_address": "United States",
      "geometry": {
        "bounds": {
          "northeast": {
            "lat": 71.3867745,
            "lng": -66.9502861
          },
          "southwest": {
            "lat": 18.9106768,
            "lng": 172.4458955
          }
        },
        "location": {
          "lat": 37.09024,
          "lng": -95.712891
        },
        "location_type": "APPROXIMATE",
        "viewport": {
          "northeast": {
            "lat": 49.38,
            "lng": -66.94
          },
          "southwest": {
            "lat": 25.82,
            "lng": -124.39
          }
        }
      },
      "place_id": "ChIJCzYy5IS16lQRQrfeQ5K5Oxw",
      "types": [
        "country",
        "political"
      ]
    }
  ],
  "status": "OK"
}
