{
  "results": [
    {
      "address_components": [
        {
          "long_name": "1203",
          "short_name": "1203",
          "types": [
            "street_number"
          ]
        },
        {
          "long_name": "Montevale Court",
          "short_name": "Montevale Ct",
          "types": [
            "route"
          ]
        },
        {
          "long_name": "Fenton",
          "short_name": "Fenton",
          "types": [
            "locality",
            "political"
          ]
        },
        {
          "long_name": "Bonhomme Township",
          "short_name": "Bonhomme Township",
          "types": [
            "administrative_area_level_3",
            "political"
          ]
        },
        {
          "long_name": "St. Louis County",
          "short_name": "St Louis County",
          "types": [
            "administrative_area_level_2",
            "political"
          ]
        },
        {
          "long_name": "Missouri",
          "short_name": "MO",
          "types": [
            "administrative_area_level_1",
            "political"
          ]
        },
        {
          "long_name": "United States",
          "short_name": "US",
          "types": [
            "country",
            "political"
          ]
        },
        {
          "long_name": "63026",
          "short_name": "63026",
          "types": [
            "postal_code"
          ]
        },
        {
          "long_name": "3019",
          "short_name": "3019",
          "types": [
            "postal_code_suffix"
          ]
        }
      ],
      "formatted_address": "1203 Montevale Ct, Fenton, MO 63026, USA",
      "geometry": {
        "location": {
          "lat": 38.52797,
          "lng": -90.448835
        },
        "location_type": "ROOFTOP",
        "viewport": {
          "northeast": {
            "lat": 38.52931898029149,
            "lng": -90.4474860197085
          },
          "southwest": {
            "lat": 38.5266210197085,
            "lng": -90.45018398029151
          }
        }
      },
      "place_id": "ChIJGXk17CrO2IcRlfllrqc17t0",
      "types": [
        "street_address"
      ]
    },
    {
      "address_components": [
        {
          "long_name": "Fenton",
          "short_name": "Fenton",
          "types": [
            "locality",
            "political"
          ]
        },
        {
          "long_name": "Bonhomme Township",
          "short_name": "Bonhomme Township",
          "types": [
            "administrative_area_level_3",
            "political"
          ]
        },
        {
          "long_name": "St. Louis County",
          "short_name": "St Louis County",
          "types": [
            "administrative_area_level_2",
            "political"
          ]
        },
        {
          "long_name": "Missouri",
          "short_name": "MO",
          "types": [
            "administrative_area_level_1",
            "political"
          ]
        },
        {
          "long_name": "United States",
          "short_name": "US",
          "types": [
            "country",
            "political"
          ]
        }
      ],
      "formatted_address": "Fenton, MO, USA",
      "geometry": {
        "bounds": {
          "northeast": {
            "lat": 38.557153,
            "lng": -90.4053189
          },
          "southwest": {
            "lat": 38.500853,
            "lng": -90.47629700000002
          }
        },
        "location": {
          "lat": 38.5126456,
          "lng": -90.4429881
        },
        "location_type": "APPROXIMATE",
        "viewport": {
          "northeast": {
            "lat": 38.557153,
            "lng": -90.4053189
          },
          "southwest": {
            "lat": 38.500853,
            "lng": -90.47629700000002
          }
        }
      },
      "place_id": "ChIJD8Er8mrQ2IcRFYdMhBzMqqU",
      "types": [
        "locality",
        "political"
      ]
    },
    {
      "address_components": [
        {
          "long_name": "Bonhomme Township",
          "short_name": "Bonhomme Township",
          "types": [
            "administrative_area_level_3",
            "political"
          ]
        },
        {
          "long_name": "St. Louis County",
          "short_name": "St Louis County",
          "types": [
            "administrative_area_level_2",
            "political"
          ]
        },
        {
          "long_name": "Missouri",
          "short_name": "MO",
          "types": [
            "administrative_area_level_1",
            "political"
          ]
        },
        {
          "long_name": "United States",
          "short_name": "US",
          "types": [
            "country",
            "political"
          ]
        }
      ],
      "formatted_address": "Bonhomme Township, MO, USA",
      "geometry": {
        "bounds": {
          "northeast": {
            "lat": 38.6036518,
            "lng": -90.37711709999999
          },
          "southwest": {
            "lat": 38.500853,
            "lng": -90.475521
          }
        },
        "location": {
          "lat": 38.557715,
          "lng": -90.44080369999999
        },
        "location_type": "APPROXIMATE",
        "viewport": {
          "northeast": {
            "lat": 38.6036518,
            "lng": -90.37711709999999
          },
          "southwest": {
            "lat": 38.500853,
            "lng": -90.475521
          }
        }
      },
      "place_id": "ChIJR0OpDWbO2IcR8_NkzSwZijA",
      "types": [
        "administrative_area_level_3",
        "political"
      ]
    },
    {
      "address_components": [
        {
          "long_name": "63026",
          "short_name": "63026",
          "types": [
            "postal_code"
          ]
        },
        {
          "long_name": "Fenton",
          "short_name": "Fenton",
          "types": [
            "locality",
            "political"
          ]
        },
        {
          "long_name": "Missouri",
          "short_name": "MO",
          "types": [
            "administrative_area_level_1",
            "political"
          ]
        },
        {
          "long_name": "United States",
          "short_name": "US",
          "types": [
            "country",
            "political"
          ]
        }
      ],
      "formatted_address": "Fenton, MO 63026, USA",
      "geometry": {
        "bounds": {
          "northeast": {
            "lat": 38.5596441,
            "lng": -90.40526179999999
          },
          "southwest": {
            "lat": 38.44058,
            "lng": -90.5160328
          }
        },
        "location": {
          "lat": 38.494606,
          "lng": -90.45967209999999
        },
        "location_type": "APPROXIMATE",
        "viewport": {
          "northeast": {
            "lat": 38.5596441,
            "lng": -90.40526179999999
          },
          "southwest": {
            "lat": 38.44058,
            "lng": -90.5160328
          }
        }
      },
      "place_id": "ChIJk6pRRBPQ2IcR6-XY8Eap6HY",
      "types": [
        "postal_code"
      ]
    },
    {
      "address_components": [
        {
          "long_name": "St. Louis County",
          "short_name": "St Louis County",
          "types": [
            "administrative_area_level_2",
            "political"
          ]
        },
        {
          "long_name": "Missouri",
          "short_name": "MO",
          "types": [
            "administrative_area_level_1",
            "political"
          ]
        },
        {
          "long_name": "United States",
          "short_name": "US",
          "types": [
            "country",
            "political"
          ]
        }
      ],
      "formatted_address": "St Louis County, MO, USA",
      "geometry": {
        "bounds": {
          "northeast": {
            "lat": 38.8911839,
            "lng": -90.11770709999999
          },
          "southwest": {
            "lat": 38.396902,
            "lng": -90.7365301
          }
        },
        "location": {
          "lat": 38.6103023,
          "lng": -90.4125181
        },
        "location_type": "APPROXIMATE",
        "viewport": {
          "northeast": {
            "lat": 38.8911839,
            "lng": -90.11770709999999
          },
          "southwest": {
            "lat": 38.396902,
            "lng": -90.7365301
          }
        }
      },
      "place_id": "ChIJBe3muPnK2IcRO8QfrOB9Xn0",
      "types": [
        "administrative_area_level_2",
        "political"
      ]
    },
    {
      "address_components": [
        {
          "long_name": "St. Louis",
          "short_name": "St. Louis",
          "types": [
            "political"
          ]
        },
        {
          "long_name": "United States",
          "short_name": "US",
          "types": [
            "country",
            "political"
          ]
        }
      ],
      "formatted_address": "St. Louis, USA",
      "geometry": {
        "bounds": {
          "northeast": {
            "lat": 39.5233661,
            "lng": -89.138356
          },
          "southwest": {
            "lat": 37.7341961,
            "lng": -91.4186371
          }
        },
        "location": {
          "lat": 38.8196814,
          "lng": -90.4502368
        },
        "location_type": "APPROXIMATE",
        "viewport": {
          "northeast": {
            "lat": 39.5233661,
            "lng": -89.138356
          },
          "southwest": {
            "lat": 37.7341961,
            "lng": -91.4186371
          }
        }
      },
      "place_id": "ChIJneBzzj4z34cRFGg2ez6q57o",
      "types": [
        "political"
      ]
    },
    {
      "address_components": [
        {
          "long_name": "Missouri",
          "short_name": "MO",
          "types": [
            "administrative_area_level_1",
            "political"
          ]
        },
        {
          "long_name": "United States",
          "short_name": "US",
          "types": [
            "country",
            "political"
          ]
        }
      ],
      "formatted_address": "Missouri, USA",
      "geometry": {
        "bounds": {
          "northeast": {
            "lat": 40.61364,
            "lng": -89.09949399999999
          },
          "southwest": {
            "lat": 35.9956829,
            "lng": -95.774704
          }
        },
        "location": {
          "lat": 37.9642529,
          "lng": -91.8318334
        },
        "location_type": "APPROXIMATE",
        "viewport": {
          "northeast": {
            "lat": 40.61364,
            "lng": -89.09949399999999
          },
          "southwest": {
            "lat": 35.9956829,
            "lng": -95.774704
          }
        }
      },
      "place_id": "ChIJfeMiSNXmwIcRcr1mBFnEW7U",
      "types": [
        "administrative_area_level_1",
        "political"
      ]
    },
    {
      "address_components": [
        {
          "long_name": "United States",
          "short_name": "US",
          "types": [
            "country",
            "political"
          ]
        }
      ],
      "formatted_address": "United States",
      "geometry": {
        "bounds": {
          "northeast": {
            "lat": 71.3867745,
            "lng": -66.9502861
          },
          "southwest": {
            "lat": 18.9106768,
            "lng": 172.4458955
          }
        },
        "location": {
          "lat": 37.09024,
          "lng": -95.712891
        },
        "location_type": "APPROXIMATE",
        "viewport": {
          "northeast": {
            "lat": 49.38,
            "lng": -66.94
          },
          "southwest": {
            "lat": 25.82,
            "lng": -124.39
          }
        }
      },
      "place_id": "ChIJCzYy5IS16lQRQrfeQ5K5Oxw",
      "types": [
        "country",
        "political"
      ]
    }
  ],
  "status": "OK"
}
