{
  "results": [
    {
      "address_components": [
        {
          "long_name": "76",
          "short_name": "76",
          "types": [
            "street_number"
          ]
        },
        {
          "long_name": "Smith Street",
          "short_name": "Smith St",
          "types": [
            "route"
          ]
        },
        {
          "long_name": "Glen Head",
          "short_name": "Glen Head",
          "types": [
            "locality",
            "political"
          ]
        },
        {
          "long_name": "Oyster Bay",
          "short_name": "Oyster Bay",
          "types": [
            "administrative_area_level_3",
            "political"
          ]
        },
        {
          "long_name": "Nassau County",
          "short_name": "Nassau County",
          "types": [
            "administrative_area_level_2",
            "political"
          ]
        },
        {
          "long_name": "New York",
          "short_name": "NY",
          "types": [
            "administrative_area_level_1",
            "political"
          ]
        },
        {
          "long_name": "United States",
          "short_name": "US",
          "types": [
            "country",
            "political"
          ]
        },
        {
          "long_name": "11545",
          "short_name": "11545",
          "types": [
            "postal_code"
          ]
        },
        {
          "long_name": "1206",
          "short_name": "1206",
          "types": [
            "postal_code_suffix"
          ]
        }
      ],
      "formatted_address": "76 Smith St, Glen Head, NY 11545, USA",
      "geometry": {
        "location": {
          "lat": 40.829652,
          "lng": -73.637462
        },
        "location_type": "ROOFTOP",
        "viewport": {
          "northeast": {
            "lat": 40.83100098029149,
            "lng": -73.6361130197085
          },
          "southwest": {
            "lat": 40.8283030197085,
            "lng": -73.63881098029151
          }
        }
      },
      "place_id": "ChIJhcHObOSFwokRtpBRPCDYPxY",
      "types": [
        "street_address"
      ]
    },
    {
      "address_components": [
        {
          "long_name": "Glenwood Landing",
          "short_name": "Glenwood Landing",
          "types": [
            "locality",
            "political"
          ]
        },
        {
          "long_name": "Oyster Bay",
          "short_name": "Oyster Bay",
          "types": [
            "administrative_area_level_3",
            "political"
          ]
        },
        {
          "long_name": "Nassau County",
          "short_name": "Nassau County",
          "types": [
            "administrative_area_level_2",
            "political"
          ]
        },
        {
          "long_name": "New York",
          "short_name": "NY",
          "types": [
            "administrative_area_level_1",
            "political"
          ]
        },
        {
          "long_name": "United States",
          "short_name": "US",
          "types": [
            "country",
            "political"
          ]
        }
      ],
      "formatted_address": "Glenwood Landing, NY, USA",
      "geometry": {
        "bounds": {
          "northeast": {
            "lat": 40.8371679,
            "lng": -73.6252588
          },
          "southwest": {
            "lat": 40.81818,
            "lng": -73.65137659999999
          }
        },
        "location": {
          "lat": 40.8306556,
          "lng": -73.6387393
        },
        "location_type": "APPROXIMATE",
        "viewport": {
          "northeast": {
            "lat": 40.8371679,
            "lng": -73.6252588
          },
          "southwest": {
            "lat": 40.81818,
            "lng": -73.65137659999999
          }
        }
      },
      "place_id": "ChIJS4pChOOFwokRWUWXTry4kTk",
      "types": [
        "locality",
        "political"
      ]
    },
    {
      "address_components": [
        {
          "long_name": "11545",
          "short_name": "11545",
          "types": [
            "postal_code"
          ]
        },
        {
          "long_name": "Glen Head",
          "short_name": "Glen Head",
          "types": [
            "locality",
            "political"
          ]
        },
        {
          "long_name": "Nassau County",
          "short_name": "Nassau County",
          "types": [
            "administrative_area_level_2",
            "political"
          ]
        },
        {
          "long_name": "New York",
          "short_name": "NY",
          "types": [
            "administrative_area_level_1",
            "political"
          ]
        },
        {
          "long_name": "United States",
          "short_name": "US",
          "types": [
            "country",
            "political"
          ]
        }
      ],
      "formatted_address": "Glen Head, NY 11545, USA",
      "geometry": {
        "bounds": {
          "northeast": {
            "lat": 40.856978,
            "lng": -73.53585489999999
          },
          "southwest": {
            "lat": 40.791643,
            "lng": -73.6419199
          }
        },
        "location": {
          "lat": 40.831613,
          "lng": -73.5888575
        },
        "location_type": "APPROXIMATE",
        "viewport": {
          "northeast": {
            "lat": 40.856978,
            "lng": -73.53585489999999
          },
          "southwest": {
            "lat": 40.791643,
            "lng": -73.6419199
          }
        }
      },
      "place_id": "ChIJGaCjboqDwokR0ufx4miD_8o",
      "types": [
        "postal_code"
      ]
    },
    {
      "address_components": [
        {
          "long_name": "Oyster Bay",
          "short_name": "Oyster Bay",
          "types": [
            "administrative_area_level_3",
            "political"
          ]
        },
        {
          "long_name": "Nassau County",
          "short_name": "Nassau County",
          "types": [
            "administrative_area_level_2",
            "political"
          ]
        },
        {
          "long_name": "New York",
          "short_name": "NY",
          "types": [
            "administrative_area_level_1",
            "political"
          ]
        },
        {
          "long_name": "United States",
          "short_name": "US",
          "types": [
            "country",
            "political"
          ]
        }
      ],
      "formatted_address": "Oyster Bay, NY, USA",
      "geometry": {
        "bounds": {
          "northeast": {
            "lat": 40.9478348,
            "lng": -73.4232586
          },
          "southwest": {
            "lat": 40.5967829,
            "lng": -73.65402399999999
          }
        },
        "location": {
          "lat": 40.7893778,
          "lng": -73.5358541
        },
        "location_type": "APPROXIMATE",
        "viewport": {
          "northeast": {
            "lat": 40.9478348,
            "lng": -73.4232586
          },
          "southwest": {
            "lat": 40.5967829,
            "lng": -73.65402399999999
          }
        }
      },
      "place_id": "ChIJIZpvLRsn6IkRvl_fK4WUXZ0",
      "types": [
        "administrative_area_level_3",
        "political"
      ]
    },
    {
      "address_components": [
        {
          "long_name": "Nassau County",
          "short_name": "Nassau County",
          "types": [
            "administrative_area_level_2",
            "political"
          ]
        },
        {
          "long_name": "New York",
          "short_name": "NY",
          "types": [
            "administrative_area_level_1",
            "political"
          ]
        },
        {
          "long_name": "United States",
          "short_name": "US",
          "types": [
            "country",
            "political"
          ]
        }
      ],
      "formatted_address": "Nassau County, NY, USA",
      "geometry": {
        "bounds": {
          "northeast": {
            "lat": 40.9478348,
            "lng": -73.4232586
          },
          "southwest": {
            "lat": 40.5730904,
            "lng": -73.7667408
          }
        },
        "location": {
          "lat": 40.6546145,
          "lng": -73.55941279999999
        },
        "location_type": "APPROXIMATE",
        "viewport": {
          "northeast": {
            "lat": 40.9478286,
            "lng": -73.4232586
          },
          "southwest": {
            "lat": 40.5730904,
            "lng": -73.7667408
          }
        }
      },
      "place_id": "ChIJoQxey52xwokRap4G05mKJBs",
      "types": [
        "administrative_area_level_2",
        "political"
      ]
    },
    {
      "address_components": [
        {
          "long_name": "New York",
          "short_name": "NY",
          "types": [
            "administrative_area_level_1",
            "political"
          ]
        },
        {
          "long_name": "United States",
          "short_name": "US",
          "types": [
            "country",
            "political"
          ]
        }
      ],
      "formatted_address": "New York, USA",
      "geometry": {
        "bounds": {
          "northeast": {
            "lat": 45.015865,
            "lng": -71.85620639999999
          },
          "southwest": {
            "lat": 40.496091,
            "lng": -79.76214379999999
          }
        },
        "location": {
          "lat": 43.2994285,
          "lng": -74.21793260000001
        },
        "location_type": "APPROXIMATE",
        "viewport": {
          "northeast": {
            "lat": 45.015859,
            "lng": -71.85620639999999
          },
          "southwest": {
            "lat": 40.496091,
            "lng": -79.76214379999999
          }
        }
      },
      "place_id": "ChIJqaUj8fBLzEwRZ5UY3sHGz90",
      "types": [
        "administrative_area_level_1",
        "political"
      ]
    },
    {
      "address_components": [
        {
          "long_name": "United States",
          "short_name": "US",
          "types": [
            "country",
            "political"
          ]
        }
      ],
      "formatted_address": "United States",
      "geometry": {
        "bounds": {
          "northeast": {
            "lat": 71.3867745,
            "lng": -66.9502861
          },
          "southwest": {
            "lat": 18.9106768,
            "lng": 172.4458955
          }
        },
        "location": {
          "lat": 37.09024,
          "lng": -95.712891
        },
        "location_type": "APPROXIMATE",
        "viewport": {
          "northeast": {
            "lat": 49.38,
            "lng": -66.94
          },
          "southwest": {
            "lat": 25.82,
            "lng": -124.39
          }
        }
      },
      "place_id": "ChIJCzYy5IS16lQRQrfeQ5K5Oxw",
      "types": [
        "country",
        "political"
      ]
    }
  ],
  "status": "OK"
}
