{
  "results": [
    {
      "address_components": [
        {
          "long_name": "Church Avenue",
          "short_name": "Church Ave",
          "types": [
            "route"
          ]
        },
        {
          "long_name": "Burns",
          "short_name": "Burns",
          "types": [
            "locality",
            "political"
          ]
        },
        {
          "long_name": "Milton",
          "short_name": "Milton",
          "types": [
            "administrative_area_level_3",
            "political"
          ]
        },
        {
          "long_name": "Marion County",
          "short_name": "Marion County",
          "types": [
            "administrative_area_level_2",
            "political"
          ]
        },
        {
          "long_name": "Kansas",
          "short_name": "KS",
          "types": [
            "administrative_area_level_1",
            "political"
          ]
        },
        {
          "long_name": "United States",
          "short_name": "US",
          "types": [
            "country",
            "political"
          ]
        },
        {
          "long_name": "66840",
          "short_name": "66840",
          "types": [
            "postal_code"
          ]
        }
      ],
      "formatted_address": "Church Ave, Burns, KS 66840, USA",
      "geometry": {
        "bounds": {
          "northeast": {
            "lat": 38.0898403,
            "lng": -96.887333
          },
          "southwest": {
            "lat": 38.0893411,
            "lng": -96.8873363
          }
        },
        "location": {
          "lat": 38.0895907,
          "lng": -96.8873347
        },
        "location_type": "GEOMETRIC_CENTER",
        "viewport": {
          "northeast": {
            "lat": 38.0909396802915,
            "lng": -96.8859856697085
          },
          "southwest": {
            "lat": 38.08824171970851,
            "lng": -96.88868363029151
          }
        }
      },
      "place_id": "ChIJL1rtwQ29u4cRmmw7E7UmMj8",
      "types": [
        "route"
      ]
    },
    {
      "address_components": [
        {
          "long_name": "Burns",
          "short_name": "Burns",
          "types": [
            "locality",
            "political"
          ]
        },
        {
          "long_name": "Milton",
          "short_name": "Milton",
          "types": [
            "administrative_area_level_3",
            "political"
          ]
        },
        {
          "long_name": "Marion County",
          "short_name": "Marion County",
          "types": [
            "administrative_area_level_2",
            "political"
          ]
        },
        {
          "long_name": "Kansas",
          "short_name": "KS",
          "types": [
            "administrative_area_level_1",
            "political"
          ]
        },
        {
          "long_name": "United States",
          "short_name": "US",
          "types": [
            "country",
            "political"
          ]
        },
        {
          "long_name": "66840",
          "short_name": "66840",
          "types": [
            "postal_code"
          ]
        }
      ],
      "formatted_address": "Burns, KS 66840, USA",
      "geometry": {
        "bounds": {
          "northeast": {
            "lat": 38.0937769,
            "lng": -96.8774229
          },
          "southwest": {
            "lat": 38.0856799,
            "lng": -96.895828
          }
        },
        "location": {
          "lat": 38.0902957,
          "lng": -96.88641439999999
        },
        "location_type": "APPROXIMATE",
        "viewport": {
          "northeast": {
            "lat": 38.0937769,
            "lng": -96.88184
          },
          "southwest": {
            "lat": 38.0856799,
            "lng": -96.895828
          }
        }
      },
      "place_id": "ChIJ31yeyA29u4cRsJ0INS2NDQc",
      "types": [
        "locality",
        "political"
      ]
    },
    {
      "address_components": [
        {
          "long_name": "Milton",
          "short_name": "Milton",
          "types": [
            "administrative_area_level_3",
            "political"
          ]
        },
        {
          "long_name": "Marion County",
          "short_name": "Marion County",
          "types": [
            "administrative_area_level_2",
            "political"
          ]
        },
        {
          "long_name": "Kansas",
          "short_name": "KS",
          "types": [
            "administrative_area_level_1",
            "political"
          ]
        },
        {
          "long_name": "United States",
          "short_name": "US",
          "types": [
            "country",
            "political"
          ]
        }
      ],
      "formatted_address": "Milton, KS, USA",
      "geometry": {
        "bounds": {
          "northeast": {
            "lat": 38.17293009999999,
            "lng": -96.84034
          },
          "southwest": {
            "lat": 38.08561,
            "lng": -96.93213109999999
          }
        },
        "location": {
          "lat": 38.135216,
          "lng": -96.89944949999999
        },
        "location_type": "APPROXIMATE",
        "viewport": {
          "northeast": {
            "lat": 38.17293009999999,
            "lng": -96.84034
          },
          "southwest": {
            "lat": 38.08561,
            "lng": -96.93213109999999
          }
        }
      },
      "place_id": "ChIJ84JNPc-Xu4cRA_czMPi4AvM",
      "types": [
        "administrative_area_level_3",
        "political"
      ]
    },
    {
      "address_components": [
        {
          "long_name": "66840",
          "short_name": "66840",
          "types": [
            "postal_code"
          ]
        },
        {
          "long_name": "Burns",
          "short_name": "Burns",
          "types": [
            "locality",
            "political"
          ]
        },
        {
          "long_name": "Kansas",
          "short_name": "KS",
          "types": [
            "administrative_area_level_1",
            "political"
          ]
        },
        {
          "long_name": "United States",
          "short_name": "US",
          "types": [
            "country",
            "political"
          ]
        }
      ],
      "formatted_address": "Burns, KS 66840, USA",
      "geometry": {
        "bounds": {
          "northeast": {
            "lat": 38.187312,
            "lng": -96.7308369
          },
          "southwest": {
            "lat": 37.891967,
            "lng": -97.03324599999999
          }
        },
        "location": {
          "lat": 38.073335,
          "lng": -96.8779926
        },
        "location_type": "APPROXIMATE",
        "viewport": {
          "northeast": {
            "lat": 38.187312,
            "lng": -96.7308369
          },
          "southwest": {
            "lat": 37.891967,
            "lng": -97.03324599999999
          }
        }
      },
      "place_id": "ChIJ0Wdj-_6Vu4cRz-xhp6BOH3I",
      "types": [
        "postal_code"
      ]
    },
    {
      "address_components": [
        {
          "long_name": "Marion County",
          "short_name": "Marion County",
          "types": [
            "administrative_area_level_2",
            "political"
          ]
        },
        {
          "long_name": "Kansas",
          "short_name": "KS",
          "types": [
            "administrative_area_level_1",
            "political"
          ]
        },
        {
          "long_name": "United States",
          "short_name": "US",
          "types": [
            "country",
            "political"
          ]
        }
      ],
      "formatted_address": "Marion County, KS, USA",
      "geometry": {
        "bounds": {
          "northeast": {
            "lat": 38.6095599,
            "lng": -96.819475
          },
          "southwest": {
            "lat": 38.08561,
            "lng": -97.37209
          }
        },
        "location": {
          "lat": 38.349424,
          "lng": -97.179026
        },
        "location_type": "APPROXIMATE",
        "viewport": {
          "northeast": {
            "lat": 38.6095599,
            "lng": -96.819475
          },
          "southwest": {
            "lat": 38.08561,
            "lng": -97.37209
          }
        }
      },
      "place_id": "ChIJJydLycicu4cRsnnnW9bM19Y",
      "types": [
        "administrative_area_level_2",
        "political"
      ]
    },
    {
      "address_components": [
        {
          "long_name": "Kansas",
          "short_name": "KS",
          "types": [
            "administrative_area_level_1",
            "political"
          ]
        },
        {
          "long_name": "United States",
          "short_name": "US",
          "types": [
            "country",
            "political"
          ]
        }
      ],
      "formatted_address": "Kansas, USA",
      "geometry": {
        "bounds": {
          "northeast": {
            "lat": 40.0045419,
            "lng": -94.588387
          },
          "southwest": {
            "lat": 36.9930159,
            "lng": -102.0517688
          }
        },
        "location": {
          "lat": 39.011902,
          "lng": -98.4842465
        },
        "location_type": "APPROXIMATE",
        "viewport": {
          "northeast": {
            "lat": 40.0045419,
            "lng": -94.588387
          },
          "southwest": {
            "lat": 36.9930159,
            "lng": -102.0517688
          }
        }
      },
      "place_id": "ChIJawF8cXEXo4cRXwk-S6m0wmg",
      "types": [
        "administrative_area_level_1",
        "political"
      ]
    },
    {
      "address_components": [
        {
          "long_name": "United States",
          "short_name": "US",
          "types": [
            "country",
            "political"
          ]
        }
      ],
      "formatted_address": "United States",
      "geometry": {
        "bounds": {
          "northeast": {
            "lat": 71.3867745,
            "lng": -66.9502861
          },
          "southwest": {
            "lat": 18.9106768,
            "lng": 172.4458955
          }
        },
        "location": {
          "lat": 37.09024,
          "lng": -95.712891
        },
        "location_type": "APPROXIMATE",
        "viewport": {
          "northeast": {
            "lat": 49.38,
            "lng": -66.94
          },
          "southwest": {
            "lat": 25.82,
            "lng": -124.39
          }
        }
      },
      "place_id": "ChIJCzYy5IS16lQRQrfeQ5K5Oxw",
      "types": [
        "country",
        "political"
      ]
    }
  ],
  "status": "OK"
}
