{
  "results": [
    {
      "address_components": [
        {
          "long_name": "22-98",
          "short_name": "22-98",
          "types": [
            "street_number"
          ]
        },
        {
          "long_name": "Grove Street",
          "short_name": "Grove St",
          "types": [
            "route"
          ]
        },
        {
          "long_name": "Mohawk",
          "short_name": "Mohawk",
          "types": [
            "locality",
            "political"
          ]
        },
        {
          "long_name": "German Flatts",
          "short_name": "German Flatts",
          "types": [
            "administrative_area_level_3",
            "political"
          ]
        },
        {
          "long_name": "Herkimer County",
          "short_name": "Herkimer County",
          "types": [
            "administrative_area_level_2",
            "political"
          ]
        },
        {
          "long_name": "New York",
          "short_name": "NY",
          "types": [
            "administrative_area_level_1",
            "political"
          ]
        },
        {
          "long_name": "United States",
          "short_name": "US",
          "types": [
            "country",
            "political"
          ]
        },
        {
          "long_name": "13407",
          "short_name": "13407",
          "types": [
            "postal_code"
          ]
        }
      ],
      "formatted_address": "22-98 Grove St, Mohawk, NY 13407, USA",
      "geometry": {
        "bounds": {
          "northeast": {
            "lat": 43.0108468,
            "lng": -75.0076505
          },
          "southwest": {
            "lat": 43.009741,
            "lng": -75.0078061
          }
        },
        "location": {
          "lat": 43.0103824,
          "lng": -75.0077596
        },
        "location_type": "RANGE_INTERPOLATED",
        "viewport": {
          "northeast": {
            "lat": 43.0116428802915,
            "lng": -75.0063793197085
          },
          "southwest": {
            "lat": 43.0089449197085,
            "lng": -75.0090772802915
          }
        }
      },
      "place_id": "EiUyMi05OCBHcm92ZSBTdCwgTW9oYXdrLCBOWSAxMzQwNywgVVNB",
      "types": [
        "street_address"
      ]
    },
    {
      "address_components": [
        {
          "long_name": "Mohawk",
          "short_name": "Mohawk",
          "types": [
            "locality",
            "political"
          ]
        },
        {
          "long_name": "German Flatts",
          "short_name": "German Flatts",
          "types": [
            "administrative_area_level_3",
            "political"
          ]
        },
        {
          "long_name": "Herkimer County",
          "short_name": "Herkimer County",
          "types": [
            "administrative_area_level_2",
            "political"
          ]
        },
        {
          "long_name": "New York",
          "short_name": "NY",
          "types": [
            "administrative_area_level_1",
            "political"
          ]
        },
        {
          "long_name": "United States",
          "short_name": "US",
          "types": [
            "country",
            "political"
          ]
        }
      ],
      "formatted_address": "Mohawk, NY, USA",
      "geometry": {
        "bounds": {
          "northeast": {
            "lat": 43.016487,
            "lng": -74.9926459
          },
          "southwest": {
            "lat": 43.0005519,
            "lng": -75.0207539
          }
        },
        "location": {
          "lat": 43.0114592,
          "lng": -75.0040449
        },
        "location_type": "APPROXIMATE",
        "viewport": {
          "northeast": {
            "lat": 43.016487,
            "lng": -74.9926459
          },
          "southwest": {
            "lat": 43.0005519,
            "lng": -75.0207539
          }
        }
      },
      "place_id": "ChIJT-gC0otM2YkR4n93CUM6Jwk",
      "types": [
        "locality",
        "political"
      ]
    },
    {
      "address_components": [
        {
          "long_name": "German Flatts",
          "short_name": "German Flatts",
          "types": [
            "administrative_area_level_3",
            "political"
          ]
        },
        {
          "long_name": "Herkimer County",
          "short_name": "Herkimer County",
          "types": [
            "administrative_area_level_2",
            "political"
          ]
        },
        {
          "long_name": "New York",
          "short_name": "NY",
          "types": [
            "administrative_area_level_1",
            "political"
          ]
        },
        {
          "long_name": "United States",
          "short_name": "US",
          "types": [
            "country",
            "political"
          ]
        }
      ],
      "formatted_address": "German Flatts, NY, USA",
      "geometry": {
        "bounds": {
          "northeast": {
            "lat": 43.026525,
            "lng": -74.9022969
          },
          "southwest": {
            "lat": 42.9451399,
            "lng": -75.0768259
          }
        },
        "location": {
          "lat": 42.9777988,
          "lng": -74.9793243
        },
        "location_type": "APPROXIMATE",
        "viewport": {
          "northeast": {
            "lat": 43.026525,
            "lng": -74.9022969
          },
          "southwest": {
            "lat": 42.9451399,
            "lng": -75.0768259
          }
        }
      },
      "place_id": "ChIJc6cpyCFN2YkR5jM0nHpD-z8",
      "types": [
        "administrative_area_level_3",
        "political"
      ]
    },
    {
      "address_components": [
        {
          "long_name": "13407",
          "short_name": "13407",
          "types": [
            "postal_code"
          ]
        },
        {
          "long_name": "Mohawk",
          "short_name": "Mohawk",
          "types": [
            "locality",
            "political"
          ]
        },
        {
          "long_name": "Herkimer County",
          "short_name": "Herkimer County",
          "types": [
            "administrative_area_level_2",
            "political"
          ]
        },
        {
          "long_name": "New York",
          "short_name": "NY",
          "types": [
            "administrative_area_level_1",
            "political"
          ]
        },
        {
          "long_name": "United States",
          "short_name": "US",
          "types": [
            "country",
            "political"
          ]
        }
      ],
      "formatted_address": "Mohawk, NY 13407, USA",
      "geometry": {
        "bounds": {
          "northeast": {
            "lat": 43.0376989,
            "lng": -74.8248259
          },
          "southwest": {
            "lat": 42.89495710000001,
            "lng": -75.051564
          }
        },
        "location": {
          "lat": 42.9635855,
          "lng": -74.9442585
        },
        "location_type": "APPROXIMATE",
        "viewport": {
          "northeast": {
            "lat": 43.0376989,
            "lng": -74.8248259
          },
          "southwest": {
            "lat": 42.89495710000001,
            "lng": -75.051564
          }
        }
      },
      "place_id": "ChIJhyZxRuqy3okRi5KYKi2e9js",
      "types": [
        "postal_code"
      ]
    },
    {
      "address_components": [
        {
          "long_name": "Herkimer County",
          "short_name": "Herkimer County",
          "types": [
            "administrative_area_level_2",
            "political"
          ]
        },
        {
          "long_name": "New York",
          "short_name": "NY",
          "types": [
            "administrative_area_level_1",
            "political"
          ]
        },
        {
          "long_name": "United States",
          "short_name": "US",
          "types": [
            "country",
            "political"
          ]
        }
      ],
      "formatted_address": "Herkimer County, NY, USA",
      "geometry": {
        "bounds": {
          "northeast": {
            "lat": 44.096959,
            "lng": -74.695985
          },
          "southwest": {
            "lat": 42.824943,
            "lng": -75.2191059
          }
        },
        "location": {
          "lat": 43.1630587,
          "lng": -74.8741045
        },
        "location_type": "APPROXIMATE",
        "viewport": {
          "northeast": {
            "lat": 44.096959,
            "lng": -74.695985
          },
          "southwest": {
            "lat": 42.824943,
            "lng": -75.2191059
          }
        }
      },
      "place_id": "ChIJyeOziPvA3okRBqScD7E9IDY",
      "types": [
        "administrative_area_level_2",
        "political"
      ]
    },
    {
      "address_components": [
        {
          "long_name": "New York",
          "short_name": "NY",
          "types": [
            "administrative_area_level_1",
            "political"
          ]
        },
        {
          "long_name": "United States",
          "short_name": "US",
          "types": [
            "country",
            "political"
          ]
        }
      ],
      "formatted_address": "New York, USA",
      "geometry": {
        "bounds": {
          "northeast": {
            "lat": 45.015865,
            "lng": -71.85620639999999
          },
          "southwest": {
            "lat": 40.496091,
            "lng": -79.76214379999999
          }
        },
        "location": {
          "lat": 43.2994285,
          "lng": -74.21793260000001
        },
        "location_type": "APPROXIMATE",
        "viewport": {
          "northeast": {
            "lat": 45.015859,
            "lng": -71.85620639999999
          },
          "southwest": {
            "lat": 40.496091,
            "lng": -79.76214379999999
          }
        }
      },
      "place_id": "ChIJqaUj8fBLzEwRZ5UY3sHGz90",
      "types": [
        "administrative_area_level_1",
        "political"
      ]
    },
    {
      "address_components": [
        {
          "long_name": "United States",
          "short_name": "US",
          "types": [
            "country",
            "political"
          ]
        }
      ],
      "formatted_address": "United States",
      "geometry": {
        "bounds": {
          "northeast": {
            "lat": 71.3867745,
            "lng": -66.9502861
          },
          "southwest": {
            "lat": 18.9106768,
            "lng": 172.4458955
          }
        },
        "location": {
          "lat": 37.09024,
          "lng": -95.712891
        },
        "location_type": "APPROXIMATE",
        "viewport": {
          "northeast": {
            "lat": 49.38,
            "lng": -66.94
          },
          "southwest": {
            "lat": 25.82,
            "lng": -124.39
          }
        }
      },
      "place_id": "ChIJCzYy5IS16lQRQrfeQ5K5Oxw",
      "types": [
        "country",
        "political"
      ]
    }
  ],
  "status": "OK"
}
