{
  "results": [
    {
      "address_components": [
        {
          "long_name": "200-398",
          "short_name": "200-398",
          "types": [
            "street_number"
          ]
        },
        {
          "long_name": "South Drake Street",
          "short_name": "S Drake St",
          "types": [
            "route"
          ]
        },
        {
          "long_name": "Arcadia",
          "short_name": "Arcadia",
          "types": [
            "locality",
            "political"
          ]
        },
        {
          "long_name": "Lincoln",
          "short_name": "Lincoln",
          "types": [
            "administrative_area_level_3",
            "political"
          ]
        },
        {
          "long_name": "Crawford County",
          "short_name": "Crawford County",
          "types": [
            "administrative_area_level_2",
            "political"
          ]
        },
        {
          "long_name": "Kansas",
          "short_name": "KS",
          "types": [
            "administrative_area_level_1",
            "political"
          ]
        },
        {
          "long_name": "United States",
          "short_name": "US",
          "types": [
            "country",
            "political"
          ]
        },
        {
          "long_name": "66711",
          "short_name": "66711",
          "types": [
            "postal_code"
          ]
        },
        {
          "long_name": "4019",
          "short_name": "4019",
          "types": [
            "postal_code_suffix"
          ]
        }
      ],
      "formatted_address": "200-398 S Drake St, Arcadia, KS 66711, USA",
      "geometry": {
        "bounds": {
          "northeast": {
            "lat": 37.64218,
            "lng": -94.6238393
          },
          "southwest": {
            "lat": 37.6402399,
            "lng": -94.623857
          }
        },
        "location": {
          "lat": 37.6411723,
          "lng": -94.62387439999999
        },
        "location_type": "RANGE_INTERPOLATED",
        "viewport": {
          "northeast": {
            "lat": 37.6425589302915,
            "lng": -94.62249916970849
          },
          "southwest": {
            "lat": 37.6398609697085,
            "lng": -94.62519713029151
          }
        }
      },
      "place_id": "EioyMDAtMzk4IFMgRHJha2UgU3QsIEFyY2FkaWEsIEtTIDY2NzExLCBVU0E",
      "types": [
        "street_address"
      ]
    },
    {
      "address_components": [
        {
          "long_name": "Arcadia",
          "short_name": "Arcadia",
          "types": [
            "locality",
            "political"
          ]
        },
        {
          "long_name": "Lincoln",
          "short_name": "Lincoln",
          "types": [
            "administrative_area_level_3",
            "political"
          ]
        },
        {
          "long_name": "Crawford County",
          "short_name": "Crawford County",
          "types": [
            "administrative_area_level_2",
            "political"
          ]
        },
        {
          "long_name": "Kansas",
          "short_name": "KS",
          "types": [
            "administrative_area_level_1",
            "political"
          ]
        },
        {
          "long_name": "United States",
          "short_name": "US",
          "types": [
            "country",
            "political"
          ]
        }
      ],
      "formatted_address": "Arcadia, KS, USA",
      "geometry": {
        "bounds": {
          "northeast": {
            "lat": 37.6478351,
            "lng": -94.6174881
          },
          "southwest": {
            "lat": 37.63654,
            "lng": -94.630579
          }
        },
        "location": {
          "lat": 37.6419893,
          "lng": -94.62384809999999
        },
        "location_type": "APPROXIMATE",
        "viewport": {
          "northeast": {
            "lat": 37.6478351,
            "lng": -94.6174881
          },
          "southwest": {
            "lat": 37.63654,
            "lng": -94.630579
          }
        }
      },
      "place_id": "ChIJVWN8Y927x4cRruCDiMx14WM",
      "types": [
        "locality",
        "political"
      ]
    },
    {
      "address_components": [
        {
          "long_name": "Lincoln",
          "short_name": "Lincoln",
          "types": [
            "administrative_area_level_3",
            "political"
          ]
        },
        {
          "long_name": "Crawford County",
          "short_name": "Crawford County",
          "types": [
            "administrative_area_level_2",
            "political"
          ]
        },
        {
          "long_name": "Kansas",
          "short_name": "KS",
          "types": [
            "administrative_area_level_1",
            "political"
          ]
        },
        {
          "long_name": "United States",
          "short_name": "US",
          "types": [
            "country",
            "political"
          ]
        }
      ],
      "formatted_address": "Lincoln, KS, USA",
      "geometry": {
        "bounds": {
          "northeast": {
            "lat": 37.6741819,
            "lng": -94.617015
          },
          "southwest": {
            "lat": 37.557384,
            "lng": -94.779022
          }
        },
        "location": {
          "lat": 37.6088797,
          "lng": -94.70706159999999
        },
        "location_type": "APPROXIMATE",
        "viewport": {
          "northeast": {
            "lat": 37.6741819,
            "lng": -94.617015
          },
          "southwest": {
            "lat": 37.557384,
            "lng": -94.779022
          }
        }
      },
      "place_id": "ChIJvZGBuom-x4cRftUl1NptU-o",
      "types": [
        "administrative_area_level_3",
        "political"
      ]
    },
    {
      "address_components": [
        {
          "long_name": "66711",
          "short_name": "66711",
          "types": [
            "postal_code"
          ]
        },
        {
          "long_name": "Arcadia",
          "short_name": "Arcadia",
          "types": [
            "locality",
            "political"
          ]
        },
        {
          "long_name": "Kansas",
          "short_name": "KS",
          "types": [
            "administrative_area_level_1",
            "political"
          ]
        },
        {
          "long_name": "United States",
          "short_name": "US",
          "types": [
            "country",
            "political"
          ]
        }
      ],
      "formatted_address": "Arcadia, KS 66711, USA",
      "geometry": {
        "bounds": {
          "northeast": {
            "lat": 37.687876,
            "lng": -94.61729989999999
          },
          "southwest": {
            "lat": 37.5283009,
            "lng": -94.7779709
          }
        },
        "location": {
          "lat": 37.6411614,
          "lng": -94.6967189
        },
        "location_type": "APPROXIMATE",
        "viewport": {
          "northeast": {
            "lat": 37.687876,
            "lng": -94.61729989999999
          },
          "southwest": {
            "lat": 37.572078,
            "lng": -94.7779709
          }
        }
      },
      "place_id": "ChIJ4d0yNs69x4cR6Zm9LIIvAig",
      "types": [
        "postal_code"
      ]
    },
    {
      "address_components": [
        {
          "long_name": "Crawford County",
          "short_name": "Crawford County",
          "types": [
            "administrative_area_level_2",
            "political"
          ]
        },
        {
          "long_name": "Kansas",
          "short_name": "KS",
          "types": [
            "administrative_area_level_1",
            "political"
          ]
        },
        {
          "long_name": "United States",
          "short_name": "US",
          "types": [
            "country",
            "political"
          ]
        }
      ],
      "formatted_address": "Crawford County, KS, USA",
      "geometry": {
        "bounds": {
          "northeast": {
            "lat": 37.674911,
            "lng": -94.6167238
          },
          "southwest": {
            "lat": 37.3382548,
            "lng": -95.0885179
          }
        },
        "location": {
          "lat": 37.45579900000001,
          "lng": -94.81059549999999
        },
        "location_type": "APPROXIMATE",
        "viewport": {
          "northeast": {
            "lat": 37.674911,
            "lng": -94.6167238
          },
          "southwest": {
            "lat": 37.3382548,
            "lng": -95.0885179
          }
        }
      },
      "place_id": "ChIJbyEYrrntx4cR4rzUsxSSlxI",
      "types": [
        "administrative_area_level_2",
        "political"
      ]
    },
    {
      "address_components": [
        {
          "long_name": "Pittsburg",
          "short_name": "Pittsburg",
          "types": [
            "political"
          ]
        },
        {
          "long_name": "United States",
          "short_name": "US",
          "types": [
            "country",
            "political"
          ]
        }
      ],
      "formatted_address": "Pittsburg, USA",
      "geometry": {
        "bounds": {
          "northeast": {
            "lat": 37.674926,
            "lng": -94.61678909999999
          },
          "southwest": {
            "lat": 37.3383289,
            "lng": -95.088363
          }
        },
        "location": {
          "lat": 37.45579900000001,
          "lng": -94.81059549999999
        },
        "location_type": "APPROXIMATE",
        "viewport": {
          "northeast": {
            "lat": 37.674926,
            "lng": -94.61678909999999
          },
          "southwest": {
            "lat": 37.3383289,
            "lng": -95.088363
          }
        }
      },
      "place_id": "ChIJv-_HVP3sx4cRtTuoi6K3ALo",
      "types": [
        "political"
      ]
    },
    {
      "address_components": [
        {
          "long_name": "Kansas",
          "short_name": "KS",
          "types": [
            "administrative_area_level_1",
            "political"
          ]
        },
        {
          "long_name": "United States",
          "short_name": "US",
          "types": [
            "country",
            "political"
          ]
        }
      ],
      "formatted_address": "Kansas, USA",
      "geometry": {
        "bounds": {
          "northeast": {
            "lat": 40.0045419,
            "lng": -94.588387
          },
          "southwest": {
            "lat": 36.9930159,
            "lng": -102.0517688
          }
        },
        "location": {
          "lat": 39.011902,
          "lng": -98.4842465
        },
        "location_type": "APPROXIMATE",
        "viewport": {
          "northeast": {
            "lat": 40.0045419,
            "lng": -94.588387
          },
          "southwest": {
            "lat": 36.9930159,
            "lng": -102.0517688
          }
        }
      },
      "place_id": "ChIJawF8cXEXo4cRXwk-S6m0wmg",
      "types": [
        "administrative_area_level_1",
        "political"
      ]
    },
    {
      "address_components": [
        {
          "long_name": "United States",
          "short_name": "US",
          "types": [
            "country",
            "political"
          ]
        }
      ],
      "formatted_address": "United States",
      "geometry": {
        "bounds": {
          "northeast": {
            "lat": 71.3867745,
            "lng": -66.9502861
          },
          "southwest": {
            "lat": 18.9106768,
            "lng": 172.4458955
          }
        },
        "location": {
          "lat": 37.09024,
          "lng": -95.712891
        },
        "location_type": "APPROXIMATE",
        "viewport": {
          "northeast": {
            "lat": 49.38,
            "lng": -66.94
          },
          "southwest": {
            "lat": 25.82,
            "lng": -124.39
          }
        }
      },
      "place_id": "ChIJCzYy5IS16lQRQrfeQ5K5Oxw",
      "types": [
        "country",
        "political"
      ]
    }
  ],
  "status": "OK"
}
