{
  "results": [
    {
      "address_components": [
        {
          "long_name": "353-399",
          "short_name": "353-399",
          "types": [
            "street_number"
          ]
        },
        {
          "long_name": "West Williamson Street",
          "short_name": "W Williamson St",
          "types": [
            "route"
          ]
        },
        {
          "long_name": "Claflin",
          "short_name": "Claflin",
          "types": [
            "locality",
            "political"
          ]
        },
        {
          "long_name": "Independent",
          "short_name": "Independent",
          "types": [
            "administrative_area_level_3",
            "political"
          ]
        },
        {
          "long_name": "Barton County",
          "short_name": "Barton County",
          "types": [
            "administrative_area_level_2",
            "political"
          ]
        },
        {
          "long_name": "Kansas",
          "short_name": "KS",
          "types": [
            "administrative_area_level_1",
            "political"
          ]
        },
        {
          "long_name": "United States",
          "short_name": "US",
          "types": [
            "country",
            "political"
          ]
        },
        {
          "long_name": "67525",
          "short_name": "67525",
          "types": [
            "postal_code"
          ]
        }
      ],
      "formatted_address": "353-399 W Williamson St, Claflin, KS 67525, USA",
      "geometry": {
        "bounds": {
          "northeast": {
            "lat": 38.5245864,
            "lng": -98.536913
          },
          "southwest": {
            "lat": 38.52458590000001,
            "lng": -98.53757590000001
          }
        },
        "location": {
          "lat": 38.5245717,
          "lng": -98.5369802
        },
        "location_type": "RANGE_INTERPOLATED",
        "viewport": {
          "northeast": {
            "lat": 38.5259351302915,
            "lng": -98.5358954697085
          },
          "southwest": {
            "lat": 38.5232371697085,
            "lng": -98.53859343029151
          }
        }
      },
      "place_id": "Ei8zNTMtMzk5IFcgV2lsbGlhbXNvbiBTdCwgQ2xhZmxpbiwgS1MgNjc1MjUsIFVTQQ",
      "types": [
        "street_address"
      ]
    },
    {
      "address_components": [
        {
          "long_name": "Claflin",
          "short_name": "Claflin",
          "types": [
            "locality",
            "political"
          ]
        },
        {
          "long_name": "Independent",
          "short_name": "Independent",
          "types": [
            "administrative_area_level_3",
            "political"
          ]
        },
        {
          "long_name": "Barton County",
          "short_name": "Barton County",
          "types": [
            "administrative_area_level_2",
            "political"
          ]
        },
        {
          "long_name": "Kansas",
          "short_name": "KS",
          "types": [
            "administrative_area_level_1",
            "political"
          ]
        },
        {
          "long_name": "United States",
          "short_name": "US",
          "types": [
            "country",
            "political"
          ]
        },
        {
          "long_name": "67525",
          "short_name": "67525",
          "types": [
            "postal_code"
          ]
        }
      ],
      "formatted_address": "Claflin, KS 67525, USA",
      "geometry": {
        "bounds": {
          "northeast": {
            "lat": 38.5291769,
            "lng": -98.52796800000002
          },
          "southwest": {
            "lat": 38.521042,
            "lng": -98.545191
          }
        },
        "location": {
          "lat": 38.525011,
          "lng": -98.5336841
        },
        "location_type": "APPROXIMATE",
        "viewport": {
          "northeast": {
            "lat": 38.5291769,
            "lng": -98.52796800000002
          },
          "southwest": {
            "lat": 38.521042,
            "lng": -98.545191
          }
        }
      },
      "place_id": "ChIJveXtn42bo4cRFlDbXXDY6WI",
      "types": [
        "locality",
        "political"
      ]
    },
    {
      "address_components": [
        {
          "long_name": "Independent",
          "short_name": "Independent",
          "types": [
            "administrative_area_level_3",
            "political"
          ]
        },
        {
          "long_name": "Barton County",
          "short_name": "Barton County",
          "types": [
            "administrative_area_level_2",
            "political"
          ]
        },
        {
          "long_name": "Kansas",
          "short_name": "KS",
          "types": [
            "administrative_area_level_1",
            "political"
          ]
        },
        {
          "long_name": "United States",
          "short_name": "US",
          "types": [
            "country",
            "political"
          ]
        }
      ],
      "formatted_address": "Independent, KS, USA",
      "geometry": {
        "bounds": {
          "northeast": {
            "lat": 38.6090011,
            "lng": -98.479896
          },
          "southwest": {
            "lat": 38.521042,
            "lng": -98.5907809
          }
        },
        "location": {
          "lat": 38.5707459,
          "lng": -98.5501283
        },
        "location_type": "APPROXIMATE",
        "viewport": {
          "northeast": {
            "lat": 38.6090011,
            "lng": -98.479896
          },
          "southwest": {
            "lat": 38.521042,
            "lng": -98.5907809
          }
        }
      },
      "place_id": "ChIJW8SJk06co4cRJxmfv-EzeJM",
      "types": [
        "administrative_area_level_3",
        "political"
      ]
    },
    {
      "address_components": [
        {
          "long_name": "67525",
          "short_name": "67525",
          "types": [
            "postal_code"
          ]
        },
        {
          "long_name": "Claflin",
          "short_name": "Claflin",
          "types": [
            "locality",
            "political"
          ]
        },
        {
          "long_name": "Kansas",
          "short_name": "KS",
          "types": [
            "administrative_area_level_1",
            "political"
          ]
        },
        {
          "long_name": "United States",
          "short_name": "US",
          "types": [
            "country",
            "political"
          ]
        }
      ],
      "formatted_address": "Claflin, KS 67525, USA",
      "geometry": {
        "bounds": {
          "northeast": {
            "lat": 38.696911,
            "lng": -98.46176609999999
          },
          "southwest": {
            "lat": 38.352127,
            "lng": -98.774006
          }
        },
        "location": {
          "lat": 38.5675163,
          "lng": -98.5940814
        },
        "location_type": "APPROXIMATE",
        "viewport": {
          "northeast": {
            "lat": 38.696911,
            "lng": -98.46176609999999
          },
          "southwest": {
            "lat": 38.352127,
            "lng": -98.7017729
          }
        }
      },
      "place_id": "ChIJ2QCmbZWbo4cR_sokiE6jr0E",
      "postcode_localities": [
        "Beaver",
        "Claflin",
        "Odin"
      ],
      "types": [
        "postal_code"
      ]
    },
    {
      "address_components": [
        {
          "long_name": "Barton County",
          "short_name": "Barton County",
          "types": [
            "administrative_area_level_2",
            "political"
          ]
        },
        {
          "long_name": "Kansas",
          "short_name": "KS",
          "types": [
            "administrative_area_level_1",
            "political"
          ]
        },
        {
          "long_name": "United States",
          "short_name": "US",
          "types": [
            "country",
            "political"
          ]
        }
      ],
      "formatted_address": "Barton County, KS, USA",
      "geometry": {
        "bounds": {
          "northeast": {
            "lat": 38.6969161,
            "lng": -98.479507
          },
          "southwest": {
            "lat": 38.26079,
            "lng": -99.03343
          }
        },
        "location": {
          "lat": 38.3613844,
          "lng": -98.7651482
        },
        "location_type": "APPROXIMATE",
        "viewport": {
          "northeast": {
            "lat": 38.6969161,
            "lng": -98.479507
          },
          "southwest": {
            "lat": 38.26079,
            "lng": -99.03343
          }
        }
      },
      "place_id": "ChIJN6Yc7e6Oo4cRPxdI4V1TMU8",
      "types": [
        "administrative_area_level_2",
        "political"
      ]
    },
    {
      "address_components": [
        {
          "long_name": "Great Bend",
          "short_name": "Great Bend",
          "types": [
            "political"
          ]
        },
        {
          "long_name": "Kansas",
          "short_name": "KS",
          "types": [
            "administrative_area_level_1",
            "political"
          ]
        },
        {
          "long_name": "United States",
          "short_name": "US",
          "types": [
            "country",
            "political"
          ]
        }
      ],
      "formatted_address": "Great Bend, KS, USA",
      "geometry": {
        "bounds": {
          "northeast": {
            "lat": 38.697048,
            "lng": -98.479772
          },
          "southwest": {
            "lat": 38.26079,
            "lng": -99.0333979
          }
        },
        "location": {
          "lat": 38.5000699,
          "lng": -98.6600586
        },
        "location_type": "APPROXIMATE",
        "viewport": {
          "northeast": {
            "lat": 38.697048,
            "lng": -98.479772
          },
          "southwest": {
            "lat": 38.26079,
            "lng": -99.0333979
          }
        }
      },
      "place_id": "ChIJ2epts-WNo4cRbga2Osijhrc",
      "types": [
        "political"
      ]
    },
    {
      "address_components": [
        {
          "long_name": "Kansas",
          "short_name": "KS",
          "types": [
            "administrative_area_level_1",
            "political"
          ]
        },
        {
          "long_name": "United States",
          "short_name": "US",
          "types": [
            "country",
            "political"
          ]
        }
      ],
      "formatted_address": "Kansas, USA",
      "geometry": {
        "bounds": {
          "northeast": {
            "lat": 40.0045419,
            "lng": -94.588387
          },
          "southwest": {
            "lat": 36.9930159,
            "lng": -102.0517688
          }
        },
        "location": {
          "lat": 39.011902,
          "lng": -98.4842465
        },
        "location_type": "APPROXIMATE",
        "viewport": {
          "northeast": {
            "lat": 40.0045419,
            "lng": -94.588387
          },
          "southwest": {
            "lat": 36.9930159,
            "lng": -102.0517688
          }
        }
      },
      "place_id": "ChIJawF8cXEXo4cRXwk-S6m0wmg",
      "types": [
        "administrative_area_level_1",
        "political"
      ]
    },
    {
      "address_components": [
        {
          "long_name": "United States",
          "short_name": "US",
          "types": [
            "country",
            "political"
          ]
        }
      ],
      "formatted_address": "United States",
      "geometry": {
        "bounds": {
          "northeast": {
            "lat": 71.3867745,
            "lng": -66.9502861
          },
          "southwest": {
            "lat": 18.9106768,
            "lng": 172.4458955
          }
        },
        "location": {
          "lat": 37.09024,
          "lng": -95.712891
        },
        "location_type": "APPROXIMATE",
        "viewport": {
          "northeast": {
            "lat": 49.38,
            "lng": -66.94
          },
          "southwest": {
            "lat": 25.82,
            "lng": -124.39
          }
        }
      },
      "place_id": "ChIJCzYy5IS16lQRQrfeQ5K5Oxw",
      "types": [
        "country",
        "political"
      ]
    }
  ],
  "status": "OK"
}
