{
  "results": [
    {
      "address_components": [
        {
          "long_name": "7",
          "short_name": "7",
          "types": [
            "street_number"
          ]
        },
        {
          "long_name": "Catalpa Lane",
          "short_name": "Catalpa Ln",
          "types": [
            "route"
          ]
        },
        {
          "long_name": "Stony Brook",
          "short_name": "Stony Brook",
          "types": [
            "locality",
            "political"
          ]
        },
        {
          "long_name": "Brookhaven",
          "short_name": "Brookhaven",
          "types": [
            "administrative_area_level_3",
            "political"
          ]
        },
        {
          "long_name": "Suffolk County",
          "short_name": "Suffolk County",
          "types": [
            "administrative_area_level_2",
            "political"
          ]
        },
        {
          "long_name": "New York",
          "short_name": "NY",
          "types": [
            "administrative_area_level_1",
            "political"
          ]
        },
        {
          "long_name": "United States",
          "short_name": "US",
          "types": [
            "country",
            "political"
          ]
        },
        {
          "long_name": "11790",
          "short_name": "11790",
          "types": [
            "postal_code"
          ]
        },
        {
          "long_name": "2107",
          "short_name": "2107",
          "types": [
            "postal_code_suffix"
          ]
        }
      ],
      "formatted_address": "7 Catalpa Ln, Stony Brook, NY 11790, USA",
      "geometry": {
        "location": {
          "lat": 40.905722,
          "lng": -73.127855
        },
        "location_type": "ROOFTOP",
        "viewport": {
          "northeast": {
            "lat": 40.9070709802915,
            "lng": -73.12650601970849
          },
          "southwest": {
            "lat": 40.9043730197085,
            "lng": -73.1292039802915
          }
        }
      },
      "place_id": "ChIJE6IVSdM46IkRP0YEq9jwi-E",
      "types": [
        "street_address"
      ]
    },
    {
      "address_components": [
        {
          "long_name": "Stony Brook",
          "short_name": "Stony Brook",
          "types": [
            "locality",
            "political"
          ]
        },
        {
          "long_name": "Brookhaven",
          "short_name": "Brookhaven",
          "types": [
            "administrative_area_level_3",
            "political"
          ]
        },
        {
          "long_name": "Suffolk County",
          "short_name": "Suffolk County",
          "types": [
            "administrative_area_level_2",
            "political"
          ]
        },
        {
          "long_name": "New York",
          "short_name": "NY",
          "types": [
            "administrative_area_level_1",
            "political"
          ]
        },
        {
          "long_name": "United States",
          "short_name": "US",
          "types": [
            "country",
            "political"
          ]
        }
      ],
      "formatted_address": "Stony Brook, NY, USA",
      "geometry": {
        "bounds": {
          "northeast": {
            "lat": 40.9481107,
            "lng": -73.09649069999999
          },
          "southwest": {
            "lat": 40.8691492,
            "lng": -73.1511807
          }
        },
        "location": {
          "lat": 40.9256538,
          "lng": -73.1409429
        },
        "location_type": "APPROXIMATE",
        "viewport": {
          "northeast": {
            "lat": 40.9481107,
            "lng": -73.09649069999999
          },
          "southwest": {
            "lat": 40.8691492,
            "lng": -73.1511807
          }
        }
      },
      "place_id": "ChIJURF4rio_6IkRPmsIHDgl-Uk",
      "types": [
        "locality",
        "political"
      ]
    },
    {
      "address_components": [
        {
          "long_name": "11790",
          "short_name": "11790",
          "types": [
            "postal_code"
          ]
        },
        {
          "long_name": "Stony Brook",
          "short_name": "Stony Brook",
          "types": [
            "locality",
            "political"
          ]
        },
        {
          "long_name": "Suffolk County",
          "short_name": "Suffolk County",
          "types": [
            "administrative_area_level_2",
            "political"
          ]
        },
        {
          "long_name": "New York",
          "short_name": "NY",
          "types": [
            "administrative_area_level_1",
            "political"
          ]
        },
        {
          "long_name": "United States",
          "short_name": "US",
          "types": [
            "country",
            "political"
          ]
        }
      ],
      "formatted_address": "Stony Brook, NY 11790, USA",
      "geometry": {
        "bounds": {
          "northeast": {
            "lat": 40.9477229,
            "lng": -73.0971059
          },
          "southwest": {
            "lat": 40.8690939,
            "lng": -73.1588809
          }
        },
        "location": {
          "lat": 40.9013842,
          "lng": -73.12905959999999
        },
        "location_type": "APPROXIMATE",
        "viewport": {
          "northeast": {
            "lat": 40.9477229,
            "lng": -73.0971059
          },
          "southwest": {
            "lat": 40.8690939,
            "lng": -73.1588809
          }
        }
      },
      "place_id": "ChIJU2SlmSo_6IkRV2Jrb2gbGIs",
      "types": [
        "postal_code"
      ]
    },
    {
      "address_components": [
        {
          "long_name": "Brookhaven",
          "short_name": "Brookhaven",
          "types": [
            "administrative_area_level_3",
            "political"
          ]
        },
        {
          "long_name": "Suffolk County",
          "short_name": "Suffolk County",
          "types": [
            "administrative_area_level_2",
            "political"
          ]
        },
        {
          "long_name": "New York",
          "short_name": "NY",
          "types": [
            "administrative_area_level_1",
            "political"
          ]
        },
        {
          "long_name": "United States",
          "short_name": "US",
          "types": [
            "country",
            "political"
          ]
        }
      ],
      "formatted_address": "Brookhaven, NY, USA",
      "geometry": {
        "bounds": {
          "northeast": {
            "lat": 40.9776667,
            "lng": -72.7029008
          },
          "southwest": {
            "lat": 40.6455704,
            "lng": -73.1590131
          }
        },
        "location": {
          "lat": 40.8858353,
          "lng": -72.99329689999999
        },
        "location_type": "APPROXIMATE",
        "viewport": {
          "northeast": {
            "lat": 40.9776667,
            "lng": -72.7029008
          },
          "southwest": {
            "lat": 40.6455704,
            "lng": -73.1590131
          }
        }
      },
      "place_id": "ChIJC6iSqSlf6IkRKpM-iqF_WnY",
      "types": [
        "administrative_area_level_3",
        "political"
      ]
    },
    {
      "address_components": [
        {
          "long_name": "Suffolk County",
          "short_name": "Suffolk County",
          "types": [
            "administrative_area_level_2",
            "political"
          ]
        },
        {
          "long_name": "New York",
          "short_name": "NY",
          "types": [
            "administrative_area_level_1",
            "political"
          ]
        },
        {
          "long_name": "United States",
          "short_name": "US",
          "types": [
            "country",
            "political"
          ]
        }
      ],
      "formatted_address": "Suffolk County, NY, USA",
      "geometry": {
        "bounds": {
          "northeast": {
            "lat": 41.2923797,
            "lng": -71.8562082
          },
          "southwest": {
            "lat": 40.6094203,
            "lng": -73.497125
          }
        },
        "location": {
          "lat": 40.9848784,
          "lng": -72.61511689999999
        },
        "location_type": "APPROXIMATE",
        "viewport": {
          "northeast": {
            "lat": 41.2923194,
            "lng": -71.8562082
          },
          "southwest": {
            "lat": 40.6094203,
            "lng": -73.497125
          }
        }
      },
      "place_id": "ChIJ1_mbyICu4IkRU18dDUkMxJU",
      "types": [
        "administrative_area_level_2",
        "political"
      ]
    },
    {
      "address_components": [
        {
          "long_name": "New York",
          "short_name": "NY",
          "types": [
            "administrative_area_level_1",
            "political"
          ]
        },
        {
          "long_name": "United States",
          "short_name": "US",
          "types": [
            "country",
            "political"
          ]
        }
      ],
      "formatted_address": "New York, USA",
      "geometry": {
        "bounds": {
          "northeast": {
            "lat": 45.015865,
            "lng": -71.85620639999999
          },
          "southwest": {
            "lat": 40.496091,
            "lng": -79.76214379999999
          }
        },
        "location": {
          "lat": 43.2994285,
          "lng": -74.21793260000001
        },
        "location_type": "APPROXIMATE",
        "viewport": {
          "northeast": {
            "lat": 45.015859,
            "lng": -71.85620639999999
          },
          "southwest": {
            "lat": 40.496091,
            "lng": -79.76214379999999
          }
        }
      },
      "place_id": "ChIJqaUj8fBLzEwRZ5UY3sHGz90",
      "types": [
        "administrative_area_level_1",
        "political"
      ]
    },
    {
      "address_components": [
        {
          "long_name": "United States",
          "short_name": "US",
          "types": [
            "country",
            "political"
          ]
        }
      ],
      "formatted_address": "United States",
      "geometry": {
        "bounds": {
          "northeast": {
            "lat": 71.3867745,
            "lng": -66.9502861
          },
          "southwest": {
            "lat": 18.9106768,
            "lng": 172.4458955
          }
        },
        "location": {
          "lat": 37.09024,
          "lng": -95.712891
        },
        "location_type": "APPROXIMATE",
        "viewport": {
          "northeast": {
            "lat": 49.38,
            "lng": -66.94
          },
          "southwest": {
            "lat": 25.82,
            "lng": -124.39
          }
        }
      },
      "place_id": "ChIJCzYy5IS16lQRQrfeQ5K5Oxw",
      "types": [
        "country",
        "political"
      ]
    }
  ],
  "status": "OK"
}
