{
  "results": [
    {
      "address_components": [
        {
          "long_name": "7902",
          "short_name": "7902",
          "types": [
            "street_number"
          ]
        },
        {
          "long_name": "Main Street",
          "short_name": "Main St",
          "types": [
            "route"
          ]
        },
        {
          "long_name": "Lanesville",
          "short_name": "Lanesville",
          "types": [
            "locality",
            "political"
          ]
        },
        {
          "long_name": "Hunter",
          "short_name": "Hunter",
          "types": [
            "administrative_area_level_3",
            "political"
          ]
        },
        {
          "long_name": "Greene County",
          "short_name": "Greene County",
          "types": [
            "administrative_area_level_2",
            "political"
          ]
        },
        {
          "long_name": "New York",
          "short_name": "NY",
          "types": [
            "administrative_area_level_1",
            "political"
          ]
        },
        {
          "long_name": "United States",
          "short_name": "US",
          "types": [
            "country",
            "political"
          ]
        },
        {
          "long_name": "12450",
          "short_name": "12450",
          "types": [
            "postal_code"
          ]
        }
      ],
      "formatted_address": "7902 Main St, Lanesville, NY 12450, USA",
      "geometry": {
        "location": {
          "lat": 42.211721,
          "lng": -74.216014
        },
        "location_type": "ROOFTOP",
        "viewport": {
          "northeast": {
            "lat": 42.2130699802915,
            "lng": -74.2146650197085
          },
          "southwest": {
            "lat": 42.2103720197085,
            "lng": -74.21736298029151
          }
        }
      },
      "place_id": "ChIJkW7ebjWt3YkRineddqmhbCA",
      "types": [
        "street_address"
      ]
    },
    {
      "address_components": [
        {
          "long_name": "Hunter",
          "short_name": "Hunter",
          "types": [
            "locality",
            "political"
          ]
        },
        {
          "long_name": "Hunter",
          "short_name": "Hunter",
          "types": [
            "administrative_area_level_3",
            "political"
          ]
        },
        {
          "long_name": "Greene County",
          "short_name": "Greene County",
          "types": [
            "administrative_area_level_2",
            "political"
          ]
        },
        {
          "long_name": "New York",
          "short_name": "NY",
          "types": [
            "administrative_area_level_1",
            "political"
          ]
        },
        {
          "long_name": "United States",
          "short_name": "US",
          "types": [
            "country",
            "political"
          ]
        }
      ],
      "formatted_address": "Hunter, NY, USA",
      "geometry": {
        "bounds": {
          "northeast": {
            "lat": 42.224261,
            "lng": -74.1939809
          },
          "southwest": {
            "lat": 42.200226,
            "lng": -74.2393769
          }
        },
        "location": {
          "lat": 42.21369869999999,
          "lng": -74.2187541
        },
        "location_type": "APPROXIMATE",
        "viewport": {
          "northeast": {
            "lat": 42.224261,
            "lng": -74.1939809
          },
          "southwest": {
            "lat": 42.200226,
            "lng": -74.2393769
          }
        }
      },
      "place_id": "ChIJ2WwbioRS3IkRp4aiD5826AI",
      "types": [
        "locality",
        "political"
      ]
    },
    {
      "address_components": [
        {
          "long_name": "12442",
          "short_name": "12442",
          "types": [
            "postal_code"
          ]
        },
        {
          "long_name": "Hunter",
          "short_name": "Hunter",
          "types": [
            "locality",
            "political"
          ]
        },
        {
          "long_name": "Greene County",
          "short_name": "Greene County",
          "types": [
            "administrative_area_level_2",
            "political"
          ]
        },
        {
          "long_name": "New York",
          "short_name": "NY",
          "types": [
            "administrative_area_level_1",
            "political"
          ]
        },
        {
          "long_name": "United States",
          "short_name": "US",
          "types": [
            "country",
            "political"
          ]
        }
      ],
      "formatted_address": "Hunter, NY 12442, USA",
      "geometry": {
        "bounds": {
          "northeast": {
            "lat": 42.2662249,
            "lng": -74.16888209999999
          },
          "southwest": {
            "lat": 42.1941919,
            "lng": -74.3339988
          }
        },
        "location": {
          "lat": 42.220738,
          "lng": -74.2061931
        },
        "location_type": "APPROXIMATE",
        "viewport": {
          "northeast": {
            "lat": 42.2662249,
            "lng": -74.16888209999999
          },
          "southwest": {
            "lat": 42.1941919,
            "lng": -74.3339988
          }
        }
      },
      "place_id": "ChIJ-9BNNIlS3IkRFFub2Yv4SFM",
      "types": [
        "postal_code"
      ]
    },
    {
      "address_components": [
        {
          "long_name": "Hunter",
          "short_name": "Hunter",
          "types": [
            "administrative_area_level_3",
            "political"
          ]
        },
        {
          "long_name": "Greene County",
          "short_name": "Greene County",
          "types": [
            "administrative_area_level_2",
            "political"
          ]
        },
        {
          "long_name": "New York",
          "short_name": "NY",
          "types": [
            "administrative_area_level_1",
            "political"
          ]
        },
        {
          "long_name": "United States",
          "short_name": "US",
          "types": [
            "country",
            "political"
          ]
        }
      ],
      "formatted_address": "Hunter, NY, USA",
      "geometry": {
        "bounds": {
          "northeast": {
            "lat": 42.23735,
            "lng": -74.0303611
          },
          "southwest": {
            "lat": 42.096589,
            "lng": -74.286479
          }
        },
        "location": {
          "lat": 42.164288,
          "lng": -74.1474846
        },
        "location_type": "APPROXIMATE",
        "viewport": {
          "northeast": {
            "lat": 42.23735,
            "lng": -74.0303611
          },
          "southwest": {
            "lat": 42.096589,
            "lng": -74.286479
          }
        }
      },
      "place_id": "ChIJ2QIVuEKs3YkRaa_nVzkDeEY",
      "types": [
        "administrative_area_level_3",
        "political"
      ]
    },
    {
      "address_components": [
        {
          "long_name": "Greene County",
          "short_name": "Greene County",
          "types": [
            "administrative_area_level_2",
            "political"
          ]
        },
        {
          "long_name": "New York",
          "short_name": "NY",
          "types": [
            "administrative_area_level_1",
            "political"
          ]
        },
        {
          "long_name": "United States",
          "short_name": "US",
          "types": [
            "country",
            "political"
          ]
        }
      ],
      "formatted_address": "Greene County, NY, USA",
      "geometry": {
        "bounds": {
          "northeast": {
            "lat": 42.46394600000001,
            "lng": -73.7736699
          },
          "southwest": {
            "lat": 42.096589,
            "lng": -74.5373098
          }
        },
        "location": {
          "lat": 42.2957321,
          "lng": -74.12399599999999
        },
        "location_type": "APPROXIMATE",
        "viewport": {
          "northeast": {
            "lat": 42.46394600000001,
            "lng": -73.7736699
          },
          "southwest": {
            "lat": 42.096589,
            "lng": -74.5373098
          }
        }
      },
      "place_id": "ChIJ48zRePCr3YkRM5U9kPJWVjs",
      "types": [
        "administrative_area_level_2",
        "political"
      ]
    },
    {
      "address_components": [
        {
          "long_name": "New York",
          "short_name": "NY",
          "types": [
            "administrative_area_level_1",
            "political"
          ]
        },
        {
          "long_name": "United States",
          "short_name": "US",
          "types": [
            "country",
            "political"
          ]
        }
      ],
      "formatted_address": "New York, USA",
      "geometry": {
        "bounds": {
          "northeast": {
            "lat": 45.015865,
            "lng": -71.85620639999999
          },
          "southwest": {
            "lat": 40.496091,
            "lng": -79.76214379999999
          }
        },
        "location": {
          "lat": 43.2994285,
          "lng": -74.21793260000001
        },
        "location_type": "APPROXIMATE",
        "viewport": {
          "northeast": {
            "lat": 45.015859,
            "lng": -71.85620639999999
          },
          "southwest": {
            "lat": 40.496091,
            "lng": -79.76214379999999
          }
        }
      },
      "place_id": "ChIJqaUj8fBLzEwRZ5UY3sHGz90",
      "types": [
        "administrative_area_level_1",
        "political"
      ]
    },
    {
      "address_components": [
        {
          "long_name": "United States",
          "short_name": "US",
          "types": [
            "country",
            "political"
          ]
        }
      ],
      "formatted_address": "United States",
      "geometry": {
        "bounds": {
          "northeast": {
            "lat": 71.3867745,
            "lng": -66.9502861
          },
          "southwest": {
            "lat": 18.9106768,
            "lng": 172.4458955
          }
        },
        "location": {
          "lat": 37.09024,
          "lng": -95.712891
        },
        "location_type": "APPROXIMATE",
        "viewport": {
          "northeast": {
            "lat": 49.38,
            "lng": -66.94
          },
          "southwest": {
            "lat": 25.82,
            "lng": -124.39
          }
        }
      },
      "place_id": "ChIJCzYy5IS16lQRQrfeQ5K5Oxw",
      "types": [
        "country",
        "political"
      ]
    }
  ],
  "status": "OK"
}
