{
  "results": [
    {
      "address_components": [
        {
          "long_name": "3",
          "short_name": "3",
          "types": [
            "street_number"
          ]
        },
        {
          "long_name": "Quogue Road",
          "short_name": "Quogue Rd",
          "types": [
            "route"
          ]
        },
        {
          "long_name": "Patterson",
          "short_name": "Patterson",
          "types": [
            "locality",
            "political"
          ]
        },
        {
          "long_name": "Patterson",
          "short_name": "Patterson",
          "types": [
            "administrative_area_level_3",
            "political"
          ]
        },
        {
          "long_name": "Putnam County",
          "short_name": "Putnam County",
          "types": [
            "administrative_area_level_2",
            "political"
          ]
        },
        {
          "long_name": "New York",
          "short_name": "NY",
          "types": [
            "administrative_area_level_1",
            "political"
          ]
        },
        {
          "long_name": "United States",
          "short_name": "US",
          "types": [
            "country",
            "political"
          ]
        },
        {
          "long_name": "12563",
          "short_name": "12563",
          "types": [
            "postal_code"
          ]
        },
        {
          "long_name": "1718",
          "short_name": "1718",
          "types": [
            "postal_code_suffix"
          ]
        }
      ],
      "formatted_address": "3 Quogue Rd, Patterson, NY 12563, USA",
      "geometry": {
        "location": {
          "lat": 41.474904,
          "lng": -73.548216
        },
        "location_type": "ROOFTOP",
        "viewport": {
          "northeast": {
            "lat": 41.4762529802915,
            "lng": -73.5468670197085
          },
          "southwest": {
            "lat": 41.4735550197085,
            "lng": -73.5495649802915
          }
        }
      },
      "place_id": "ChIJN7_zgtdW3YkR92uv2skBgNk",
      "types": [
        "street_address"
      ]
    },
    {
      "address_components": [
        {
          "long_name": "Putnam Lake",
          "short_name": "Putnam Lake",
          "types": [
            "locality",
            "political"
          ]
        },
        {
          "long_name": "Patterson",
          "short_name": "Patterson",
          "types": [
            "administrative_area_level_3",
            "political"
          ]
        },
        {
          "long_name": "Putnam County",
          "short_name": "Putnam County",
          "types": [
            "administrative_area_level_2",
            "political"
          ]
        },
        {
          "long_name": "New York",
          "short_name": "NY",
          "types": [
            "administrative_area_level_1",
            "political"
          ]
        },
        {
          "long_name": "United States",
          "short_name": "US",
          "types": [
            "country",
            "political"
          ]
        }
      ],
      "formatted_address": "Putnam Lake, NY, USA",
      "geometry": {
        "bounds": {
          "northeast": {
            "lat": 41.4987799,
            "lng": -73.532602
          },
          "southwest": {
            "lat": 41.4497849,
            "lng": -73.5708899
          }
        },
        "location": {
          "lat": 41.4620384,
          "lng": -73.54623649999999
        },
        "location_type": "APPROXIMATE",
        "viewport": {
          "northeast": {
            "lat": 41.4987799,
            "lng": -73.532602
          },
          "southwest": {
            "lat": 41.4497849,
            "lng": -73.5708899
          }
        }
      },
      "place_id": "ChIJc-f3KChX3YkRuAFvd4wFE2g",
      "types": [
        "locality",
        "political"
      ]
    },
    {
      "address_components": [
        {
          "long_name": "Patterson",
          "short_name": "Patterson",
          "types": [
            "administrative_area_level_3",
            "political"
          ]
        },
        {
          "long_name": "Putnam County",
          "short_name": "Putnam County",
          "types": [
            "administrative_area_level_2",
            "political"
          ]
        },
        {
          "long_name": "New York",
          "short_name": "NY",
          "types": [
            "administrative_area_level_1",
            "political"
          ]
        },
        {
          "long_name": "United States",
          "short_name": "US",
          "types": [
            "country",
            "political"
          ]
        }
      ],
      "formatted_address": "Patterson, NY, USA",
      "geometry": {
        "bounds": {
          "northeast": {
            "lat": 41.5271939,
            "lng": -73.5300669
          },
          "southwest": {
            "lat": 41.43970179999999,
            "lng": -73.653187
          }
        },
        "location": {
          "lat": 41.4937986,
          "lng": -73.59474589999999
        },
        "location_type": "APPROXIMATE",
        "viewport": {
          "northeast": {
            "lat": 41.5271939,
            "lng": -73.5300669
          },
          "southwest": {
            "lat": 41.43970179999999,
            "lng": -73.653187
          }
        }
      },
      "place_id": "ChIJ-VqAkQJR3YkRXdEckenUFho",
      "types": [
        "administrative_area_level_3",
        "political"
      ]
    },
    {
      "address_components": [
        {
          "long_name": "12563",
          "short_name": "12563",
          "types": [
            "postal_code"
          ]
        },
        {
          "long_name": "Patterson",
          "short_name": "Patterson",
          "types": [
            "locality",
            "political"
          ]
        },
        {
          "long_name": "New York",
          "short_name": "NY",
          "types": [
            "administrative_area_level_1",
            "political"
          ]
        },
        {
          "long_name": "United States",
          "short_name": "US",
          "types": [
            "country",
            "political"
          ]
        }
      ],
      "formatted_address": "Patterson, NY 12563, USA",
      "geometry": {
        "bounds": {
          "northeast": {
            "lat": 41.5271939,
            "lng": -73.5300669
          },
          "southwest": {
            "lat": 41.4441059,
            "lng": -73.660009
          }
        },
        "location": {
          "lat": 41.5098312,
          "lng": -73.5711912
        },
        "location_type": "APPROXIMATE",
        "viewport": {
          "northeast": {
            "lat": 41.5271939,
            "lng": -73.5300669
          },
          "southwest": {
            "lat": 41.4441059,
            "lng": -73.660009
          }
        }
      },
      "place_id": "ChIJOUJIGcFQ3YkRFhy93KzcBew",
      "types": [
        "postal_code"
      ]
    },
    {
      "address_components": [
        {
          "long_name": "Putnam County",
          "short_name": "Putnam County",
          "types": [
            "administrative_area_level_2",
            "political"
          ]
        },
        {
          "long_name": "New York",
          "short_name": "NY",
          "types": [
            "administrative_area_level_1",
            "political"
          ]
        },
        {
          "long_name": "United States",
          "short_name": "US",
          "types": [
            "country",
            "political"
          ]
        }
      ],
      "formatted_address": "Putnam County, NY, USA",
      "geometry": {
        "bounds": {
          "northeast": {
            "lat": 41.5271939,
            "lng": -73.5300669
          },
          "southwest": {
            "lat": 41.3221005,
            "lng": -73.9795619
          }
        },
        "location": {
          "lat": 41.4351069,
          "lng": -73.7948516
        },
        "location_type": "APPROXIMATE",
        "viewport": {
          "northeast": {
            "lat": 41.5271939,
            "lng": -73.5300669
          },
          "southwest": {
            "lat": 41.3221005,
            "lng": -73.9795619
          }
        }
      },
      "place_id": "ChIJgyl7a4q5wokRpasvaS5bGeo",
      "types": [
        "administrative_area_level_2",
        "political"
      ]
    },
    {
      "address_components": [
        {
          "long_name": "New York",
          "short_name": "NY",
          "types": [
            "administrative_area_level_1",
            "political"
          ]
        },
        {
          "long_name": "United States",
          "short_name": "US",
          "types": [
            "country",
            "political"
          ]
        }
      ],
      "formatted_address": "New York, USA",
      "geometry": {
        "bounds": {
          "northeast": {
            "lat": 45.015865,
            "lng": -71.85620639999999
          },
          "southwest": {
            "lat": 40.496091,
            "lng": -79.76214379999999
          }
        },
        "location": {
          "lat": 43.2994285,
          "lng": -74.21793260000001
        },
        "location_type": "APPROXIMATE",
        "viewport": {
          "northeast": {
            "lat": 45.015859,
            "lng": -71.85620639999999
          },
          "southwest": {
            "lat": 40.496091,
            "lng": -79.76214379999999
          }
        }
      },
      "place_id": "ChIJqaUj8fBLzEwRZ5UY3sHGz90",
      "types": [
        "administrative_area_level_1",
        "political"
      ]
    },
    {
      "address_components": [
        {
          "long_name": "United States",
          "short_name": "US",
          "types": [
            "country",
            "political"
          ]
        }
      ],
      "formatted_address": "United States",
      "geometry": {
        "bounds": {
          "northeast": {
            "lat": 71.3867745,
            "lng": -66.9502861
          },
          "southwest": {
            "lat": 18.9106768,
            "lng": 172.4458955
          }
        },
        "location": {
          "lat": 37.09024,
          "lng": -95.712891
        },
        "location_type": "APPROXIMATE",
        "viewport": {
          "northeast": {
            "lat": 49.38,
            "lng": -66.94
          },
          "southwest": {
            "lat": 25.82,
            "lng": -124.39
          }
        }
      },
      "place_id": "ChIJCzYy5IS16lQRQrfeQ5K5Oxw",
      "types": [
        "country",
        "political"
      ]
    }
  ],
  "status": "OK"
}
