{
  "results": [
    {
      "address_components": [
        {
          "long_name": "302",
          "short_name": "302",
          "types": [
            "street_number"
          ]
        },
        {
          "long_name": "2nd Street",
          "short_name": "2nd St",
          "types": [
            "route"
          ]
        },
        {
          "long_name": "Randall",
          "short_name": "Randall",
          "types": [
            "locality",
            "political"
          ]
        },
        {
          "long_name": "Prairie",
          "short_name": "Prairie",
          "types": [
            "administrative_area_level_3",
            "political"
          ]
        },
        {
          "long_name": "Jewell County",
          "short_name": "Jewell County",
          "types": [
            "administrative_area_level_2",
            "political"
          ]
        },
        {
          "long_name": "Kansas",
          "short_name": "KS",
          "types": [
            "administrative_area_level_1",
            "political"
          ]
        },
        {
          "long_name": "United States",
          "short_name": "US",
          "types": [
            "country",
            "political"
          ]
        },
        {
          "long_name": "66963",
          "short_name": "66963",
          "types": [
            "postal_code"
          ]
        },
        {
          "long_name": "4038",
          "short_name": "4038",
          "types": [
            "postal_code_suffix"
          ]
        }
      ],
      "formatted_address": "302 2nd St, Randall, KS 66963, USA",
      "geometry": {
        "location": {
          "lat": 39.6413939,
          "lng": -98.04591699999999
        },
        "location_type": "ROOFTOP",
        "viewport": {
          "northeast": {
            "lat": 39.64274288029149,
            "lng": -98.04456801970849
          },
          "southwest": {
            "lat": 39.64004491970849,
            "lng": -98.0472659802915
          }
        }
      },
      "place_id": "ChIJAUefr8qmoocRoiSJwuxOSkk",
      "types": [
        "street_address"
      ]
    },
    {
      "address_components": [
        {
          "long_name": "Randall",
          "short_name": "Randall",
          "types": [
            "locality",
            "political"
          ]
        },
        {
          "long_name": "Prairie",
          "short_name": "Prairie",
          "types": [
            "administrative_area_level_3",
            "political"
          ]
        },
        {
          "long_name": "Jewell County",
          "short_name": "Jewell County",
          "types": [
            "administrative_area_level_2",
            "political"
          ]
        },
        {
          "long_name": "Kansas",
          "short_name": "KS",
          "types": [
            "administrative_area_level_1",
            "political"
          ]
        },
        {
          "long_name": "United States",
          "short_name": "US",
          "types": [
            "country",
            "political"
          ]
        },
        {
          "long_name": "66963",
          "short_name": "66963",
          "types": [
            "postal_code"
          ]
        }
      ],
      "formatted_address": "Randall, KS 66963, USA",
      "geometry": {
        "bounds": {
          "northeast": {
            "lat": 39.6464501,
            "lng": -98.04217399999999
          },
          "southwest": {
            "lat": 39.6361019,
            "lng": -98.0484851
          }
        },
        "location": {
          "lat": 39.642508,
          "lng": -98.04476869999999
        },
        "location_type": "APPROXIMATE",
        "viewport": {
          "northeast": {
            "lat": 39.6464501,
            "lng": -98.04217399999999
          },
          "southwest": {
            "lat": 39.6361019,
            "lng": -98.0484851
          }
        }
      },
      "place_id": "ChIJ-YLvl8qmoocRHoyq_AdrZ5g",
      "types": [
        "locality",
        "political"
      ]
    },
    {
      "address_components": [
        {
          "long_name": "66963",
          "short_name": "66963",
          "types": [
            "postal_code"
          ]
        },
        {
          "long_name": "Randall",
          "short_name": "Randall",
          "types": [
            "locality",
            "political"
          ]
        },
        {
          "long_name": "Jewell County",
          "short_name": "Jewell County",
          "types": [
            "administrative_area_level_2",
            "political"
          ]
        },
        {
          "long_name": "Kansas",
          "short_name": "KS",
          "types": [
            "administrative_area_level_1",
            "political"
          ]
        },
        {
          "long_name": "United States",
          "short_name": "US",
          "types": [
            "country",
            "political"
          ]
        }
      ],
      "formatted_address": "Randall, KS 66963, USA",
      "geometry": {
        "bounds": {
          "northeast": {
            "lat": 39.7116981,
            "lng": -97.94999209999999
          },
          "southwest": {
            "lat": 39.5815369,
            "lng": -98.0810569
          }
        },
        "location": {
          "lat": 39.6453803,
          "lng": -97.9810845
        },
        "location_type": "APPROXIMATE",
        "viewport": {
          "northeast": {
            "lat": 39.7116981,
            "lng": -97.94999209999999
          },
          "southwest": {
            "lat": 39.5815369,
            "lng": -98.0810569
          }
        }
      },
      "place_id": "ChIJ2chGuiyioocRdhzLwsc5Jjo",
      "types": [
        "postal_code"
      ]
    },
    {
      "address_components": [
        {
          "long_name": "Prairie",
          "short_name": "Prairie",
          "types": [
            "administrative_area_level_3",
            "political"
          ]
        },
        {
          "long_name": "Jewell County",
          "short_name": "Jewell County",
          "types": [
            "administrative_area_level_2",
            "political"
          ]
        },
        {
          "long_name": "Kansas",
          "short_name": "KS",
          "types": [
            "administrative_area_level_1",
            "political"
          ]
        },
        {
          "long_name": "United States",
          "short_name": "US",
          "types": [
            "country",
            "political"
          ]
        }
      ],
      "formatted_address": "Prairie, KS, USA",
      "geometry": {
        "bounds": {
          "northeast": {
            "lat": 39.654074,
            "lng": -98.03404909999999
          },
          "southwest": {
            "lat": 39.567077,
            "lng": -98.15718609999999
          }
        },
        "location": {
          "lat": 39.5952408,
          "lng": -98.1120116
        },
        "location_type": "APPROXIMATE",
        "viewport": {
          "northeast": {
            "lat": 39.654074,
            "lng": -98.03404909999999
          },
          "southwest": {
            "lat": 39.567077,
            "lng": -98.15718609999999
          }
        }
      },
      "place_id": "ChIJh7XBxiyioocR4xTDxgkRLlM",
      "types": [
        "administrative_area_level_3",
        "political"
      ]
    },
    {
      "address_components": [
        {
          "long_name": "Jewell County",
          "short_name": "Jewell County",
          "types": [
            "administrative_area_level_2",
            "political"
          ]
        },
        {
          "long_name": "Kansas",
          "short_name": "KS",
          "types": [
            "administrative_area_level_1",
            "political"
          ]
        },
        {
          "long_name": "United States",
          "short_name": "US",
          "types": [
            "country",
            "political"
          ]
        }
      ],
      "formatted_address": "Jewell County, KS, USA",
      "geometry": {
        "bounds": {
          "northeast": {
            "lat": 40.002662,
            "lng": -97.9314809
          },
          "southwest": {
            "lat": 39.5669029,
            "lng": -98.50529490000001
          }
        },
        "location": {
          "lat": 39.7720227,
          "lng": -98.2212979
        },
        "location_type": "APPROXIMATE",
        "viewport": {
          "northeast": {
            "lat": 40.002662,
            "lng": -97.9314809
          },
          "southwest": {
            "lat": 39.5669029,
            "lng": -98.50529490000001
          }
        }
      },
      "place_id": "ChIJlaPQQe9zmIcReixXcueS9Wg",
      "types": [
        "administrative_area_level_2",
        "political"
      ]
    },
    {
      "address_components": [
        {
          "long_name": "Kansas",
          "short_name": "KS",
          "types": [
            "administrative_area_level_1",
            "political"
          ]
        },
        {
          "long_name": "United States",
          "short_name": "US",
          "types": [
            "country",
            "political"
          ]
        }
      ],
      "formatted_address": "Kansas, USA",
      "geometry": {
        "bounds": {
          "northeast": {
            "lat": 40.0045419,
            "lng": -94.588387
          },
          "southwest": {
            "lat": 36.9930159,
            "lng": -102.0517688
          }
        },
        "location": {
          "lat": 39.011902,
          "lng": -98.4842465
        },
        "location_type": "APPROXIMATE",
        "viewport": {
          "northeast": {
            "lat": 40.0045419,
            "lng": -94.588387
          },
          "southwest": {
            "lat": 36.9930159,
            "lng": -102.0517688
          }
        }
      },
      "place_id": "ChIJawF8cXEXo4cRXwk-S6m0wmg",
      "types": [
        "administrative_area_level_1",
        "political"
      ]
    },
    {
      "address_components": [
        {
          "long_name": "United States",
          "short_name": "US",
          "types": [
            "country",
            "political"
          ]
        }
      ],
      "formatted_address": "United States",
      "geometry": {
        "bounds": {
          "northeast": {
            "lat": 71.3867745,
            "lng": -66.9502861
          },
          "southwest": {
            "lat": 18.9106768,
            "lng": 172.4458955
          }
        },
        "location": {
          "lat": 37.09024,
          "lng": -95.712891
        },
        "location_type": "APPROXIMATE",
        "viewport": {
          "northeast": {
            "lat": 49.38,
            "lng": -66.94
          },
          "southwest": {
            "lat": 25.82,
            "lng": -124.39
          }
        }
      },
      "place_id": "ChIJCzYy5IS16lQRQrfeQ5K5Oxw",
      "types": [
        "country",
        "political"
      ]
    }
  ],
  "status": "OK"
}
