{
  "results": [
    {
      "address_components": [
        {
          "long_name": "Creek Street",
          "short_name": "Creek St",
          "types": [
            "route"
          ]
        },
        {
          "long_name": "Glenallen",
          "short_name": "Glenallen",
          "types": [
            "sublocality_level_1",
            "sublocality",
            "political"
          ]
        },
        {
          "long_name": "Glen Allen",
          "short_name": "Glen Allen",
          "types": [
            "locality",
            "political"
          ]
        },
        {
          "long_name": "Lorance Township",
          "short_name": "Lorance Township",
          "types": [
            "administrative_area_level_3",
            "political"
          ]
        },
        {
          "long_name": "Bollinger County",
          "short_name": "Bollinger County",
          "types": [
            "administrative_area_level_2",
            "political"
          ]
        },
        {
          "long_name": "Missouri",
          "short_name": "MO",
          "types": [
            "administrative_area_level_1",
            "political"
          ]
        },
        {
          "long_name": "United States",
          "short_name": "US",
          "types": [
            "country",
            "political"
          ]
        },
        {
          "long_name": "63751",
          "short_name": "63751",
          "types": [
            "postal_code"
          ]
        }
      ],
      "formatted_address": "Creek St, Glenallen, MO 63751, USA",
      "geometry": {
        "bounds": {
          "northeast": {
            "lat": 37.3174009,
            "lng": -90.0281679
          },
          "southwest": {
            "lat": 37.317029,
            "lng": -90.0292671
          }
        },
        "location": {
          "lat": 37.3171759,
          "lng": -90.0287058
        },
        "location_type": "GEOMETRIC_CENTER",
        "viewport": {
          "northeast": {
            "lat": 37.3185639302915,
            "lng": -90.0273685197085
          },
          "southwest": {
            "lat": 37.3158659697085,
            "lng": -90.03006648029151
          }
        }
      },
      "place_id": "ChIJT5DXkjcA2IcRjhe8SUnWsRA",
      "types": [
        "route"
      ]
    },
    {
      "address_components": [
        {
          "long_name": "Glen Allen",
          "short_name": "Glen Allen",
          "types": [
            "locality",
            "political"
          ]
        },
        {
          "long_name": "Lorance Township",
          "short_name": "Lorance Township",
          "types": [
            "administrative_area_level_3",
            "political"
          ]
        },
        {
          "long_name": "Bollinger County",
          "short_name": "Bollinger County",
          "types": [
            "administrative_area_level_2",
            "political"
          ]
        },
        {
          "long_name": "Missouri",
          "short_name": "MO",
          "types": [
            "administrative_area_level_1",
            "political"
          ]
        },
        {
          "long_name": "United States",
          "short_name": "US",
          "types": [
            "country",
            "political"
          ]
        },
        {
          "long_name": "63751",
          "short_name": "63751",
          "types": [
            "postal_code"
          ]
        }
      ],
      "formatted_address": "Glen Allen, MO 63751, USA",
      "geometry": {
        "bounds": {
          "northeast": {
            "lat": 37.3199139,
            "lng": -90.024069
          },
          "southwest": {
            "lat": 37.3140039,
            "lng": -90.0306519
          }
        },
        "location": {
          "lat": 37.3165854,
          "lng": -90.02857
        },
        "location_type": "APPROXIMATE",
        "viewport": {
          "northeast": {
            "lat": 37.3199139,
            "lng": -90.024069
          },
          "southwest": {
            "lat": 37.3140039,
            "lng": -90.0306519
          }
        }
      },
      "place_id": "ChIJdTClPDgA2IcRHIGvrrIevZ0",
      "types": [
        "locality",
        "political"
      ]
    },
    {
      "address_components": [
        {
          "long_name": "63751",
          "short_name": "63751",
          "types": [
            "postal_code"
          ]
        },
        {
          "long_name": "Glenallen",
          "short_name": "Glenallen",
          "types": [
            "sublocality_level_1",
            "sublocality",
            "political"
          ]
        },
        {
          "long_name": "Missouri",
          "short_name": "MO",
          "types": [
            "administrative_area_level_1",
            "political"
          ]
        },
        {
          "long_name": "United States",
          "short_name": "US",
          "types": [
            "country",
            "political"
          ]
        }
      ],
      "formatted_address": "Glenallen, MO 63751, USA",
      "geometry": {
        "bounds": {
          "northeast": {
            "lat": 37.3948848,
            "lng": -89.99003789999999
          },
          "southwest": {
            "lat": 37.173394,
            "lng": -90.2200198
          }
        },
        "location": {
          "lat": 37.3185806,
          "lng": -90.0559939
        },
        "location_type": "APPROXIMATE",
        "viewport": {
          "northeast": {
            "lat": 37.3948848,
            "lng": -89.99003789999999
          },
          "southwest": {
            "lat": 37.173394,
            "lng": -90.2200198
          }
        }
      },
      "place_id": "ChIJQ0z2dpAB2IcRFwgA94elgkI",
      "types": [
        "postal_code"
      ]
    },
    {
      "address_components": [
        {
          "long_name": "Lorance Township",
          "short_name": "Lorance Township",
          "types": [
            "administrative_area_level_3",
            "political"
          ]
        },
        {
          "long_name": "Bollinger County",
          "short_name": "Bollinger County",
          "types": [
            "administrative_area_level_2",
            "political"
          ]
        },
        {
          "long_name": "Missouri",
          "short_name": "MO",
          "types": [
            "administrative_area_level_1",
            "political"
          ]
        },
        {
          "long_name": "United States",
          "short_name": "US",
          "types": [
            "country",
            "political"
          ]
        }
      ],
      "formatted_address": "Lorance Township, MO, USA",
      "geometry": {
        "bounds": {
          "northeast": {
            "lat": 37.371175,
            "lng": -89.8622121
          },
          "southwest": {
            "lat": 37.2470209,
            "lng": -90.10912309999999
          }
        },
        "location": {
          "lat": 37.3185923,
          "lng": -89.9813445
        },
        "location_type": "APPROXIMATE",
        "viewport": {
          "northeast": {
            "lat": 37.371175,
            "lng": -89.8622121
          },
          "southwest": {
            "lat": 37.2470209,
            "lng": -90.10912309999999
          }
        }
      },
      "place_id": "ChIJy_q75Oz_d4gRdDWczqmcrDg",
      "types": [
        "administrative_area_level_3",
        "political"
      ]
    },
    {
      "address_components": [
        {
          "long_name": "Bollinger County",
          "short_name": "Bollinger County",
          "types": [
            "administrative_area_level_2",
            "political"
          ]
        },
        {
          "long_name": "Missouri",
          "short_name": "MO",
          "types": [
            "administrative_area_level_1",
            "political"
          ]
        },
        {
          "long_name": "United States",
          "short_name": "US",
          "types": [
            "country",
            "political"
          ]
        }
      ],
      "formatted_address": "Bollinger County, MO, USA",
      "geometry": {
        "bounds": {
          "northeast": {
            "lat": 37.599286,
            "lng": -89.86112279999999
          },
          "southwest": {
            "lat": 37.04001909999999,
            "lng": -90.22322989999999
          }
        },
        "location": {
          "lat": 37.2115595,
          "lng": -90.0746767
        },
        "location_type": "APPROXIMATE",
        "viewport": {
          "northeast": {
            "lat": 37.599286,
            "lng": -89.86112279999999
          },
          "southwest": {
            "lat": 37.04001909999999,
            "lng": -90.22322989999999
          }
        }
      },
      "place_id": "ChIJCx-SlaIC2IcRdzI9q4zgY-A",
      "types": [
        "administrative_area_level_2",
        "political"
      ]
    },
    {
      "address_components": [
        {
          "long_name": "Missouri",
          "short_name": "MO",
          "types": [
            "administrative_area_level_1",
            "political"
          ]
        },
        {
          "long_name": "United States",
          "short_name": "US",
          "types": [
            "country",
            "political"
          ]
        }
      ],
      "formatted_address": "Missouri, USA",
      "geometry": {
        "bounds": {
          "northeast": {
            "lat": 40.61364,
            "lng": -89.09949399999999
          },
          "southwest": {
            "lat": 35.9956829,
            "lng": -95.774704
          }
        },
        "location": {
          "lat": 37.9642529,
          "lng": -91.8318334
        },
        "location_type": "APPROXIMATE",
        "viewport": {
          "northeast": {
            "lat": 40.61364,
            "lng": -89.09949399999999
          },
          "southwest": {
            "lat": 35.9956829,
            "lng": -95.774704
          }
        }
      },
      "place_id": "ChIJfeMiSNXmwIcRcr1mBFnEW7U",
      "types": [
        "administrative_area_level_1",
        "political"
      ]
    },
    {
      "address_components": [
        {
          "long_name": "United States",
          "short_name": "US",
          "types": [
            "country",
            "political"
          ]
        }
      ],
      "formatted_address": "United States",
      "geometry": {
        "bounds": {
          "northeast": {
            "lat": 71.3867745,
            "lng": -66.9502861
          },
          "southwest": {
            "lat": 18.9106768,
            "lng": 172.4458955
          }
        },
        "location": {
          "lat": 37.09024,
          "lng": -95.712891
        },
        "location_type": "APPROXIMATE",
        "viewport": {
          "northeast": {
            "lat": 49.38,
            "lng": -66.94
          },
          "southwest": {
            "lat": 25.82,
            "lng": -124.39
          }
        }
      },
      "place_id": "ChIJCzYy5IS16lQRQrfeQ5K5Oxw",
      "types": [
        "country",
        "political"
      ]
    }
  ],
  "status": "OK"
}
