{
  "results": [
    {
      "address_components": [
        {
          "long_name": "140",
          "short_name": "140",
          "types": [
            "street_number"
          ]
        },
        {
          "long_name": "Cowen Street",
          "short_name": "Cowen St",
          "types": [
            "route"
          ]
        },
        {
          "long_name": "Hamler",
          "short_name": "Hamler",
          "types": [
            "locality",
            "political"
          ]
        },
        {
          "long_name": "Marion Township",
          "short_name": "Marion Township",
          "types": [
            "administrative_area_level_3",
            "political"
          ]
        },
        {
          "long_name": "Henry County",
          "short_name": "Henry County",
          "types": [
            "administrative_area_level_2",
            "political"
          ]
        },
        {
          "long_name": "Ohio",
          "short_name": "OH",
          "types": [
            "administrative_area_level_1",
            "political"
          ]
        },
        {
          "long_name": "United States",
          "short_name": "US",
          "types": [
            "country",
            "political"
          ]
        },
        {
          "long_name": "43524",
          "short_name": "43524",
          "types": [
            "postal_code"
          ]
        }
      ],
      "formatted_address": "140 Cowen St, Hamler, OH 43524, USA",
      "geometry": {
        "location": {
          "lat": 41.2283698,
          "lng": -84.03554
        },
        "location_type": "ROOFTOP",
        "viewport": {
          "northeast": {
            "lat": 41.22971878029149,
            "lng": -84.03419101970849
          },
          "southwest": {
            "lat": 41.2270208197085,
            "lng": -84.03688898029151
          }
        }
      },
      "place_id": "ChIJiWYm4WokPIgRbtwgtfzWGHg",
      "types": [
        "street_address"
      ]
    },
    {
      "address_components": [
        {
          "long_name": "Hamler",
          "short_name": "Hamler",
          "types": [
            "locality",
            "political"
          ]
        },
        {
          "long_name": "Marion Township",
          "short_name": "Marion Township",
          "types": [
            "administrative_area_level_3",
            "political"
          ]
        },
        {
          "long_name": "Henry County",
          "short_name": "Henry County",
          "types": [
            "administrative_area_level_2",
            "political"
          ]
        },
        {
          "long_name": "Ohio",
          "short_name": "OH",
          "types": [
            "administrative_area_level_1",
            "political"
          ]
        },
        {
          "long_name": "United States",
          "short_name": "US",
          "types": [
            "country",
            "political"
          ]
        },
        {
          "long_name": "43524",
          "short_name": "43524",
          "types": [
            "postal_code"
          ]
        }
      ],
      "formatted_address": "Hamler, OH 43524, USA",
      "geometry": {
        "bounds": {
          "northeast": {
            "lat": 41.235979,
            "lng": -84.026405
          },
          "southwest": {
            "lat": 41.224159,
            "lng": -84.04091679999999
          }
        },
        "location": {
          "lat": 41.2292165,
          "lng": -84.03411059999999
        },
        "location_type": "APPROXIMATE",
        "viewport": {
          "northeast": {
            "lat": 41.235979,
            "lng": -84.026405
          },
          "southwest": {
            "lat": 41.224159,
            "lng": -84.04091679999999
          }
        }
      },
      "place_id": "ChIJaYIfjmskPIgRIn7uIHois24",
      "types": [
        "locality",
        "political"
      ]
    },
    {
      "address_components": [
        {
          "long_name": "43524",
          "short_name": "43524",
          "types": [
            "postal_code"
          ]
        },
        {
          "long_name": "Hamler",
          "short_name": "Hamler",
          "types": [
            "locality",
            "political"
          ]
        },
        {
          "long_name": "Henry County",
          "short_name": "Henry County",
          "types": [
            "administrative_area_level_2",
            "political"
          ]
        },
        {
          "long_name": "Ohio",
          "short_name": "OH",
          "types": [
            "administrative_area_level_1",
            "political"
          ]
        },
        {
          "long_name": "United States",
          "short_name": "US",
          "types": [
            "country",
            "political"
          ]
        }
      ],
      "formatted_address": "Hamler, OH 43524, USA",
      "geometry": {
        "bounds": {
          "northeast": {
            "lat": 41.283167,
            "lng": -83.9777819
          },
          "southwest": {
            "lat": 41.1769999,
            "lng": -84.093768
          }
        },
        "location": {
          "lat": 41.2270664,
          "lng": -84.0378894
        },
        "location_type": "APPROXIMATE",
        "viewport": {
          "northeast": {
            "lat": 41.283167,
            "lng": -83.9777819
          },
          "southwest": {
            "lat": 41.1769999,
            "lng": -84.093768
          }
        }
      },
      "place_id": "ChIJIRY3LkAkPIgRedpjufirkVI",
      "types": [
        "postal_code"
      ]
    },
    {
      "address_components": [
        {
          "long_name": "Marion Township",
          "short_name": "Marion Township",
          "types": [
            "administrative_area_level_3",
            "political"
          ]
        },
        {
          "long_name": "Henry County",
          "short_name": "Henry County",
          "types": [
            "administrative_area_level_2",
            "political"
          ]
        },
        {
          "long_name": "Ohio",
          "short_name": "OH",
          "types": [
            "administrative_area_level_1",
            "political"
          ]
        },
        {
          "long_name": "United States",
          "short_name": "US",
          "types": [
            "country",
            "political"
          ]
        }
      ],
      "formatted_address": "Marion Township, OH, USA",
      "geometry": {
        "bounds": {
          "northeast": {
            "lat": 41.254315,
            "lng": -83.99673489999999
          },
          "southwest": {
            "lat": 41.166461,
            "lng": -84.11429009999999
          }
        },
        "location": {
          "lat": 41.2270664,
          "lng": -84.0378894
        },
        "location_type": "APPROXIMATE",
        "viewport": {
          "northeast": {
            "lat": 41.254315,
            "lng": -83.99673489999999
          },
          "southwest": {
            "lat": 41.166461,
            "lng": -84.11429009999999
          }
        }
      },
      "place_id": "ChIJ23sI4SokPIgR6-2aQYQ9944",
      "types": [
        "administrative_area_level_3",
        "political"
      ]
    },
    {
      "address_components": [
        {
          "long_name": "Henry County",
          "short_name": "Henry County",
          "types": [
            "administrative_area_level_2",
            "political"
          ]
        },
        {
          "long_name": "Ohio",
          "short_name": "OH",
          "types": [
            "administrative_area_level_1",
            "political"
          ]
        },
        {
          "long_name": "United States",
          "short_name": "US",
          "types": [
            "country",
            "political"
          ]
        }
      ],
      "formatted_address": "Henry County, OH, USA",
      "geometry": {
        "bounds": {
          "northeast": {
            "lat": 41.487578,
            "lng": -83.8811341
          },
          "southwest": {
            "lat": 41.165862,
            "lng": -84.341926
          }
        },
        "location": {
          "lat": 41.3659897,
          "lng": -84.01674229999999
        },
        "location_type": "APPROXIMATE",
        "viewport": {
          "northeast": {
            "lat": 41.487578,
            "lng": -83.8811341
          },
          "southwest": {
            "lat": 41.165862,
            "lng": -84.341926
          }
        }
      },
      "place_id": "ChIJp4lWU8sRPIgRdSISDNkT1Xk",
      "types": [
        "administrative_area_level_2",
        "political"
      ]
    },
    {
      "address_components": [
        {
          "long_name": "Ohio",
          "short_name": "OH",
          "types": [
            "administrative_area_level_1",
            "political"
          ]
        },
        {
          "long_name": "United States",
          "short_name": "US",
          "types": [
            "country",
            "political"
          ]
        }
      ],
      "formatted_address": "Ohio, USA",
      "geometry": {
        "bounds": {
          "northeast": {
            "lat": 41.9773019,
            "lng": -80.5182
          },
          "southwest": {
            "lat": 38.4034229,
            "lng": -84.8203049
          }
        },
        "location": {
          "lat": 40.4172871,
          "lng": -82.90712300000001
        },
        "location_type": "APPROXIMATE",
        "viewport": {
          "northeast": {
            "lat": 41.9773019,
            "lng": -80.5182
          },
          "southwest": {
            "lat": 38.4034229,
            "lng": -84.8203049
          }
        }
      },
      "place_id": "ChIJwY5NtXrpNogRFtmfnDlkzeU",
      "types": [
        "administrative_area_level_1",
        "political"
      ]
    },
    {
      "address_components": [
        {
          "long_name": "United States",
          "short_name": "US",
          "types": [
            "country",
            "political"
          ]
        }
      ],
      "formatted_address": "United States",
      "geometry": {
        "bounds": {
          "northeast": {
            "lat": 71.3867745,
            "lng": -66.9502861
          },
          "southwest": {
            "lat": 18.9106768,
            "lng": 172.4458955
          }
        },
        "location": {
          "lat": 37.09024,
          "lng": -95.712891
        },
        "location_type": "APPROXIMATE",
        "viewport": {
          "northeast": {
            "lat": 49.38,
            "lng": -66.94
          },
          "southwest": {
            "lat": 25.82,
            "lng": -124.39
          }
        }
      },
      "place_id": "ChIJCzYy5IS16lQRQrfeQ5K5Oxw",
      "types": [
        "country",
        "political"
      ]
    }
  ],
  "status": "OK"
}
