{
  "results": [
    {
      "address_components": [
        {
          "long_name": "3rd Street",
          "short_name": "3rd St",
          "types": [
            "route"
          ]
        },
        {
          "long_name": "Waterbury",
          "short_name": "Waterbury",
          "types": [
            "locality",
            "political"
          ]
        },
        {
          "long_name": "Ottercreek",
          "short_name": "Ottercreek",
          "types": [
            "administrative_area_level_3",
            "political"
          ]
        },
        {
          "long_name": "Dixon County",
          "short_name": "Dixon County",
          "types": [
            "administrative_area_level_2",
            "political"
          ]
        },
        {
          "long_name": "Nebraska",
          "short_name": "NE",
          "types": [
            "administrative_area_level_1",
            "political"
          ]
        },
        {
          "long_name": "United States",
          "short_name": "US",
          "types": [
            "country",
            "political"
          ]
        },
        {
          "long_name": "68785",
          "short_name": "68785",
          "types": [
            "postal_code"
          ]
        }
      ],
      "formatted_address": "3rd St, Waterbury, NE 68785, USA",
      "geometry": {
        "bounds": {
          "northeast": {
            "lat": 42.45768590000001,
            "lng": -96.73515490000001
          },
          "southwest": {
            "lat": 42.4576793,
            "lng": -96.7362799
          }
        },
        "location": {
          "lat": 42.4576813,
          "lng": -96.7357174
        },
        "location_type": "GEOMETRIC_CENTER",
        "viewport": {
          "northeast": {
            "lat": 42.4590315802915,
            "lng": -96.73436841970852
          },
          "southwest": {
            "lat": 42.4563336197085,
            "lng": -96.73706638029152
          }
        }
      },
      "place_id": "ChIJTXwFHJEYjocRbloeY8g7dU0",
      "types": [
        "route"
      ]
    },
    {
      "address_components": [
        {
          "long_name": "Waterbury",
          "short_name": "Waterbury",
          "types": [
            "locality",
            "political"
          ]
        },
        {
          "long_name": "Ottercreek",
          "short_name": "Ottercreek",
          "types": [
            "administrative_area_level_3",
            "political"
          ]
        },
        {
          "long_name": "Dixon County",
          "short_name": "Dixon County",
          "types": [
            "administrative_area_level_2",
            "political"
          ]
        },
        {
          "long_name": "Nebraska",
          "short_name": "NE",
          "types": [
            "administrative_area_level_1",
            "political"
          ]
        },
        {
          "long_name": "United States",
          "short_name": "US",
          "types": [
            "country",
            "political"
          ]
        },
        {
          "long_name": "68785",
          "short_name": "68785",
          "types": [
            "postal_code"
          ]
        }
      ],
      "formatted_address": "Waterbury, NE 68785, USA",
      "geometry": {
        "bounds": {
          "northeast": {
            "lat": 42.460681,
            "lng": -96.73184189999999
          },
          "southwest": {
            "lat": 42.45237909999999,
            "lng": -96.7416329
          }
        },
        "location": {
          "lat": 42.4566625,
          "lng": -96.7361924
        },
        "location_type": "APPROXIMATE",
        "viewport": {
          "northeast": {
            "lat": 42.460681,
            "lng": -96.73184189999999
          },
          "southwest": {
            "lat": 42.45237909999999,
            "lng": -96.7416329
          }
        }
      },
      "place_id": "ChIJtSjiPJEYjocR7dUIbjbcszI",
      "types": [
        "locality",
        "political"
      ]
    },
    {
      "address_components": [
        {
          "long_name": "Ottercreek",
          "short_name": "Ottercreek",
          "types": [
            "administrative_area_level_3",
            "political"
          ]
        },
        {
          "long_name": "Dixon County",
          "short_name": "Dixon County",
          "types": [
            "administrative_area_level_2",
            "political"
          ]
        },
        {
          "long_name": "Nebraska",
          "short_name": "NE",
          "types": [
            "administrative_area_level_1",
            "political"
          ]
        },
        {
          "long_name": "United States",
          "short_name": "US",
          "types": [
            "country",
            "political"
          ]
        }
      ],
      "formatted_address": "Ottercreek, NE, USA",
      "geometry": {
        "bounds": {
          "northeast": {
            "lat": 42.52477400000001,
            "lng": -96.7216239
          },
          "southwest": {
            "lat": 42.394492,
            "lng": -96.78385709999999
          }
        },
        "location": {
          "lat": 42.4595697,
          "lng": -96.76010570000001
        },
        "location_type": "APPROXIMATE",
        "viewport": {
          "northeast": {
            "lat": 42.52477400000001,
            "lng": -96.7216239
          },
          "southwest": {
            "lat": 42.394492,
            "lng": -96.78385709999999
          }
        }
      },
      "place_id": "ChIJpVB9WXcijocRFrw5IN_yjaU",
      "types": [
        "administrative_area_level_3",
        "political"
      ]
    },
    {
      "address_components": [
        {
          "long_name": "68785",
          "short_name": "68785",
          "types": [
            "postal_code"
          ]
        },
        {
          "long_name": "Waterbury",
          "short_name": "Waterbury",
          "types": [
            "locality",
            "political"
          ]
        },
        {
          "long_name": "Nebraska",
          "short_name": "NE",
          "types": [
            "administrative_area_level_1",
            "political"
          ]
        },
        {
          "long_name": "United States",
          "short_name": "US",
          "types": [
            "country",
            "political"
          ]
        }
      ],
      "formatted_address": "Waterbury, NE 68785, USA",
      "geometry": {
        "bounds": {
          "northeast": {
            "lat": 42.5538509,
            "lng": -96.68955
          },
          "southwest": {
            "lat": 42.3219959,
            "lng": -96.800192
          }
        },
        "location": {
          "lat": 42.4608316,
          "lng": -96.7386946
        },
        "location_type": "APPROXIMATE",
        "viewport": {
          "northeast": {
            "lat": 42.5538509,
            "lng": -96.68955
          },
          "southwest": {
            "lat": 42.3796,
            "lng": -96.800192
          }
        }
      },
      "place_id": "ChIJ11I--8oYjocRwU1bze0jyEk",
      "types": [
        "postal_code"
      ]
    },
    {
      "address_components": [
        {
          "long_name": "Dixon County",
          "short_name": "Dixon County",
          "types": [
            "administrative_area_level_2",
            "political"
          ]
        },
        {
          "long_name": "Nebraska",
          "short_name": "NE",
          "types": [
            "administrative_area_level_1",
            "political"
          ]
        },
        {
          "long_name": "United States",
          "short_name": "US",
          "types": [
            "country",
            "political"
          ]
        }
      ],
      "formatted_address": "Dixon County, NE, USA",
      "geometry": {
        "bounds": {
          "northeast": {
            "lat": 42.7613378,
            "lng": -96.631492
          },
          "southwest": {
            "lat": 42.2640338,
            "lng": -97.017991
          }
        },
        "location": {
          "lat": 42.4257719,
          "lng": -96.83509989999999
        },
        "location_type": "APPROXIMATE",
        "viewport": {
          "northeast": {
            "lat": 42.7613378,
            "lng": -96.631492
          },
          "southwest": {
            "lat": 42.2640338,
            "lng": -97.017991
          }
        }
      },
      "place_id": "ChIJnz8ESrySj4cRCt1fhuEBcRw",
      "types": [
        "administrative_area_level_2",
        "political"
      ]
    },
    {
      "address_components": [
        {
          "long_name": "Sioux City",
          "short_name": "Sioux City",
          "types": [
            "political"
          ]
        },
        {
          "long_name": "United States",
          "short_name": "US",
          "types": [
            "country",
            "political"
          ]
        }
      ],
      "formatted_address": "Sioux City, USA",
      "geometry": {
        "bounds": {
          "northeast": {
            "lat": 43.0835661,
            "lng": -95.6696149
          },
          "southwest": {
            "lat": 42.2112601,
            "lng": -97.017991
          }
        },
        "location": {
          "lat": 42.445678,
          "lng": -96.49297969999999
        },
        "location_type": "APPROXIMATE",
        "viewport": {
          "northeast": {
            "lat": 43.0835661,
            "lng": -95.6696149
          },
          "southwest": {
            "lat": 42.2112601,
            "lng": -97.017991
          }
        }
      },
      "place_id": "ChIJPWz7LsQHjocRcEDd8Hkz_L4",
      "types": [
        "political"
      ]
    },
    {
      "address_components": [
        {
          "long_name": "Nebraska",
          "short_name": "NE",
          "types": [
            "administrative_area_level_1",
            "political"
          ]
        },
        {
          "long_name": "United States",
          "short_name": "US",
          "types": [
            "country",
            "political"
          ]
        }
      ],
      "formatted_address": "Nebraska, USA",
      "geometry": {
        "bounds": {
          "northeast": {
            "lat": 43.00170689999999,
            "lng": -95.30829000000001
          },
          "southwest": {
            "lat": 39.999932,
            "lng": -104.053514
          }
        },
        "location": {
          "lat": 41.4925374,
          "lng": -99.9018131
        },
        "location_type": "APPROXIMATE",
        "viewport": {
          "northeast": {
            "lat": 43.00170689999999,
            "lng": -95.30829000000001
          },
          "southwest": {
            "lat": 39.999932,
            "lng": -104.053514
          }
        }
      },
      "place_id": "ChIJ7fwMtciNk4cRxArzDwyQJ6E",
      "types": [
        "administrative_area_level_1",
        "political"
      ]
    },
    {
      "address_components": [
        {
          "long_name": "United States",
          "short_name": "US",
          "types": [
            "country",
            "political"
          ]
        }
      ],
      "formatted_address": "United States",
      "geometry": {
        "bounds": {
          "northeast": {
            "lat": 71.3867745,
            "lng": -66.9502861
          },
          "southwest": {
            "lat": 18.9106768,
            "lng": 172.4458955
          }
        },
        "location": {
          "lat": 37.09024,
          "lng": -95.712891
        },
        "location_type": "APPROXIMATE",
        "viewport": {
          "northeast": {
            "lat": 49.38,
            "lng": -66.94
          },
          "southwest": {
            "lat": 25.82,
            "lng": -124.39
          }
        }
      },
      "place_id": "ChIJCzYy5IS16lQRQrfeQ5K5Oxw",
      "types": [
        "country",
        "political"
      ]
    }
  ],
  "status": "OK"
}
