{
  "results": [
    {
      "address_components": [
        {
          "long_name": "515",
          "short_name": "515",
          "types": [
            "street_number"
          ]
        },
        {
          "long_name": "Main Street",
          "short_name": "Main St",
          "types": [
            "route"
          ]
        },
        {
          "long_name": "Pershing",
          "short_name": "Pershing",
          "types": [
            "locality",
            "political"
          ]
        },
        {
          "long_name": "Jackson Township",
          "short_name": "Jackson Township",
          "types": [
            "administrative_area_level_3",
            "political"
          ]
        },
        {
          "long_name": "Wayne County",
          "short_name": "Wayne County",
          "types": [
            "administrative_area_level_2",
            "political"
          ]
        },
        {
          "long_name": "Indiana",
          "short_name": "IN",
          "types": [
            "administrative_area_level_1",
            "political"
          ]
        },
        {
          "long_name": "United States",
          "short_name": "US",
          "types": [
            "country",
            "political"
          ]
        },
        {
          "long_name": "47370",
          "short_name": "47370",
          "types": [
            "postal_code"
          ]
        }
      ],
      "formatted_address": "515 Main St, Pershing, IN 47370, USA",
      "geometry": {
        "location": {
          "lat": 39.8133814,
          "lng": -85.1370601
        },
        "location_type": "ROOFTOP",
        "viewport": {
          "northeast": {
            "lat": 39.8147303802915,
            "lng": -85.13571111970849
          },
          "southwest": {
            "lat": 39.8120324197085,
            "lng": -85.13840908029151
          }
        }
      },
      "place_id": "ChIJhXHe-jmyaogRCTa0jBCK6OE",
      "types": [
        "street_address"
      ]
    },
    {
      "address_components": [
        {
          "long_name": "Pershing",
          "short_name": "Pershing",
          "types": [
            "locality",
            "political"
          ]
        },
        {
          "long_name": "Jackson Township",
          "short_name": "Jackson Township",
          "types": [
            "administrative_area_level_3",
            "political"
          ]
        },
        {
          "long_name": "Wayne County",
          "short_name": "Wayne County",
          "types": [
            "administrative_area_level_2",
            "political"
          ]
        },
        {
          "long_name": "Indiana",
          "short_name": "IN",
          "types": [
            "administrative_area_level_1",
            "political"
          ]
        },
        {
          "long_name": "United States",
          "short_name": "US",
          "types": [
            "country",
            "political"
          ]
        }
      ],
      "formatted_address": "Pershing, IN, USA",
      "geometry": {
        "bounds": {
          "northeast": {
            "lat": 39.81615,
            "lng": -85.1321009
          },
          "southwest": {
            "lat": 39.8109889,
            "lng": -85.141988
          }
        },
        "location": {
          "lat": 39.8125465,
          "lng": -85.1374644
        },
        "location_type": "APPROXIMATE",
        "viewport": {
          "northeast": {
            "lat": 39.81615,
            "lng": -85.1321009
          },
          "southwest": {
            "lat": 39.8109889,
            "lng": -85.141988
          }
        }
      },
      "place_id": "ChIJQTjI5TmyaogRI397STq7Nxc",
      "types": [
        "locality",
        "political"
      ]
    },
    {
      "address_components": [
        {
          "long_name": "47370",
          "short_name": "47370",
          "types": [
            "postal_code"
          ]
        },
        {
          "long_name": "Pershing",
          "short_name": "Pershing",
          "types": [
            "locality",
            "political"
          ]
        },
        {
          "long_name": "Jackson Township",
          "short_name": "Jackson Township",
          "types": [
            "administrative_area_level_3",
            "political"
          ]
        },
        {
          "long_name": "Wayne County",
          "short_name": "Wayne County",
          "types": [
            "administrative_area_level_2",
            "political"
          ]
        },
        {
          "long_name": "Indiana",
          "short_name": "IN",
          "types": [
            "administrative_area_level_1",
            "political"
          ]
        },
        {
          "long_name": "United States",
          "short_name": "US",
          "types": [
            "country",
            "political"
          ]
        }
      ],
      "formatted_address": "Pershing, IN 47370, USA",
      "geometry": {
        "bounds": {
          "northeast": {
            "lat": 39.8141939,
            "lng": -85.1348659
          },
          "southwest": {
            "lat": 39.8123098,
            "lng": -85.137542
          }
        },
        "location": {
          "lat": 39.81339490000001,
          "lng": -85.1356196
        },
        "location_type": "APPROXIMATE",
        "viewport": {
          "northeast": {
            "lat": 39.8146008302915,
            "lng": -85.1348549697085
          },
          "southwest": {
            "lat": 39.8119028697085,
            "lng": -85.1375529302915
          }
        }
      },
      "place_id": "ChIJH26MQ0OyaogRK9-zMPq-3ck",
      "types": [
        "postal_code"
      ]
    },
    {
      "address_components": [
        {
          "long_name": "Jackson Township",
          "short_name": "Jackson Township",
          "types": [
            "administrative_area_level_3",
            "political"
          ]
        },
        {
          "long_name": "Wayne County",
          "short_name": "Wayne County",
          "types": [
            "administrative_area_level_2",
            "political"
          ]
        },
        {
          "long_name": "Indiana",
          "short_name": "IN",
          "types": [
            "administrative_area_level_1",
            "political"
          ]
        },
        {
          "long_name": "United States",
          "short_name": "US",
          "types": [
            "country",
            "political"
          ]
        }
      ],
      "formatted_address": "Jackson Township, IN, USA",
      "geometry": {
        "bounds": {
          "northeast": {
            "lat": 39.874221,
            "lng": -85.07066189999999
          },
          "southwest": {
            "lat": 39.7883969,
            "lng": -85.221136
          }
        },
        "location": {
          "lat": 39.82910529999999,
          "lng": -85.1583064
        },
        "location_type": "APPROXIMATE",
        "viewport": {
          "northeast": {
            "lat": 39.874221,
            "lng": -85.07066189999999
          },
          "southwest": {
            "lat": 39.7883969,
            "lng": -85.221136
          }
        }
      },
      "place_id": "ChIJA0nYAlOyaogRrikCsjzkUts",
      "types": [
        "administrative_area_level_3",
        "political"
      ]
    },
    {
      "address_components": [
        {
          "long_name": "Richmond",
          "short_name": "Richmond",
          "types": [
            "political"
          ]
        },
        {
          "long_name": "United States",
          "short_name": "US",
          "types": [
            "country",
            "political"
          ]
        }
      ],
      "formatted_address": "Richmond, USA",
      "geometry": {
        "bounds": {
          "northeast": {
            "lat": 40.0062331,
            "lng": -84.8109375
          },
          "southwest": {
            "lat": 39.71458,
            "lng": -85.221136
          }
        },
        "location": {
          "lat": 39.831882,
          "lng": -84.981754
        },
        "location_type": "APPROXIMATE",
        "viewport": {
          "northeast": {
            "lat": 40.0062331,
            "lng": -84.8109375
          },
          "southwest": {
            "lat": 39.71458,
            "lng": -85.221136
          }
        }
      },
      "place_id": "ChIJVc6pe0-raogRHvdhJIP96DU",
      "types": [
        "political"
      ]
    },
    {
      "address_components": [
        {
          "long_name": "Wayne County",
          "short_name": "Wayne County",
          "types": [
            "administrative_area_level_2",
            "political"
          ]
        },
        {
          "long_name": "Indiana",
          "short_name": "IN",
          "types": [
            "administrative_area_level_1",
            "political"
          ]
        },
        {
          "long_name": "United States",
          "short_name": "US",
          "types": [
            "country",
            "political"
          ]
        }
      ],
      "formatted_address": "Wayne County, IN, USA",
      "geometry": {
        "bounds": {
          "northeast": {
            "lat": 40.006357,
            "lng": -84.810825
          },
          "southwest": {
            "lat": 39.7147639,
            "lng": -85.221136
          }
        },
        "location": {
          "lat": 39.831882,
          "lng": -84.981754
        },
        "location_type": "APPROXIMATE",
        "viewport": {
          "northeast": {
            "lat": 40.006357,
            "lng": -84.810825
          },
          "southwest": {
            "lat": 39.7147639,
            "lng": -85.221136
          }
        }
      },
      "place_id": "ChIJszPNqZ3_P4gR67MemRKO-3o",
      "types": [
        "administrative_area_level_2",
        "political"
      ]
    },
    {
      "address_components": [
        {
          "long_name": "Indiana",
          "short_name": "IN",
          "types": [
            "administrative_area_level_1",
            "political"
          ]
        },
        {
          "long_name": "United States",
          "short_name": "US",
          "types": [
            "country",
            "political"
          ]
        }
      ],
      "formatted_address": "Indiana, USA",
      "geometry": {
        "bounds": {
          "northeast": {
            "lat": 41.7606971,
            "lng": -84.784662
          },
          "southwest": {
            "lat": 37.7717419,
            "lng": -88.097892
          }
        },
        "location": {
          "lat": 40.2671941,
          "lng": -86.1349019
        },
        "location_type": "APPROXIMATE",
        "viewport": {
          "northeast": {
            "lat": 41.7606971,
            "lng": -84.784662
          },
          "southwest": {
            "lat": 37.7717419,
            "lng": -88.097892
          }
        }
      },
      "place_id": "ChIJHRv42bxQa4gRcuwyy84vEH4",
      "types": [
        "administrative_area_level_1",
        "political"
      ]
    },
    {
      "address_components": [
        {
          "long_name": "United States",
          "short_name": "US",
          "types": [
            "country",
            "political"
          ]
        }
      ],
      "formatted_address": "United States",
      "geometry": {
        "bounds": {
          "northeast": {
            "lat": 71.3867745,
            "lng": -66.9502861
          },
          "southwest": {
            "lat": 18.9106768,
            "lng": 172.4458955
          }
        },
        "location": {
          "lat": 37.09024,
          "lng": -95.712891
        },
        "location_type": "APPROXIMATE",
        "viewport": {
          "northeast": {
            "lat": 49.38,
            "lng": -66.94
          },
          "southwest": {
            "lat": 25.82,
            "lng": -124.39
          }
        }
      },
      "place_id": "ChIJCzYy5IS16lQRQrfeQ5K5Oxw",
      "types": [
        "country",
        "political"
      ]
    }
  ],
  "status": "OK"
}
