{
  "results": [
    {
      "address_components": [
        {
          "long_name": "201",
          "short_name": "201",
          "types": [
            "street_number"
          ]
        },
        {
          "long_name": "Broadway Street",
          "short_name": "Broadway St",
          "types": [
            "route"
          ]
        },
        {
          "long_name": "Liberty",
          "short_name": "Liberty",
          "types": [
            "locality",
            "political"
          ]
        },
        {
          "long_name": "Fishing River Township",
          "short_name": "Fishing River Township",
          "types": [
            "administrative_area_level_3",
            "political"
          ]
        },
        {
          "long_name": "Clay County",
          "short_name": "Clay County",
          "types": [
            "administrative_area_level_2",
            "political"
          ]
        },
        {
          "long_name": "Missouri",
          "short_name": "MO",
          "types": [
            "administrative_area_level_1",
            "political"
          ]
        },
        {
          "long_name": "United States",
          "short_name": "US",
          "types": [
            "country",
            "political"
          ]
        },
        {
          "long_name": "64068",
          "short_name": "64068",
          "types": [
            "postal_code"
          ]
        },
        {
          "long_name": "8335",
          "short_name": "8335",
          "types": [
            "postal_code_suffix"
          ]
        }
      ],
      "formatted_address": "201 Broadway St, Liberty, MO 64068, USA",
      "geometry": {
        "location": {
          "lat": 39.23854499999999,
          "lng": -94.2998439
        },
        "location_type": "ROOFTOP",
        "viewport": {
          "northeast": {
            "lat": 39.23989398029149,
            "lng": -94.29849491970849
          },
          "southwest": {
            "lat": 39.23719601970849,
            "lng": -94.3011928802915
          }
        }
      },
      "place_id": "ChIJL1uB014HwYcRcELG_tmEwIw",
      "types": [
        "street_address"
      ]
    },
    {
      "address_components": [
        {
          "long_name": "Missouri City",
          "short_name": "Missouri City",
          "types": [
            "locality",
            "political"
          ]
        },
        {
          "long_name": "Fishing River Township",
          "short_name": "Fishing River Township",
          "types": [
            "administrative_area_level_3",
            "political"
          ]
        },
        {
          "long_name": "Clay County",
          "short_name": "Clay County",
          "types": [
            "administrative_area_level_2",
            "political"
          ]
        },
        {
          "long_name": "Missouri",
          "short_name": "MO",
          "types": [
            "administrative_area_level_1",
            "political"
          ]
        },
        {
          "long_name": "United States",
          "short_name": "US",
          "types": [
            "country",
            "political"
          ]
        }
      ],
      "formatted_address": "Missouri City, MO, USA",
      "geometry": {
        "bounds": {
          "northeast": {
            "lat": 39.2479049,
            "lng": -94.284993
          },
          "southwest": {
            "lat": 39.2281939,
            "lng": -94.31591
          }
        },
        "location": {
          "lat": 39.2408369,
          "lng": -94.2880031
        },
        "location_type": "APPROXIMATE",
        "viewport": {
          "northeast": {
            "lat": 39.2479049,
            "lng": -94.284993
          },
          "southwest": {
            "lat": 39.2281939,
            "lng": -94.31591
          }
        }
      },
      "place_id": "ChIJo_tJx14HwYcRINkEoEr2EAc",
      "types": [
        "locality",
        "political"
      ]
    },
    {
      "address_components": [
        {
          "long_name": "Fishing River Township",
          "short_name": "Fishing River Township",
          "types": [
            "administrative_area_level_3",
            "political"
          ]
        },
        {
          "long_name": "Clay County",
          "short_name": "Clay County",
          "types": [
            "administrative_area_level_2",
            "political"
          ]
        },
        {
          "long_name": "Missouri",
          "short_name": "MO",
          "types": [
            "administrative_area_level_1",
            "political"
          ]
        },
        {
          "long_name": "United States",
          "short_name": "US",
          "types": [
            "country",
            "political"
          ]
        }
      ],
      "formatted_address": "Fishing River Township, MO, USA",
      "geometry": {
        "bounds": {
          "northeast": {
            "lat": 39.353448,
            "lng": -94.2117069
          },
          "southwest": {
            "lat": 39.16595590000001,
            "lng": -94.37611489999999
          }
        },
        "location": {
          "lat": 39.2838885,
          "lng": -94.27436279999999
        },
        "location_type": "APPROXIMATE",
        "viewport": {
          "northeast": {
            "lat": 39.353448,
            "lng": -94.2117069
          },
          "southwest": {
            "lat": 39.16595590000001,
            "lng": -94.37611489999999
          }
        }
      },
      "place_id": "ChIJA-8MAbepwYcROpop1cRUKaA",
      "types": [
        "administrative_area_level_3",
        "political"
      ]
    },
    {
      "address_components": [
        {
          "long_name": "64068",
          "short_name": "64068",
          "types": [
            "postal_code"
          ]
        },
        {
          "long_name": "Liberty",
          "short_name": "Liberty",
          "types": [
            "locality",
            "political"
          ]
        },
        {
          "long_name": "Missouri",
          "short_name": "MO",
          "types": [
            "administrative_area_level_1",
            "political"
          ]
        },
        {
          "long_name": "United States",
          "short_name": "US",
          "types": [
            "country",
            "political"
          ]
        }
      ],
      "formatted_address": "Liberty, MO 64068, USA",
      "geometry": {
        "bounds": {
          "northeast": {
            "lat": 39.3682019,
            "lng": -94.276603
          },
          "southwest": {
            "lat": 39.163227,
            "lng": -94.493619
          }
        },
        "location": {
          "lat": 39.2593487,
          "lng": -94.3770704
        },
        "location_type": "APPROXIMATE",
        "viewport": {
          "northeast": {
            "lat": 39.3682019,
            "lng": -94.276603
          },
          "southwest": {
            "lat": 39.163227,
            "lng": -94.493619
          }
        }
      },
      "place_id": "ChIJG1Wy6smqwYcRa7hY5cP9pmQ",
      "postcode_localities": [
        "Liberty",
        "Pleasant Valley"
      ],
      "types": [
        "postal_code"
      ]
    },
    {
      "address_components": [
        {
          "long_name": "Clay County",
          "short_name": "Clay County",
          "types": [
            "administrative_area_level_2",
            "political"
          ]
        },
        {
          "long_name": "Missouri",
          "short_name": "MO",
          "types": [
            "administrative_area_level_1",
            "political"
          ]
        },
        {
          "long_name": "United States",
          "short_name": "US",
          "types": [
            "country",
            "political"
          ]
        }
      ],
      "formatted_address": "Clay County, MO, USA",
      "geometry": {
        "bounds": {
          "northeast": {
            "lat": 39.456156,
            "lng": -94.21064199999999
          },
          "southwest": {
            "lat": 39.109831,
            "lng": -94.60735389999999
          }
        },
        "location": {
          "lat": 39.3176186,
          "lng": -94.479976
        },
        "location_type": "APPROXIMATE",
        "viewport": {
          "northeast": {
            "lat": 39.456156,
            "lng": -94.21064199999999
          },
          "southwest": {
            "lat": 39.109831,
            "lng": -94.60735389999999
          }
        }
      },
      "place_id": "ChIJdVxCUHpLwIcRSNjdePaajZg",
      "types": [
        "administrative_area_level_2",
        "political"
      ]
    },
    {
      "address_components": [
        {
          "long_name": "Kansas City",
          "short_name": "Kansas City",
          "types": [
            "political"
          ]
        },
        {
          "long_name": "United States",
          "short_name": "US",
          "types": [
            "country",
            "political"
          ]
        }
      ],
      "formatted_address": "Kansas City, USA",
      "geometry": {
        "bounds": {
          "northeast": {
            "lat": 39.788955,
            "lng": -93.477233
          },
          "southwest": {
            "lat": 38.026143,
            "lng": -95.5090159
          }
        },
        "location": {
          "lat": 39.0653602,
          "lng": -94.5624426
        },
        "location_type": "APPROXIMATE",
        "viewport": {
          "northeast": {
            "lat": 39.788955,
            "lng": -93.477233
          },
          "southwest": {
            "lat": 38.026143,
            "lng": -95.5090159
          }
        }
      },
      "place_id": "ChIJ5176R2TnwIcRX_TpnWkvgMk",
      "types": [
        "political"
      ]
    },
    {
      "address_components": [
        {
          "long_name": "Missouri",
          "short_name": "MO",
          "types": [
            "administrative_area_level_1",
            "political"
          ]
        },
        {
          "long_name": "United States",
          "short_name": "US",
          "types": [
            "country",
            "political"
          ]
        }
      ],
      "formatted_address": "Missouri, USA",
      "geometry": {
        "bounds": {
          "northeast": {
            "lat": 40.61364,
            "lng": -89.09949399999999
          },
          "southwest": {
            "lat": 35.9956829,
            "lng": -95.774704
          }
        },
        "location": {
          "lat": 37.9642529,
          "lng": -91.8318334
        },
        "location_type": "APPROXIMATE",
        "viewport": {
          "northeast": {
            "lat": 40.61364,
            "lng": -89.09949399999999
          },
          "southwest": {
            "lat": 35.9956829,
            "lng": -95.774704
          }
        }
      },
      "place_id": "ChIJfeMiSNXmwIcRcr1mBFnEW7U",
      "types": [
        "administrative_area_level_1",
        "political"
      ]
    },
    {
      "address_components": [
        {
          "long_name": "United States",
          "short_name": "US",
          "types": [
            "country",
            "political"
          ]
        }
      ],
      "formatted_address": "United States",
      "geometry": {
        "bounds": {
          "northeast": {
            "lat": 71.3867745,
            "lng": -66.9502861
          },
          "southwest": {
            "lat": 18.9106768,
            "lng": 172.4458955
          }
        },
        "location": {
          "lat": 37.09024,
          "lng": -95.712891
        },
        "location_type": "APPROXIMATE",
        "viewport": {
          "northeast": {
            "lat": 49.38,
            "lng": -66.94
          },
          "southwest": {
            "lat": 25.82,
            "lng": -124.39
          }
        }
      },
      "place_id": "ChIJCzYy5IS16lQRQrfeQ5K5Oxw",
      "types": [
        "country",
        "political"
      ]
    }
  ],
  "status": "OK"
}
