{
  "results": [
    {
      "address_components": [
        {
          "long_name": "60",
          "short_name": "60",
          "types": [
            "street_number"
          ]
        },
        {
          "long_name": "Atwater Avenue Northeast",
          "short_name": "Atwater Ave NE",
          "types": [
            "route"
          ]
        },
        {
          "long_name": "Alliance",
          "short_name": "Alliance",
          "types": [
            "locality",
            "political"
          ]
        },
        {
          "long_name": "Lexington Township",
          "short_name": "Lexington Township",
          "types": [
            "administrative_area_level_3",
            "political"
          ]
        },
        {
          "long_name": "Stark County",
          "short_name": "Stark County",
          "types": [
            "administrative_area_level_2",
            "political"
          ]
        },
        {
          "long_name": "Ohio",
          "short_name": "OH",
          "types": [
            "administrative_area_level_1",
            "political"
          ]
        },
        {
          "long_name": "United States",
          "short_name": "US",
          "types": [
            "country",
            "political"
          ]
        },
        {
          "long_name": "44601",
          "short_name": "44601",
          "types": [
            "postal_code"
          ]
        }
      ],
      "formatted_address": "60 Atwater Ave NE, Alliance, OH 44601, USA",
      "geometry": {
        "location": {
          "lat": 40.98403,
          "lng": -81.148344
        },
        "location_type": "ROOFTOP",
        "viewport": {
          "northeast": {
            "lat": 40.98537898029149,
            "lng": -81.14699501970848
          },
          "southwest": {
            "lat": 40.98268101970849,
            "lng": -81.1496929802915
          }
        }
      },
      "place_id": "ChIJgYg6xmNKMYgRbby5KktA62Y",
      "types": [
        "street_address"
      ]
    },
    {
      "address_components": [
        {
          "long_name": "Limaville",
          "short_name": "Limaville",
          "types": [
            "locality",
            "political"
          ]
        },
        {
          "long_name": "Lexington Township",
          "short_name": "Lexington Township",
          "types": [
            "administrative_area_level_3",
            "political"
          ]
        },
        {
          "long_name": "Stark County",
          "short_name": "Stark County",
          "types": [
            "administrative_area_level_2",
            "political"
          ]
        },
        {
          "long_name": "Ohio",
          "short_name": "OH",
          "types": [
            "administrative_area_level_1",
            "political"
          ]
        },
        {
          "long_name": "United States",
          "short_name": "US",
          "types": [
            "country",
            "political"
          ]
        }
      ],
      "formatted_address": "Limaville, OH, USA",
      "geometry": {
        "bounds": {
          "northeast": {
            "lat": 40.9882289,
            "lng": -81.14289409999999
          },
          "southwest": {
            "lat": 40.9792001,
            "lng": -81.1533098
          }
        },
        "location": {
          "lat": 40.9820025,
          "lng": -81.1484325
        },
        "location_type": "APPROXIMATE",
        "viewport": {
          "northeast": {
            "lat": 40.9882289,
            "lng": -81.14289409999999
          },
          "southwest": {
            "lat": 40.9792001,
            "lng": -81.1533098
          }
        }
      },
      "place_id": "ChIJ_6lPxGNKMYgRZgGVfkf3V-w",
      "types": [
        "locality",
        "political"
      ]
    },
    {
      "address_components": [
        {
          "long_name": "Lexington Township",
          "short_name": "Lexington Township",
          "types": [
            "administrative_area_level_3",
            "political"
          ]
        },
        {
          "long_name": "Stark County",
          "short_name": "Stark County",
          "types": [
            "administrative_area_level_2",
            "political"
          ]
        },
        {
          "long_name": "Ohio",
          "short_name": "OH",
          "types": [
            "administrative_area_level_1",
            "political"
          ]
        },
        {
          "long_name": "United States",
          "short_name": "US",
          "types": [
            "country",
            "political"
          ]
        }
      ],
      "formatted_address": "Lexington Township, OH, USA",
      "geometry": {
        "bounds": {
          "northeast": {
            "lat": 40.98825,
            "lng": -81.08659600000001
          },
          "southwest": {
            "lat": 40.901944,
            "lng": -81.18832400000001
          }
        },
        "location": {
          "lat": 40.9603022,
          "lng": -81.1416691
        },
        "location_type": "APPROXIMATE",
        "viewport": {
          "northeast": {
            "lat": 40.98825,
            "lng": -81.08659600000001
          },
          "southwest": {
            "lat": 40.901944,
            "lng": -81.18832400000001
          }
        }
      },
      "place_id": "ChIJsZev7rVKMYgRWRvMm0Vf1K8",
      "types": [
        "administrative_area_level_3",
        "political"
      ]
    },
    {
      "address_components": [
        {
          "long_name": "44601",
          "short_name": "44601",
          "types": [
            "postal_code"
          ]
        },
        {
          "long_name": "Alliance",
          "short_name": "Alliance",
          "types": [
            "locality",
            "political"
          ]
        },
        {
          "long_name": "Ohio",
          "short_name": "OH",
          "types": [
            "administrative_area_level_1",
            "political"
          ]
        },
        {
          "long_name": "United States",
          "short_name": "US",
          "types": [
            "country",
            "political"
          ]
        }
      ],
      "formatted_address": "Alliance, OH 44601, USA",
      "geometry": {
        "bounds": {
          "northeast": {
            "lat": 40.988892,
            "lng": -81.0281779
          },
          "southwest": {
            "lat": 40.8431201,
            "lng": -81.595011
          }
        },
        "location": {
          "lat": 40.9202113,
          "lng": -81.1416691
        },
        "location_type": "APPROXIMATE",
        "viewport": {
          "northeast": {
            "lat": 40.988892,
            "lng": -81.0281779
          },
          "southwest": {
            "lat": 40.8431201,
            "lng": -81.25079989999999
          }
        }
      },
      "place_id": "ChIJE0XIdha1NogRqPlcFdz7nQo",
      "types": [
        "postal_code"
      ]
    },
    {
      "address_components": [
        {
          "long_name": "Stark County",
          "short_name": "Stark County",
          "types": [
            "administrative_area_level_2",
            "political"
          ]
        },
        {
          "long_name": "Ohio",
          "short_name": "OH",
          "types": [
            "administrative_area_level_1",
            "political"
          ]
        },
        {
          "long_name": "United States",
          "short_name": "US",
          "types": [
            "country",
            "political"
          ]
        }
      ],
      "formatted_address": "Stark County, OH, USA",
      "geometry": {
        "bounds": {
          "northeast": {
            "lat": 40.988717,
            "lng": -81.08659600000001
          },
          "southwest": {
            "lat": 40.634988,
            "lng": -81.65004789999999
          }
        },
        "location": {
          "lat": 40.8684676,
          "lng": -81.2518833
        },
        "location_type": "APPROXIMATE",
        "viewport": {
          "northeast": {
            "lat": 40.988717,
            "lng": -81.08659600000001
          },
          "southwest": {
            "lat": 40.634988,
            "lng": -81.65004789999999
          }
        }
      },
      "place_id": "ChIJGXvF_is9N4gRTUq22ZuY1S4",
      "types": [
        "administrative_area_level_2",
        "political"
      ]
    },
    {
      "address_components": [
        {
          "long_name": "Ohio",
          "short_name": "OH",
          "types": [
            "administrative_area_level_1",
            "political"
          ]
        },
        {
          "long_name": "United States",
          "short_name": "US",
          "types": [
            "country",
            "political"
          ]
        }
      ],
      "formatted_address": "Ohio, USA",
      "geometry": {
        "bounds": {
          "northeast": {
            "lat": 41.9773019,
            "lng": -80.5182
          },
          "southwest": {
            "lat": 38.4034229,
            "lng": -84.8203049
          }
        },
        "location": {
          "lat": 40.4172871,
          "lng": -82.90712300000001
        },
        "location_type": "APPROXIMATE",
        "viewport": {
          "northeast": {
            "lat": 41.9773019,
            "lng": -80.5182
          },
          "southwest": {
            "lat": 38.4034229,
            "lng": -84.8203049
          }
        }
      },
      "place_id": "ChIJwY5NtXrpNogRFtmfnDlkzeU",
      "types": [
        "administrative_area_level_1",
        "political"
      ]
    },
    {
      "address_components": [
        {
          "long_name": "United States",
          "short_name": "US",
          "types": [
            "country",
            "political"
          ]
        }
      ],
      "formatted_address": "United States",
      "geometry": {
        "bounds": {
          "northeast": {
            "lat": 71.3867745,
            "lng": -66.9502861
          },
          "southwest": {
            "lat": 18.9106768,
            "lng": 172.4458955
          }
        },
        "location": {
          "lat": 37.09024,
          "lng": -95.712891
        },
        "location_type": "APPROXIMATE",
        "viewport": {
          "northeast": {
            "lat": 49.38,
            "lng": -66.94
          },
          "southwest": {
            "lat": 25.82,
            "lng": -124.39
          }
        }
      },
      "place_id": "ChIJCzYy5IS16lQRQrfeQ5K5Oxw",
      "types": [
        "country",
        "political"
      ]
    }
  ],
  "status": "OK"
}
