{
  "results": [
    {
      "address_components": [
        {
          "long_name": "2393",
          "short_name": "2393",
          "types": [
            "street_number"
          ]
        },
        {
          "long_name": "North Lakeshore Drive",
          "short_name": "N Lakeshore Dr",
          "types": [
            "route"
          ]
        },
        {
          "long_name": "Pacific",
          "short_name": "Pacific",
          "types": [
            "locality",
            "political"
          ]
        },
        {
          "long_name": "Meramec",
          "short_name": "Meramec",
          "types": [
            "administrative_area_level_3",
            "political"
          ]
        },
        {
          "long_name": "Jefferson County",
          "short_name": "Jefferson County",
          "types": [
            "administrative_area_level_2",
            "political"
          ]
        },
        {
          "long_name": "Missouri",
          "short_name": "MO",
          "types": [
            "administrative_area_level_1",
            "political"
          ]
        },
        {
          "long_name": "United States",
          "short_name": "US",
          "types": [
            "country",
            "political"
          ]
        },
        {
          "long_name": "63069",
          "short_name": "63069",
          "types": [
            "postal_code"
          ]
        },
        {
          "long_name": "4651",
          "short_name": "4651",
          "types": [
            "postal_code_suffix"
          ]
        }
      ],
      "formatted_address": "2393 N Lakeshore Dr, Pacific, MO 63069, USA",
      "geometry": {
        "location": {
          "lat": 38.441953,
          "lng": -90.714642
        },
        "location_type": "ROOFTOP",
        "viewport": {
          "northeast": {
            "lat": 38.4433019802915,
            "lng": -90.7132930197085
          },
          "southwest": {
            "lat": 38.4406040197085,
            "lng": -90.71599098029151
          }
        }
      },
      "place_id": "ChIJMaM6vaol2YcRum243QKUsW0",
      "types": [
        "street_address"
      ]
    },
    {
      "address_components": [
        {
          "long_name": "63069",
          "short_name": "63069",
          "types": [
            "postal_code"
          ]
        },
        {
          "long_name": "Pacific",
          "short_name": "Pacific",
          "types": [
            "locality",
            "political"
          ]
        },
        {
          "long_name": "Missouri",
          "short_name": "MO",
          "types": [
            "administrative_area_level_1",
            "political"
          ]
        },
        {
          "long_name": "United States",
          "short_name": "US",
          "types": [
            "country",
            "political"
          ]
        }
      ],
      "formatted_address": "Pacific, MO 63069, USA",
      "geometry": {
        "bounds": {
          "northeast": {
            "lat": 38.5788159,
            "lng": -90.6454699
          },
          "southwest": {
            "lat": 38.4018,
            "lng": -90.827123
          }
        },
        "location": {
          "lat": 38.5037223,
          "lng": -90.73427339999999
        },
        "location_type": "APPROXIMATE",
        "viewport": {
          "northeast": {
            "lat": 38.5788159,
            "lng": -90.6454699
          },
          "southwest": {
            "lat": 38.4018,
            "lng": -90.827123
          }
        }
      },
      "place_id": "ChIJKdss4yYl2YcR82lweK6LCm4",
      "postcode_localities": [
        "LA BARQUE CRK",
        "Pacific",
        "Wildwood"
      ],
      "types": [
        "postal_code"
      ]
    },
    {
      "address_components": [
        {
          "long_name": "Meramec",
          "short_name": "Meramec",
          "types": [
            "administrative_area_level_3",
            "political"
          ]
        },
        {
          "long_name": "Jefferson County",
          "short_name": "Jefferson County",
          "types": [
            "administrative_area_level_2",
            "political"
          ]
        },
        {
          "long_name": "Missouri",
          "short_name": "MO",
          "types": [
            "administrative_area_level_1",
            "political"
          ]
        },
        {
          "long_name": "United States",
          "short_name": "US",
          "types": [
            "country",
            "political"
          ]
        }
      ],
      "formatted_address": "Meramec, MO, USA",
      "geometry": {
        "bounds": {
          "northeast": {
            "lat": 38.501753,
            "lng": -90.5134338
          },
          "southwest": {
            "lat": 38.325151,
            "lng": -90.755601
          }
        },
        "location": {
          "lat": 38.3779391,
          "lng": -90.658333
        },
        "location_type": "APPROXIMATE",
        "viewport": {
          "northeast": {
            "lat": 38.501753,
            "lng": -90.5134338
          },
          "southwest": {
            "lat": 38.325151,
            "lng": -90.755601
          }
        }
      },
      "place_id": "ChIJaUGhPiQn2YcR2iWiAgK3Vxo",
      "types": [
        "administrative_area_level_3",
        "political"
      ]
    },
    {
      "address_components": [
        {
          "long_name": "Jefferson County",
          "short_name": "Jefferson County",
          "types": [
            "administrative_area_level_2",
            "political"
          ]
        },
        {
          "long_name": "Missouri",
          "short_name": "MO",
          "types": [
            "administrative_area_level_1",
            "political"
          ]
        },
        {
          "long_name": "United States",
          "short_name": "US",
          "types": [
            "country",
            "political"
          ]
        }
      ],
      "formatted_address": "Jefferson County, MO, USA",
      "geometry": {
        "bounds": {
          "northeast": {
            "lat": 38.5019541,
            "lng": -90.2495648
          },
          "southwest": {
            "lat": 38.0034991,
            "lng": -90.7801849
          }
        },
        "location": {
          "lat": 38.2310301,
          "lng": -90.52578229999999
        },
        "location_type": "APPROXIMATE",
        "viewport": {
          "northeast": {
            "lat": 38.5019541,
            "lng": -90.2495648
          },
          "southwest": {
            "lat": 38.0034991,
            "lng": -90.7801849
          }
        }
      },
      "place_id": "ChIJYdYCyp_c2IcRh4w_joxIqR0",
      "types": [
        "administrative_area_level_2",
        "political"
      ]
    },
    {
      "address_components": [
        {
          "long_name": "St. Louis",
          "short_name": "St. Louis",
          "types": [
            "political"
          ]
        },
        {
          "long_name": "United States",
          "short_name": "US",
          "types": [
            "country",
            "political"
          ]
        }
      ],
      "formatted_address": "St. Louis, USA",
      "geometry": {
        "bounds": {
          "northeast": {
            "lat": 39.5233661,
            "lng": -89.138356
          },
          "southwest": {
            "lat": 37.7341961,
            "lng": -91.4186371
          }
        },
        "location": {
          "lat": 38.8196814,
          "lng": -90.4502368
        },
        "location_type": "APPROXIMATE",
        "viewport": {
          "northeast": {
            "lat": 39.5233661,
            "lng": -89.138356
          },
          "southwest": {
            "lat": 37.7341961,
            "lng": -91.4186371
          }
        }
      },
      "place_id": "ChIJneBzzj4z34cRFGg2ez6q57o",
      "types": [
        "political"
      ]
    },
    {
      "address_components": [
        {
          "long_name": "Missouri",
          "short_name": "MO",
          "types": [
            "administrative_area_level_1",
            "political"
          ]
        },
        {
          "long_name": "United States",
          "short_name": "US",
          "types": [
            "country",
            "political"
          ]
        }
      ],
      "formatted_address": "Missouri, USA",
      "geometry": {
        "bounds": {
          "northeast": {
            "lat": 40.61364,
            "lng": -89.09949399999999
          },
          "southwest": {
            "lat": 35.9956829,
            "lng": -95.774704
          }
        },
        "location": {
          "lat": 37.9642529,
          "lng": -91.8318334
        },
        "location_type": "APPROXIMATE",
        "viewport": {
          "northeast": {
            "lat": 40.61364,
            "lng": -89.09949399999999
          },
          "southwest": {
            "lat": 35.9956829,
            "lng": -95.774704
          }
        }
      },
      "place_id": "ChIJfeMiSNXmwIcRcr1mBFnEW7U",
      "types": [
        "administrative_area_level_1",
        "political"
      ]
    },
    {
      "address_components": [
        {
          "long_name": "United States",
          "short_name": "US",
          "types": [
            "country",
            "political"
          ]
        }
      ],
      "formatted_address": "United States",
      "geometry": {
        "bounds": {
          "northeast": {
            "lat": 71.3867745,
            "lng": -66.9502861
          },
          "southwest": {
            "lat": 18.9106768,
            "lng": 172.4458955
          }
        },
        "location": {
          "lat": 37.09024,
          "lng": -95.712891
        },
        "location_type": "APPROXIMATE",
        "viewport": {
          "northeast": {
            "lat": 49.38,
            "lng": -66.94
          },
          "southwest": {
            "lat": 25.82,
            "lng": -124.39
          }
        }
      },
      "place_id": "ChIJCzYy5IS16lQRQrfeQ5K5Oxw",
      "types": [
        "country",
        "political"
      ]
    }
  ],
  "status": "OK"
}
