{
  "results": [
    {
      "address_components": [
        {
          "long_name": "226-238",
          "short_name": "226-238",
          "types": [
            "street_number"
          ]
        },
        {
          "long_name": "East South Street",
          "short_name": "E South St",
          "types": [
            "route"
          ]
        },
        {
          "long_name": "McComb",
          "short_name": "McComb",
          "types": [
            "locality",
            "political"
          ]
        },
        {
          "long_name": "Pleasant Township",
          "short_name": "Pleasant Township",
          "types": [
            "administrative_area_level_3",
            "political"
          ]
        },
        {
          "long_name": "Hancock County",
          "short_name": "Hancock County",
          "types": [
            "administrative_area_level_2",
            "political"
          ]
        },
        {
          "long_name": "Ohio",
          "short_name": "OH",
          "types": [
            "administrative_area_level_1",
            "political"
          ]
        },
        {
          "long_name": "United States",
          "short_name": "US",
          "types": [
            "country",
            "political"
          ]
        },
        {
          "long_name": "45858",
          "short_name": "45858",
          "types": [
            "postal_code"
          ]
        }
      ],
      "formatted_address": "226-238 E South St, McComb, OH 45858, USA",
      "geometry": {
        "bounds": {
          "northeast": {
            "lat": 41.1072013,
            "lng": -83.7881961
          },
          "southwest": {
            "lat": 41.1070478,
            "lng": -83.7889479
          }
        },
        "location": {
          "lat": 41.1070788,
          "lng": -83.7888676
        },
        "location_type": "RANGE_INTERPOLATED",
        "viewport": {
          "northeast": {
            "lat": 41.1084735302915,
            "lng": -83.78722301970849
          },
          "southwest": {
            "lat": 41.10577556970851,
            "lng": -83.7899209802915
          }
        }
      },
      "place_id": "EikyMjYtMjM4IEUgU291dGggU3QsIE1jQ29tYiwgT0ggNDU4NTgsIFVTQQ",
      "types": [
        "street_address"
      ]
    },
    {
      "address_components": [
        {
          "long_name": "McComb",
          "short_name": "McComb",
          "types": [
            "locality",
            "political"
          ]
        },
        {
          "long_name": "Pleasant Township",
          "short_name": "Pleasant Township",
          "types": [
            "administrative_area_level_3",
            "political"
          ]
        },
        {
          "long_name": "Hancock County",
          "short_name": "Hancock County",
          "types": [
            "administrative_area_level_2",
            "political"
          ]
        },
        {
          "long_name": "Ohio",
          "short_name": "OH",
          "types": [
            "administrative_area_level_1",
            "political"
          ]
        },
        {
          "long_name": "United States",
          "short_name": "US",
          "types": [
            "country",
            "political"
          ]
        },
        {
          "long_name": "45858",
          "short_name": "45858",
          "types": [
            "postal_code"
          ]
        }
      ],
      "formatted_address": "McComb, OH 45858, USA",
      "geometry": {
        "bounds": {
          "northeast": {
            "lat": 41.116489,
            "lng": -83.7742688
          },
          "southwest": {
            "lat": 41.0984909,
            "lng": -83.8083159
          }
        },
        "location": {
          "lat": 41.10755229999999,
          "lng": -83.79271469999999
        },
        "location_type": "APPROXIMATE",
        "viewport": {
          "northeast": {
            "lat": 41.116489,
            "lng": -83.7742688
          },
          "southwest": {
            "lat": 41.0984909,
            "lng": -83.8083159
          }
        }
      },
      "place_id": "ChIJf1Dxf2anPogRWJJS8jowORM",
      "types": [
        "locality",
        "political"
      ]
    },
    {
      "address_components": [
        {
          "long_name": "Pleasant Township",
          "short_name": "Pleasant Township",
          "types": [
            "administrative_area_level_3",
            "political"
          ]
        },
        {
          "long_name": "Hancock County",
          "short_name": "Hancock County",
          "types": [
            "administrative_area_level_2",
            "political"
          ]
        },
        {
          "long_name": "Ohio",
          "short_name": "OH",
          "types": [
            "administrative_area_level_1",
            "political"
          ]
        },
        {
          "long_name": "United States",
          "short_name": "US",
          "types": [
            "country",
            "political"
          ]
        }
      ],
      "formatted_address": "Pleasant Township, OH, USA",
      "geometry": {
        "bounds": {
          "northeast": {
            "lat": 41.1683491,
            "lng": -83.7650919
          },
          "southwest": {
            "lat": 41.0803608,
            "lng": -83.8811559
          }
        },
        "location": {
          "lat": 41.1357417,
          "lng": -83.8260884
        },
        "location_type": "APPROXIMATE",
        "viewport": {
          "northeast": {
            "lat": 41.1683491,
            "lng": -83.7650919
          },
          "southwest": {
            "lat": 41.0803608,
            "lng": -83.8811559
          }
        }
      },
      "place_id": "ChIJF9Bzn40dPIgR4_QZACuOmBM",
      "types": [
        "administrative_area_level_3",
        "political"
      ]
    },
    {
      "address_components": [
        {
          "long_name": "45858",
          "short_name": "45858",
          "types": [
            "postal_code"
          ]
        },
        {
          "long_name": "McComb",
          "short_name": "McComb",
          "types": [
            "locality",
            "political"
          ]
        },
        {
          "long_name": "Ohio",
          "short_name": "OH",
          "types": [
            "administrative_area_level_1",
            "political"
          ]
        },
        {
          "long_name": "United States",
          "short_name": "US",
          "types": [
            "country",
            "political"
          ]
        }
      ],
      "formatted_address": "McComb, OH 45858, USA",
      "geometry": {
        "bounds": {
          "northeast": {
            "lat": 41.1683449,
            "lng": -83.6589779
          },
          "southwest": {
            "lat": 41.0190849,
            "lng": -83.899704
          }
        },
        "location": {
          "lat": 41.09561650000001,
          "lng": -83.8260884
        },
        "location_type": "APPROXIMATE",
        "viewport": {
          "northeast": {
            "lat": 41.1683449,
            "lng": -83.6589779
          },
          "southwest": {
            "lat": 41.0190849,
            "lng": -83.899704
          }
        }
      },
      "place_id": "ChIJTaYW7oKnPogRBbNunVnzRcc",
      "types": [
        "postal_code"
      ]
    },
    {
      "address_components": [
        {
          "long_name": "Findlay",
          "short_name": "Findlay",
          "types": [
            "political"
          ]
        },
        {
          "long_name": "Ohio",
          "short_name": "OH",
          "types": [
            "administrative_area_level_1",
            "political"
          ]
        },
        {
          "long_name": "United States",
          "short_name": "US",
          "types": [
            "country",
            "political"
          ]
        }
      ],
      "formatted_address": "Findlay, OH, USA",
      "geometry": {
        "bounds": {
          "northeast": {
            "lat": 41.1683919,
            "lng": -83.4203141
          },
          "southwest": {
            "lat": 40.818134,
            "lng": -83.88110209999999
          }
        },
        "location": {
          "lat": 41.0273131,
          "lng": -83.67739279999999
        },
        "location_type": "APPROXIMATE",
        "viewport": {
          "northeast": {
            "lat": 41.1683919,
            "lng": -83.4203141
          },
          "southwest": {
            "lat": 40.818134,
            "lng": -83.88110209999999
          }
        }
      },
      "place_id": "ChIJb5OkqzysPogR72Pit_TpNzM",
      "types": [
        "political"
      ]
    },
    {
      "address_components": [
        {
          "long_name": "Hancock County",
          "short_name": "Hancock County",
          "types": [
            "administrative_area_level_2",
            "political"
          ]
        },
        {
          "long_name": "Ohio",
          "short_name": "OH",
          "types": [
            "administrative_area_level_1",
            "political"
          ]
        },
        {
          "long_name": "United States",
          "short_name": "US",
          "types": [
            "country",
            "political"
          ]
        }
      ],
      "formatted_address": "Hancock County, OH, USA",
      "geometry": {
        "bounds": {
          "northeast": {
            "lat": 41.168537,
            "lng": -83.42031899999999
          },
          "southwest": {
            "lat": 40.818134,
            "lng": -83.8811559
          }
        },
        "location": {
          "lat": 41.0273131,
          "lng": -83.67739279999999
        },
        "location_type": "APPROXIMATE",
        "viewport": {
          "northeast": {
            "lat": 41.168537,
            "lng": -83.42031899999999
          },
          "southwest": {
            "lat": 40.818134,
            "lng": -83.8811559
          }
        }
      },
      "place_id": "ChIJ9yKiYvEBPIgRijLNAo7D4AU",
      "types": [
        "administrative_area_level_2",
        "political"
      ]
    },
    {
      "address_components": [
        {
          "long_name": "Ohio",
          "short_name": "OH",
          "types": [
            "administrative_area_level_1",
            "political"
          ]
        },
        {
          "long_name": "United States",
          "short_name": "US",
          "types": [
            "country",
            "political"
          ]
        }
      ],
      "formatted_address": "Ohio, USA",
      "geometry": {
        "bounds": {
          "northeast": {
            "lat": 41.9773019,
            "lng": -80.5182
          },
          "southwest": {
            "lat": 38.4034229,
            "lng": -84.8203049
          }
        },
        "location": {
          "lat": 40.4172871,
          "lng": -82.90712300000001
        },
        "location_type": "APPROXIMATE",
        "viewport": {
          "northeast": {
            "lat": 41.9773019,
            "lng": -80.5182
          },
          "southwest": {
            "lat": 38.4034229,
            "lng": -84.8203049
          }
        }
      },
      "place_id": "ChIJwY5NtXrpNogRFtmfnDlkzeU",
      "types": [
        "administrative_area_level_1",
        "political"
      ]
    },
    {
      "address_components": [
        {
          "long_name": "United States",
          "short_name": "US",
          "types": [
            "country",
            "political"
          ]
        }
      ],
      "formatted_address": "United States",
      "geometry": {
        "bounds": {
          "northeast": {
            "lat": 71.3867745,
            "lng": -66.9502861
          },
          "southwest": {
            "lat": 18.9106768,
            "lng": 172.4458955
          }
        },
        "location": {
          "lat": 37.09024,
          "lng": -95.712891
        },
        "location_type": "APPROXIMATE",
        "viewport": {
          "northeast": {
            "lat": 49.38,
            "lng": -66.94
          },
          "southwest": {
            "lat": 25.82,
            "lng": -124.39
          }
        }
      },
      "place_id": "ChIJCzYy5IS16lQRQrfeQ5K5Oxw",
      "types": [
        "country",
        "political"
      ]
    }
  ],
  "status": "OK"
}
