{
  "results": [
    {
      "address_components": [
        {
          "long_name": "1",
          "short_name": "1",
          "types": [
            "street_number"
          ]
        },
        {
          "long_name": "Ashley Lane",
          "short_name": "Ashley Ln",
          "types": [
            "route"
          ]
        },
        {
          "long_name": "Shoreham",
          "short_name": "Shoreham",
          "types": [
            "locality",
            "political"
          ]
        },
        {
          "long_name": "Brookhaven",
          "short_name": "Brookhaven",
          "types": [
            "administrative_area_level_3",
            "political"
          ]
        },
        {
          "long_name": "Suffolk County",
          "short_name": "Suffolk County",
          "types": [
            "administrative_area_level_2",
            "political"
          ]
        },
        {
          "long_name": "New York",
          "short_name": "NY",
          "types": [
            "administrative_area_level_1",
            "political"
          ]
        },
        {
          "long_name": "United States",
          "short_name": "US",
          "types": [
            "country",
            "political"
          ]
        },
        {
          "long_name": "11786",
          "short_name": "11786",
          "types": [
            "postal_code"
          ]
        },
        {
          "long_name": "1400",
          "short_name": "1400",
          "types": [
            "postal_code_suffix"
          ]
        }
      ],
      "formatted_address": "1 Ashley Ln, Shoreham, NY 11786, USA",
      "geometry": {
        "bounds": {
          "northeast": {
            "lat": 40.9574666,
            "lng": -72.9050941
          },
          "southwest": {
            "lat": 40.95702199999999,
            "lng": -72.9073963
          }
        },
        "location": {
          "lat": 40.957079,
          "lng": -72.9071202
        },
        "location_type": "RANGE_INTERPOLATED",
        "viewport": {
          "northeast": {
            "lat": 40.9585932802915,
            "lng": -72.90489621970849
          },
          "southwest": {
            "lat": 40.9558953197085,
            "lng": -72.90759418029151
          }
        }
      },
      "place_id": "EiQxIEFzaGxleSBMbiwgU2hvcmVoYW0sIE5ZIDExNzg2LCBVU0E",
      "types": [
        "street_address"
      ]
    },
    {
      "address_components": [
        {
          "long_name": "Shoreham",
          "short_name": "Shoreham",
          "types": [
            "locality",
            "political"
          ]
        },
        {
          "long_name": "Brookhaven",
          "short_name": "Brookhaven",
          "types": [
            "administrative_area_level_3",
            "political"
          ]
        },
        {
          "long_name": "Suffolk County",
          "short_name": "Suffolk County",
          "types": [
            "administrative_area_level_2",
            "political"
          ]
        },
        {
          "long_name": "New York",
          "short_name": "NY",
          "types": [
            "administrative_area_level_1",
            "political"
          ]
        },
        {
          "long_name": "United States",
          "short_name": "US",
          "types": [
            "country",
            "political"
          ]
        }
      ],
      "formatted_address": "Shoreham, NY, USA",
      "geometry": {
        "bounds": {
          "northeast": {
            "lat": 40.9627871,
            "lng": -72.8986181
          },
          "southwest": {
            "lat": 40.94764989999999,
            "lng": -72.91391689999999
          }
        },
        "location": {
          "lat": 40.9573208,
          "lng": -72.9076025
        },
        "location_type": "APPROXIMATE",
        "viewport": {
          "northeast": {
            "lat": 40.9627871,
            "lng": -72.8986181
          },
          "southwest": {
            "lat": 40.94764989999999,
            "lng": -72.91391689999999
          }
        }
      },
      "place_id": "ChIJ5QiAnFxd6IkRtnWcD8INPrk",
      "types": [
        "locality",
        "political"
      ]
    },
    {
      "address_components": [
        {
          "long_name": "11786",
          "short_name": "11786",
          "types": [
            "postal_code"
          ]
        },
        {
          "long_name": "Shoreham",
          "short_name": "Shoreham",
          "types": [
            "locality",
            "political"
          ]
        },
        {
          "long_name": "Suffolk County",
          "short_name": "Suffolk County",
          "types": [
            "administrative_area_level_2",
            "political"
          ]
        },
        {
          "long_name": "New York",
          "short_name": "NY",
          "types": [
            "administrative_area_level_1",
            "political"
          ]
        },
        {
          "long_name": "United States",
          "short_name": "US",
          "types": [
            "country",
            "political"
          ]
        }
      ],
      "formatted_address": "Shoreham, NY 11786, USA",
      "geometry": {
        "bounds": {
          "northeast": {
            "lat": 40.9738241,
            "lng": -72.862568
          },
          "southwest": {
            "lat": 40.9223291,
            "lng": -72.91391689999999
          }
        },
        "location": {
          "lat": 40.9580487,
          "lng": -72.88699299999999
        },
        "location_type": "APPROXIMATE",
        "viewport": {
          "northeast": {
            "lat": 40.9738241,
            "lng": -72.862568
          },
          "southwest": {
            "lat": 40.9223291,
            "lng": -72.91391689999999
          }
        }
      },
      "place_id": "ChIJ_foV3Vld6IkRm4fo3q7k2wk",
      "types": [
        "postal_code"
      ]
    },
    {
      "address_components": [
        {
          "long_name": "Brookhaven",
          "short_name": "Brookhaven",
          "types": [
            "administrative_area_level_3",
            "political"
          ]
        },
        {
          "long_name": "Suffolk County",
          "short_name": "Suffolk County",
          "types": [
            "administrative_area_level_2",
            "political"
          ]
        },
        {
          "long_name": "New York",
          "short_name": "NY",
          "types": [
            "administrative_area_level_1",
            "political"
          ]
        },
        {
          "long_name": "United States",
          "short_name": "US",
          "types": [
            "country",
            "political"
          ]
        }
      ],
      "formatted_address": "Brookhaven, NY, USA",
      "geometry": {
        "bounds": {
          "northeast": {
            "lat": 40.9776667,
            "lng": -72.7029008
          },
          "southwest": {
            "lat": 40.6455704,
            "lng": -73.1590131
          }
        },
        "location": {
          "lat": 40.8858353,
          "lng": -72.99329689999999
        },
        "location_type": "APPROXIMATE",
        "viewport": {
          "northeast": {
            "lat": 40.9776667,
            "lng": -72.7029008
          },
          "southwest": {
            "lat": 40.6455704,
            "lng": -73.1590131
          }
        }
      },
      "place_id": "ChIJC6iSqSlf6IkRKpM-iqF_WnY",
      "types": [
        "administrative_area_level_3",
        "political"
      ]
    },
    {
      "address_components": [
        {
          "long_name": "Suffolk County",
          "short_name": "Suffolk County",
          "types": [
            "administrative_area_level_2",
            "political"
          ]
        },
        {
          "long_name": "New York",
          "short_name": "NY",
          "types": [
            "administrative_area_level_1",
            "political"
          ]
        },
        {
          "long_name": "United States",
          "short_name": "US",
          "types": [
            "country",
            "political"
          ]
        }
      ],
      "formatted_address": "Suffolk County, NY, USA",
      "geometry": {
        "bounds": {
          "northeast": {
            "lat": 41.2923797,
            "lng": -71.8562082
          },
          "southwest": {
            "lat": 40.6094203,
            "lng": -73.497125
          }
        },
        "location": {
          "lat": 40.9848784,
          "lng": -72.61511689999999
        },
        "location_type": "APPROXIMATE",
        "viewport": {
          "northeast": {
            "lat": 41.2923194,
            "lng": -71.8562082
          },
          "southwest": {
            "lat": 40.6094203,
            "lng": -73.497125
          }
        }
      },
      "place_id": "ChIJ1_mbyICu4IkRU18dDUkMxJU",
      "types": [
        "administrative_area_level_2",
        "political"
      ]
    },
    {
      "address_components": [
        {
          "long_name": "New York",
          "short_name": "NY",
          "types": [
            "administrative_area_level_1",
            "political"
          ]
        },
        {
          "long_name": "United States",
          "short_name": "US",
          "types": [
            "country",
            "political"
          ]
        }
      ],
      "formatted_address": "New York, USA",
      "geometry": {
        "bounds": {
          "northeast": {
            "lat": 45.015865,
            "lng": -71.85620639999999
          },
          "southwest": {
            "lat": 40.496091,
            "lng": -79.76214379999999
          }
        },
        "location": {
          "lat": 43.2994285,
          "lng": -74.21793260000001
        },
        "location_type": "APPROXIMATE",
        "viewport": {
          "northeast": {
            "lat": 45.015859,
            "lng": -71.85620639999999
          },
          "southwest": {
            "lat": 40.496091,
            "lng": -79.76214379999999
          }
        }
      },
      "place_id": "ChIJqaUj8fBLzEwRZ5UY3sHGz90",
      "types": [
        "administrative_area_level_1",
        "political"
      ]
    },
    {
      "address_components": [
        {
          "long_name": "United States",
          "short_name": "US",
          "types": [
            "country",
            "political"
          ]
        }
      ],
      "formatted_address": "United States",
      "geometry": {
        "bounds": {
          "northeast": {
            "lat": 71.3867745,
            "lng": -66.9502861
          },
          "southwest": {
            "lat": 18.9106768,
            "lng": 172.4458955
          }
        },
        "location": {
          "lat": 37.09024,
          "lng": -95.712891
        },
        "location_type": "APPROXIMATE",
        "viewport": {
          "northeast": {
            "lat": 49.38,
            "lng": -66.94
          },
          "southwest": {
            "lat": 25.82,
            "lng": -124.39
          }
        }
      },
      "place_id": "ChIJCzYy5IS16lQRQrfeQ5K5Oxw",
      "types": [
        "country",
        "political"
      ]
    }
  ],
  "status": "OK"
}
