{
  "results": [
    {
      "address_components": [
        {
          "long_name": "2279-2341",
          "short_name": "2279-2341",
          "types": [
            "street_number"
          ]
        },
        {
          "long_name": "Indian Point Road",
          "short_name": "Indian Point Rd",
          "types": [
            "route"
          ]
        },
        {
          "long_name": "Branson",
          "short_name": "Branson",
          "types": [
            "locality",
            "political"
          ]
        },
        {
          "long_name": "Ruth C Rural Township",
          "short_name": "Ruth C Rural Township",
          "types": [
            "administrative_area_level_3",
            "political"
          ]
        },
        {
          "long_name": "Stone County",
          "short_name": "Stone County",
          "types": [
            "administrative_area_level_2",
            "political"
          ]
        },
        {
          "long_name": "Missouri",
          "short_name": "MO",
          "types": [
            "administrative_area_level_1",
            "political"
          ]
        },
        {
          "long_name": "United States",
          "short_name": "US",
          "types": [
            "country",
            "political"
          ]
        },
        {
          "long_name": "65616",
          "short_name": "65616",
          "types": [
            "postal_code"
          ]
        }
      ],
      "formatted_address": "2279-2341 Indian Point Rd, Branson, MO 65616, USA",
      "geometry": {
        "bounds": {
          "northeast": {
            "lat": 36.642665,
            "lng": -93.3431789
          },
          "southwest": {
            "lat": 36.6412849,
            "lng": -93.343831
          }
        },
        "location": {
          "lat": 36.6423542,
          "lng": -93.3434379
        },
        "location_type": "RANGE_INTERPOLATED",
        "viewport": {
          "northeast": {
            "lat": 36.6433239302915,
            "lng": -93.34215596970849
          },
          "southwest": {
            "lat": 36.6406259697085,
            "lng": -93.34485393029149
          }
        }
      },
      "place_id": "EjEyMjc5LTIzNDEgSW5kaWFuIFBvaW50IFJkLCBCcmFuc29uLCBNTyA2NTYxNiwgVVNB",
      "types": [
        "street_address"
      ]
    },
    {
      "address_components": [
        {
          "long_name": "Indian Point",
          "short_name": "Indian Point",
          "types": [
            "locality",
            "political"
          ]
        },
        {
          "long_name": "Ruth C Rural Township",
          "short_name": "Ruth C Rural Township",
          "types": [
            "administrative_area_level_3",
            "political"
          ]
        },
        {
          "long_name": "Stone County",
          "short_name": "Stone County",
          "types": [
            "administrative_area_level_2",
            "political"
          ]
        },
        {
          "long_name": "Missouri",
          "short_name": "MO",
          "types": [
            "administrative_area_level_1",
            "political"
          ]
        },
        {
          "long_name": "United States",
          "short_name": "US",
          "types": [
            "country",
            "political"
          ]
        }
      ],
      "formatted_address": "Indian Point, MO, USA",
      "geometry": {
        "bounds": {
          "northeast": {
            "lat": 36.674302,
            "lng": -93.328811
          },
          "southwest": {
            "lat": 36.6182446,
            "lng": -93.3561989
          }
        },
        "location": {
          "lat": 36.628396,
          "lng": -93.3437955
        },
        "location_type": "APPROXIMATE",
        "viewport": {
          "northeast": {
            "lat": 36.674302,
            "lng": -93.328811
          },
          "southwest": {
            "lat": 36.6182446,
            "lng": -93.3561989
          }
        }
      },
      "place_id": "ChIJ2aG6wKsez4cR63u0p_OfiHU",
      "types": [
        "locality",
        "political"
      ]
    },
    {
      "address_components": [
        {
          "long_name": "Ruth C Rural Township",
          "short_name": "Ruth C Rural Township",
          "types": [
            "administrative_area_level_3",
            "political"
          ]
        },
        {
          "long_name": "Stone County",
          "short_name": "Stone County",
          "types": [
            "administrative_area_level_2",
            "political"
          ]
        },
        {
          "long_name": "Missouri",
          "short_name": "MO",
          "types": [
            "administrative_area_level_1",
            "political"
          ]
        },
        {
          "long_name": "United States",
          "short_name": "US",
          "types": [
            "country",
            "political"
          ]
        }
      ],
      "formatted_address": "Ruth C Rural Township, MO, USA",
      "geometry": {
        "bounds": {
          "northeast": {
            "lat": 36.674302,
            "lng": -93.328811
          },
          "southwest": {
            "lat": 36.6182446,
            "lng": -93.356228
          }
        },
        "location": {
          "lat": 36.6435619,
          "lng": -93.3439291
        },
        "location_type": "APPROXIMATE",
        "viewport": {
          "northeast": {
            "lat": 36.674302,
            "lng": -93.328811
          },
          "southwest": {
            "lat": 36.6182446,
            "lng": -93.356228
          }
        }
      },
      "place_id": "ChIJF50mm4Qcz4cRuMUisjuqIbY",
      "types": [
        "administrative_area_level_3",
        "political"
      ]
    },
    {
      "address_components": [
        {
          "long_name": "65616",
          "short_name": "65616",
          "types": [
            "postal_code"
          ]
        },
        {
          "long_name": "Branson",
          "short_name": "Branson",
          "types": [
            "locality",
            "political"
          ]
        },
        {
          "long_name": "Missouri",
          "short_name": "MO",
          "types": [
            "administrative_area_level_1",
            "political"
          ]
        },
        {
          "long_name": "United States",
          "short_name": "US",
          "types": [
            "country",
            "political"
          ]
        }
      ],
      "formatted_address": "Branson, MO 65616, USA",
      "geometry": {
        "bounds": {
          "northeast": {
            "lat": 36.7477771,
            "lng": -93.12359
          },
          "southwest": {
            "lat": 36.578381,
            "lng": -93.3554061
          }
        },
        "location": {
          "lat": 36.6734189,
          "lng": -93.23825099999999
        },
        "location_type": "APPROXIMATE",
        "viewport": {
          "northeast": {
            "lat": 36.7477771,
            "lng": -93.12359
          },
          "southwest": {
            "lat": 36.578381,
            "lng": -93.3554061
          }
        }
      },
      "place_id": "ChIJtdo237wEz4cRacWgyBaSUNU",
      "postcode_localities": [
        "Branson",
        "MARVEL CAV PK",
        "Marvel Cave Park"
      ],
      "types": [
        "postal_code"
      ]
    },
    {
      "address_components": [
        {
          "long_name": "Stone County",
          "short_name": "Stone County",
          "types": [
            "administrative_area_level_2",
            "political"
          ]
        },
        {
          "long_name": "Missouri",
          "short_name": "MO",
          "types": [
            "administrative_area_level_1",
            "political"
          ]
        },
        {
          "long_name": "United States",
          "short_name": "US",
          "types": [
            "country",
            "political"
          ]
        }
      ],
      "formatted_address": "Stone County, MO, USA",
      "geometry": {
        "bounds": {
          "northeast": {
            "lat": 36.99581,
            "lng": -93.3043589
          },
          "southwest": {
            "lat": 36.4981399,
            "lng": -93.612929
          }
        },
        "location": {
          "lat": 36.7748882,
          "lng": -93.4599326
        },
        "location_type": "APPROXIMATE",
        "viewport": {
          "northeast": {
            "lat": 36.99581,
            "lng": -93.3043589
          },
          "southwest": {
            "lat": 36.4981399,
            "lng": -93.612929
          }
        }
      },
      "place_id": "ChIJAQbAA-ARz4cRJDUB1ZHj-a8",
      "types": [
        "administrative_area_level_2",
        "political"
      ]
    },
    {
      "address_components": [
        {
          "long_name": "Branson",
          "short_name": "Branson",
          "types": [
            "political"
          ]
        },
        {
          "long_name": "United States",
          "short_name": "US",
          "types": [
            "country",
            "political"
          ]
        }
      ],
      "formatted_address": "Branson, USA",
      "geometry": {
        "bounds": {
          "northeast": {
            "lat": 36.995811,
            "lng": -92.7648311
          },
          "southwest": {
            "lat": 36.497772,
            "lng": -93.612929
          }
        },
        "location": {
          "lat": 36.6534804,
          "lng": -93.17796589999999
        },
        "location_type": "APPROXIMATE",
        "viewport": {
          "northeast": {
            "lat": 36.995811,
            "lng": -92.7648311
          },
          "southwest": {
            "lat": 36.497772,
            "lng": -93.612929
          }
        }
      },
      "place_id": "ChIJucKU__0Ez4cR6CncF_MzbGs",
      "types": [
        "political"
      ]
    },
    {
      "address_components": [
        {
          "long_name": "Missouri",
          "short_name": "MO",
          "types": [
            "administrative_area_level_1",
            "political"
          ]
        },
        {
          "long_name": "United States",
          "short_name": "US",
          "types": [
            "country",
            "political"
          ]
        }
      ],
      "formatted_address": "Missouri, USA",
      "geometry": {
        "bounds": {
          "northeast": {
            "lat": 40.61364,
            "lng": -89.09949399999999
          },
          "southwest": {
            "lat": 35.9956829,
            "lng": -95.774704
          }
        },
        "location": {
          "lat": 37.9642529,
          "lng": -91.8318334
        },
        "location_type": "APPROXIMATE",
        "viewport": {
          "northeast": {
            "lat": 40.61364,
            "lng": -89.09949399999999
          },
          "southwest": {
            "lat": 35.9956829,
            "lng": -95.774704
          }
        }
      },
      "place_id": "ChIJfeMiSNXmwIcRcr1mBFnEW7U",
      "types": [
        "administrative_area_level_1",
        "political"
      ]
    },
    {
      "address_components": [
        {
          "long_name": "United States",
          "short_name": "US",
          "types": [
            "country",
            "political"
          ]
        }
      ],
      "formatted_address": "United States",
      "geometry": {
        "bounds": {
          "northeast": {
            "lat": 71.3867745,
            "lng": -66.9502861
          },
          "southwest": {
            "lat": 18.9106768,
            "lng": 172.4458955
          }
        },
        "location": {
          "lat": 37.09024,
          "lng": -95.712891
        },
        "location_type": "APPROXIMATE",
        "viewport": {
          "northeast": {
            "lat": 49.38,
            "lng": -66.94
          },
          "southwest": {
            "lat": 25.82,
            "lng": -124.39
          }
        }
      },
      "place_id": "ChIJCzYy5IS16lQRQrfeQ5K5Oxw",
      "types": [
        "country",
        "political"
      ]
    }
  ],
  "status": "OK"
}
