{
  "results": [
    {
      "address_components": [
        {
          "long_name": "200-338",
          "short_name": "200-338",
          "types": [
            "street_number"
          ]
        },
        {
          "long_name": "North Main Street",
          "short_name": "N Main St",
          "types": [
            "route"
          ]
        },
        {
          "long_name": "Diamond",
          "short_name": "Diamond",
          "types": [
            "locality",
            "political"
          ]
        },
        {
          "long_name": "Marion Township",
          "short_name": "Marion Township",
          "types": [
            "administrative_area_level_3",
            "political"
          ]
        },
        {
          "long_name": "Newton County",
          "short_name": "Newton County",
          "types": [
            "administrative_area_level_2",
            "political"
          ]
        },
        {
          "long_name": "Missouri",
          "short_name": "MO",
          "types": [
            "administrative_area_level_1",
            "political"
          ]
        },
        {
          "long_name": "United States",
          "short_name": "US",
          "types": [
            "country",
            "political"
          ]
        },
        {
          "long_name": "64840",
          "short_name": "64840",
          "types": [
            "postal_code"
          ]
        },
        {
          "long_name": "7125",
          "short_name": "7125",
          "types": [
            "postal_code_suffix"
          ]
        }
      ],
      "formatted_address": "200-338 N Main St, Diamond, MO 64840, USA",
      "geometry": {
        "bounds": {
          "northeast": {
            "lat": 36.9973762,
            "lng": -94.3147857
          },
          "southwest": {
            "lat": 36.9959091,
            "lng": -94.3148411
          }
        },
        "location": {
          "lat": 36.9969487,
          "lng": -94.31482059999999
        },
        "location_type": "RANGE_INTERPOLATED",
        "viewport": {
          "northeast": {
            "lat": 36.99799163029149,
            "lng": -94.3134644197085
          },
          "southwest": {
            "lat": 36.9952936697085,
            "lng": -94.3161623802915
          }
        }
      },
      "place_id": "EikyMDAtMzM4IE4gTWFpbiBTdCwgRGlhbW9uZCwgTU8gNjQ4NDAsIFVTQQ",
      "types": [
        "street_address"
      ]
    },
    {
      "address_components": [
        {
          "long_name": "Diamond",
          "short_name": "Diamond",
          "types": [
            "locality",
            "political"
          ]
        },
        {
          "long_name": "Marion Township",
          "short_name": "Marion Township",
          "types": [
            "administrative_area_level_3",
            "political"
          ]
        },
        {
          "long_name": "Newton County",
          "short_name": "Newton County",
          "types": [
            "administrative_area_level_2",
            "political"
          ]
        },
        {
          "long_name": "Missouri",
          "short_name": "MO",
          "types": [
            "administrative_area_level_1",
            "political"
          ]
        },
        {
          "long_name": "United States",
          "short_name": "US",
          "types": [
            "country",
            "political"
          ]
        },
        {
          "long_name": "64840",
          "short_name": "64840",
          "types": [
            "postal_code"
          ]
        }
      ],
      "formatted_address": "Diamond, MO 64840, USA",
      "geometry": {
        "bounds": {
          "northeast": {
            "lat": 37.009841,
            "lng": -94.3007839
          },
          "southwest": {
            "lat": 36.9868409,
            "lng": -94.32387899999999
          }
        },
        "location": {
          "lat": 36.9953411,
          "lng": -94.31605259999999
        },
        "location_type": "APPROXIMATE",
        "viewport": {
          "northeast": {
            "lat": 37.009841,
            "lng": -94.3007839
          },
          "southwest": {
            "lat": 36.9868409,
            "lng": -94.32387899999999
          }
        }
      },
      "place_id": "ChIJbyCegSyJyIcRdPoJKY0ando",
      "types": [
        "locality",
        "political"
      ]
    },
    {
      "address_components": [
        {
          "long_name": "64840",
          "short_name": "64840",
          "types": [
            "postal_code"
          ]
        },
        {
          "long_name": "Diamond",
          "short_name": "Diamond",
          "types": [
            "locality",
            "political"
          ]
        },
        {
          "long_name": "Missouri",
          "short_name": "MO",
          "types": [
            "administrative_area_level_1",
            "political"
          ]
        },
        {
          "long_name": "United States",
          "short_name": "US",
          "types": [
            "country",
            "political"
          ]
        }
      ],
      "formatted_address": "Diamond, MO 64840, USA",
      "geometry": {
        "bounds": {
          "northeast": {
            "lat": 37.0685749,
            "lng": -94.2396119
          },
          "southwest": {
            "lat": 36.95140689999999,
            "lng": -94.4310089
          }
        },
        "location": {
          "lat": 37.0254308,
          "lng": -94.33596349999999
        },
        "location_type": "APPROXIMATE",
        "viewport": {
          "northeast": {
            "lat": 37.0685749,
            "lng": -94.2396119
          },
          "southwest": {
            "lat": 36.95140689999999,
            "lng": -94.4310089
          }
        }
      },
      "place_id": "ChIJRdV338qIyIcRgwnoOnxkfp4",
      "types": [
        "postal_code"
      ]
    },
    {
      "address_components": [
        {
          "long_name": "Marion Township",
          "short_name": "Marion Township",
          "types": [
            "administrative_area_level_3",
            "political"
          ]
        },
        {
          "long_name": "Newton County",
          "short_name": "Newton County",
          "types": [
            "administrative_area_level_2",
            "political"
          ]
        },
        {
          "long_name": "Missouri",
          "short_name": "MO",
          "types": [
            "administrative_area_level_1",
            "political"
          ]
        },
        {
          "long_name": "United States",
          "short_name": "US",
          "types": [
            "country",
            "political"
          ]
        }
      ],
      "formatted_address": "Marion Township, MO, USA",
      "geometry": {
        "bounds": {
          "northeast": {
            "lat": 37.0544129,
            "lng": -94.20428009999999
          },
          "southwest": {
            "lat": 36.9644149,
            "lng": -94.4261459
          }
        },
        "location": {
          "lat": 37.0254308,
          "lng": -94.33596349999999
        },
        "location_type": "APPROXIMATE",
        "viewport": {
          "northeast": {
            "lat": 37.0544129,
            "lng": -94.20428009999999
          },
          "southwest": {
            "lat": 36.9644149,
            "lng": -94.4261459
          }
        }
      },
      "place_id": "ChIJRQKGTSuPyIcRLh_N-qjzsP8",
      "types": [
        "administrative_area_level_3",
        "political"
      ]
    },
    {
      "address_components": [
        {
          "long_name": "Newton County",
          "short_name": "Newton County",
          "types": [
            "administrative_area_level_2",
            "political"
          ]
        },
        {
          "long_name": "Missouri",
          "short_name": "MO",
          "types": [
            "administrative_area_level_1",
            "political"
          ]
        },
        {
          "long_name": "United States",
          "short_name": "US",
          "types": [
            "country",
            "political"
          ]
        }
      ],
      "formatted_address": "Newton County, MO, USA",
      "geometry": {
        "bounds": {
          "northeast": {
            "lat": 37.05679689999999,
            "lng": -94.0592108
          },
          "southwest": {
            "lat": 36.7478178,
            "lng": -94.6195939
          }
        },
        "location": {
          "lat": 36.9618494,
          "lng": -94.315422
        },
        "location_type": "APPROXIMATE",
        "viewport": {
          "northeast": {
            "lat": 37.05679689999999,
            "lng": -94.0592108
          },
          "southwest": {
            "lat": 36.7478178,
            "lng": -94.6195939
          }
        }
      },
      "place_id": "ChIJJ7md1O6MyIcRLT7Ck4pJhW8",
      "types": [
        "administrative_area_level_2",
        "political"
      ]
    },
    {
      "address_components": [
        {
          "long_name": "Joplin",
          "short_name": "Joplin",
          "types": [
            "political"
          ]
        },
        {
          "long_name": "United States",
          "short_name": "US",
          "types": [
            "country",
            "political"
          ]
        }
      ],
      "formatted_address": "Joplin, USA",
      "geometry": {
        "bounds": {
          "northeast": {
            "lat": 37.364355,
            "lng": -94.05237199999999
          },
          "southwest": {
            "lat": 36.747867,
            "lng": -94.61865809999999
          }
        },
        "location": {
          "lat": 37.0505583,
          "lng": -94.2333355
        },
        "location_type": "APPROXIMATE",
        "viewport": {
          "northeast": {
            "lat": 37.364355,
            "lng": -94.05237199999999
          },
          "southwest": {
            "lat": 36.747867,
            "lng": -94.61865809999999
          }
        }
      },
      "place_id": "ChIJRa5ZQCOGyIcR3FvsNK6zNFI",
      "types": [
        "political"
      ]
    },
    {
      "address_components": [
        {
          "long_name": "Missouri",
          "short_name": "MO",
          "types": [
            "administrative_area_level_1",
            "political"
          ]
        },
        {
          "long_name": "United States",
          "short_name": "US",
          "types": [
            "country",
            "political"
          ]
        }
      ],
      "formatted_address": "Missouri, USA",
      "geometry": {
        "bounds": {
          "northeast": {
            "lat": 40.61364,
            "lng": -89.09949399999999
          },
          "southwest": {
            "lat": 35.9956829,
            "lng": -95.774704
          }
        },
        "location": {
          "lat": 37.9642529,
          "lng": -91.8318334
        },
        "location_type": "APPROXIMATE",
        "viewport": {
          "northeast": {
            "lat": 40.61364,
            "lng": -89.09949399999999
          },
          "southwest": {
            "lat": 35.9956829,
            "lng": -95.774704
          }
        }
      },
      "place_id": "ChIJfeMiSNXmwIcRcr1mBFnEW7U",
      "types": [
        "administrative_area_level_1",
        "political"
      ]
    },
    {
      "address_components": [
        {
          "long_name": "United States",
          "short_name": "US",
          "types": [
            "country",
            "political"
          ]
        }
      ],
      "formatted_address": "United States",
      "geometry": {
        "bounds": {
          "northeast": {
            "lat": 71.3867745,
            "lng": -66.9502861
          },
          "southwest": {
            "lat": 18.9106768,
            "lng": 172.4458955
          }
        },
        "location": {
          "lat": 37.09024,
          "lng": -95.712891
        },
        "location_type": "APPROXIMATE",
        "viewport": {
          "northeast": {
            "lat": 49.38,
            "lng": -66.94
          },
          "southwest": {
            "lat": 25.82,
            "lng": -124.39
          }
        }
      },
      "place_id": "ChIJCzYy5IS16lQRQrfeQ5K5Oxw",
      "types": [
        "country",
        "political"
      ]
    }
  ],
  "status": "OK"
}
