{
  "results": [
    {
      "address_components": [
        {
          "long_name": "501-599",
          "short_name": "501-599",
          "types": [
            "street_number"
          ]
        },
        {
          "long_name": "West Whitney Street",
          "short_name": "W Whitney St",
          "types": [
            "route"
          ]
        },
        {
          "long_name": "Montpelier",
          "short_name": "Montpelier",
          "types": [
            "locality",
            "political"
          ]
        },
        {
          "long_name": "Harrison Township",
          "short_name": "Harrison Township",
          "types": [
            "administrative_area_level_3",
            "political"
          ]
        },
        {
          "long_name": "Blackford County",
          "short_name": "Blackford County",
          "types": [
            "administrative_area_level_2",
            "political"
          ]
        },
        {
          "long_name": "Indiana",
          "short_name": "IN",
          "types": [
            "administrative_area_level_1",
            "political"
          ]
        },
        {
          "long_name": "United States",
          "short_name": "US",
          "types": [
            "country",
            "political"
          ]
        },
        {
          "long_name": "47359",
          "short_name": "47359",
          "types": [
            "postal_code"
          ]
        }
      ],
      "formatted_address": "501-599 W Whitney St, Montpelier, IN 47359, USA",
      "geometry": {
        "bounds": {
          "northeast": {
            "lat": 40.5496986,
            "lng": -85.2854697
          },
          "southwest": {
            "lat": 40.5496474,
            "lng": -85.287837
          }
        },
        "location": {
          "lat": 40.5496393,
          "lng": -85.2874147
        },
        "location_type": "RANGE_INTERPOLATED",
        "viewport": {
          "northeast": {
            "lat": 40.5510219802915,
            "lng": -85.2853043697085
          },
          "southwest": {
            "lat": 40.5483240197085,
            "lng": -85.2880023302915
          }
        }
      },
      "place_id": "Ei81MDEtNTk5IFcgV2hpdG5leSBTdCwgTW9udHBlbGllciwgSU4gNDczNTksIFVTQQ",
      "types": [
        "street_address"
      ]
    },
    {
      "address_components": [
        {
          "long_name": "Montpelier",
          "short_name": "Montpelier",
          "types": [
            "locality",
            "political"
          ]
        },
        {
          "long_name": "Harrison Township",
          "short_name": "Harrison Township",
          "types": [
            "administrative_area_level_3",
            "political"
          ]
        },
        {
          "long_name": "Blackford County",
          "short_name": "Blackford County",
          "types": [
            "administrative_area_level_2",
            "political"
          ]
        },
        {
          "long_name": "Indiana",
          "short_name": "IN",
          "types": [
            "administrative_area_level_1",
            "political"
          ]
        },
        {
          "long_name": "United States",
          "short_name": "US",
          "types": [
            "country",
            "political"
          ]
        },
        {
          "long_name": "47359",
          "short_name": "47359",
          "types": [
            "postal_code"
          ]
        }
      ],
      "formatted_address": "Montpelier, IN 47359, USA",
      "geometry": {
        "bounds": {
          "northeast": {
            "lat": 40.559863,
            "lng": -85.27186390000001
          },
          "southwest": {
            "lat": 40.54179389999999,
            "lng": -85.301968
          }
        },
        "location": {
          "lat": 40.55393369999999,
          "lng": -85.277472
        },
        "location_type": "APPROXIMATE",
        "viewport": {
          "northeast": {
            "lat": 40.559863,
            "lng": -85.27186390000001
          },
          "southwest": {
            "lat": 40.54179389999999,
            "lng": -85.301968
          }
        }
      },
      "place_id": "ChIJax5-1gSgFYgRr1Pc4Yv1q20",
      "types": [
        "locality",
        "political"
      ]
    },
    {
      "address_components": [
        {
          "long_name": "Harrison Township",
          "short_name": "Harrison Township",
          "types": [
            "administrative_area_level_3",
            "political"
          ]
        },
        {
          "long_name": "Blackford County",
          "short_name": "Blackford County",
          "types": [
            "administrative_area_level_2",
            "political"
          ]
        },
        {
          "long_name": "Indiana",
          "short_name": "IN",
          "types": [
            "administrative_area_level_1",
            "political"
          ]
        },
        {
          "long_name": "United States",
          "short_name": "US",
          "types": [
            "country",
            "political"
          ]
        }
      ],
      "formatted_address": "Harrison Township, IN, USA",
      "geometry": {
        "bounds": {
          "northeast": {
            "lat": 40.567329,
            "lng": -85.200614
          },
          "southwest": {
            "lat": 40.4785331,
            "lng": -85.33367899999999
          }
        },
        "location": {
          "lat": 40.5170559,
          "lng": -85.2515482
        },
        "location_type": "APPROXIMATE",
        "viewport": {
          "northeast": {
            "lat": 40.567329,
            "lng": -85.200614
          },
          "southwest": {
            "lat": 40.4785331,
            "lng": -85.33367899999999
          }
        }
      },
      "place_id": "ChIJaVUWAkx1FYgRf8AQvVDEoMg",
      "types": [
        "administrative_area_level_3",
        "political"
      ]
    },
    {
      "address_components": [
        {
          "long_name": "47359",
          "short_name": "47359",
          "types": [
            "postal_code"
          ]
        },
        {
          "long_name": "Montpelier",
          "short_name": "Montpelier",
          "types": [
            "locality",
            "political"
          ]
        },
        {
          "long_name": "Indiana",
          "short_name": "IN",
          "types": [
            "administrative_area_level_1",
            "political"
          ]
        },
        {
          "long_name": "United States",
          "short_name": "US",
          "types": [
            "country",
            "political"
          ]
        }
      ],
      "formatted_address": "Montpelier, IN 47359, USA",
      "geometry": {
        "bounds": {
          "northeast": {
            "lat": 40.6255079,
            "lng": -85.1260839
          },
          "southwest": {
            "lat": 40.486337,
            "lng": -85.4111219
          }
        },
        "location": {
          "lat": 40.5593398,
          "lng": -85.2929384
        },
        "location_type": "APPROXIMATE",
        "viewport": {
          "northeast": {
            "lat": 40.6255079,
            "lng": -85.1260839
          },
          "southwest": {
            "lat": 40.486337,
            "lng": -85.4111219
          }
        }
      },
      "place_id": "ChIJx2ihlBagFYgRozc0XuaLZUA",
      "types": [
        "postal_code"
      ]
    },
    {
      "address_components": [
        {
          "long_name": "Blackford County",
          "short_name": "Blackford County",
          "types": [
            "administrative_area_level_2",
            "political"
          ]
        },
        {
          "long_name": "Indiana",
          "short_name": "IN",
          "types": [
            "administrative_area_level_1",
            "political"
          ]
        },
        {
          "long_name": "United States",
          "short_name": "US",
          "types": [
            "country",
            "political"
          ]
        }
      ],
      "formatted_address": "Blackford County, IN, USA",
      "geometry": {
        "bounds": {
          "northeast": {
            "lat": 40.567329,
            "lng": -85.200614
          },
          "southwest": {
            "lat": 40.378222,
            "lng": -85.447014
          }
        },
        "location": {
          "lat": 40.49927840000001,
          "lng": -85.31362179999999
        },
        "location_type": "APPROXIMATE",
        "viewport": {
          "northeast": {
            "lat": 40.567329,
            "lng": -85.200614
          },
          "southwest": {
            "lat": 40.378222,
            "lng": -85.447014
          }
        }
      },
      "place_id": "ChIJ95RQtSMLFYgRnPXwoVvKkW4",
      "types": [
        "administrative_area_level_2",
        "political"
      ]
    },
    {
      "address_components": [
        {
          "long_name": "Indiana",
          "short_name": "IN",
          "types": [
            "administrative_area_level_1",
            "political"
          ]
        },
        {
          "long_name": "United States",
          "short_name": "US",
          "types": [
            "country",
            "political"
          ]
        }
      ],
      "formatted_address": "Indiana, USA",
      "geometry": {
        "bounds": {
          "northeast": {
            "lat": 41.7606971,
            "lng": -84.784662
          },
          "southwest": {
            "lat": 37.7717419,
            "lng": -88.097892
          }
        },
        "location": {
          "lat": 40.2671941,
          "lng": -86.1349019
        },
        "location_type": "APPROXIMATE",
        "viewport": {
          "northeast": {
            "lat": 41.7606971,
            "lng": -84.784662
          },
          "southwest": {
            "lat": 37.7717419,
            "lng": -88.097892
          }
        }
      },
      "place_id": "ChIJHRv42bxQa4gRcuwyy84vEH4",
      "types": [
        "administrative_area_level_1",
        "political"
      ]
    },
    {
      "address_components": [
        {
          "long_name": "United States",
          "short_name": "US",
          "types": [
            "country",
            "political"
          ]
        }
      ],
      "formatted_address": "United States",
      "geometry": {
        "bounds": {
          "northeast": {
            "lat": 71.3867745,
            "lng": -66.9502861
          },
          "southwest": {
            "lat": 18.9106768,
            "lng": 172.4458955
          }
        },
        "location": {
          "lat": 37.09024,
          "lng": -95.712891
        },
        "location_type": "APPROXIMATE",
        "viewport": {
          "northeast": {
            "lat": 49.38,
            "lng": -66.94
          },
          "southwest": {
            "lat": 25.82,
            "lng": -124.39
          }
        }
      },
      "place_id": "ChIJCzYy5IS16lQRQrfeQ5K5Oxw",
      "types": [
        "country",
        "political"
      ]
    }
  ],
  "status": "OK"
}
