{
  "results": [
    {
      "address_components": [
        {
          "long_name": "25235-25237",
          "short_name": "25235-25237",
          "types": [
            "street_number"
          ]
        },
        {
          "long_name": "Walnut Street",
          "short_name": "MO-91",
          "types": [
            "route"
          ]
        },
        {
          "long_name": "Bell City",
          "short_name": "Bell City",
          "types": [
            "locality",
            "political"
          ]
        },
        {
          "long_name": "Pike Township",
          "short_name": "Pike Township",
          "types": [
            "administrative_area_level_3",
            "political"
          ]
        },
        {
          "long_name": "Stoddard County",
          "short_name": "Stoddard County",
          "types": [
            "administrative_area_level_2",
            "political"
          ]
        },
        {
          "long_name": "Missouri",
          "short_name": "MO",
          "types": [
            "administrative_area_level_1",
            "political"
          ]
        },
        {
          "long_name": "United States",
          "short_name": "US",
          "types": [
            "country",
            "political"
          ]
        },
        {
          "long_name": "63735",
          "short_name": "63735",
          "types": [
            "postal_code"
          ]
        }
      ],
      "formatted_address": "25235-25237 Walnut St, Bell City, MO 63735, USA",
      "geometry": {
        "bounds": {
          "northeast": {
            "lat": 37.0238117,
            "lng": -89.8192617
          },
          "southwest": {
            "lat": 37.0235266,
            "lng": -89.8198529
          }
        },
        "location": {
          "lat": 37.0236908,
          "lng": -89.8195488
        },
        "location_type": "RANGE_INTERPOLATED",
        "viewport": {
          "northeast": {
            "lat": 37.0250181302915,
            "lng": -89.8182083197085
          },
          "southwest": {
            "lat": 37.0223201697085,
            "lng": -89.82090628029151
          }
        }
      },
      "place_id": "Ei8yNTIzNS0yNTIzNyBXYWxudXQgU3QsIEJlbGwgQ2l0eSwgTU8gNjM3MzUsIFVTQQ",
      "types": [
        "street_address"
      ]
    },
    {
      "address_components": [
        {
          "long_name": "Bell City",
          "short_name": "Bell City",
          "types": [
            "locality",
            "political"
          ]
        },
        {
          "long_name": "Pike Township",
          "short_name": "Pike Township",
          "types": [
            "administrative_area_level_3",
            "political"
          ]
        },
        {
          "long_name": "Stoddard County",
          "short_name": "Stoddard County",
          "types": [
            "administrative_area_level_2",
            "political"
          ]
        },
        {
          "long_name": "Missouri",
          "short_name": "MO",
          "types": [
            "administrative_area_level_1",
            "political"
          ]
        },
        {
          "long_name": "United States",
          "short_name": "US",
          "types": [
            "country",
            "political"
          ]
        }
      ],
      "formatted_address": "Bell City, MO, USA",
      "geometry": {
        "bounds": {
          "northeast": {
            "lat": 37.0302269,
            "lng": -89.8110959
          },
          "southwest": {
            "lat": 37.0177309,
            "lng": -89.826504
          }
        },
        "location": {
          "lat": 37.02366110000001,
          "lng": -89.8198098
        },
        "location_type": "APPROXIMATE",
        "viewport": {
          "northeast": {
            "lat": 37.0302269,
            "lng": -89.8110959
          },
          "southwest": {
            "lat": 37.0177309,
            "lng": -89.826504
          }
        }
      },
      "place_id": "ChIJWyVI930ReIgRHW4X_ZZWr4o",
      "types": [
        "locality",
        "political"
      ]
    },
    {
      "address_components": [
        {
          "long_name": "63735",
          "short_name": "63735",
          "types": [
            "postal_code"
          ]
        },
        {
          "long_name": "Bell City",
          "short_name": "Bell City",
          "types": [
            "locality",
            "political"
          ]
        },
        {
          "long_name": "Missouri",
          "short_name": "MO",
          "types": [
            "administrative_area_level_1",
            "political"
          ]
        },
        {
          "long_name": "United States",
          "short_name": "US",
          "types": [
            "country",
            "political"
          ]
        }
      ],
      "formatted_address": "Bell City, MO 63735, USA",
      "geometry": {
        "bounds": {
          "northeast": {
            "lat": 37.048145,
            "lng": -89.6910121
          },
          "southwest": {
            "lat": 36.8890019,
            "lng": -89.8689929
          }
        },
        "location": {
          "lat": 36.97542079999999,
          "lng": -89.7942892
        },
        "location_type": "APPROXIMATE",
        "viewport": {
          "northeast": {
            "lat": 37.048145,
            "lng": -89.6910121
          },
          "southwest": {
            "lat": 36.8890019,
            "lng": -89.8689929
          }
        }
      },
      "place_id": "ChIJwyfvHGMTeIgREI7OMpvGRuM",
      "types": [
        "postal_code"
      ]
    },
    {
      "address_components": [
        {
          "long_name": "Pike Township",
          "short_name": "Pike Township",
          "types": [
            "administrative_area_level_3",
            "political"
          ]
        },
        {
          "long_name": "Stoddard County",
          "short_name": "Stoddard County",
          "types": [
            "administrative_area_level_2",
            "political"
          ]
        },
        {
          "long_name": "Missouri",
          "short_name": "MO",
          "types": [
            "administrative_area_level_1",
            "political"
          ]
        },
        {
          "long_name": "United States",
          "short_name": "US",
          "types": [
            "country",
            "political"
          ]
        }
      ],
      "formatted_address": "Pike Township, MO, USA",
      "geometry": {
        "bounds": {
          "northeast": {
            "lat": 37.1273699,
            "lng": -89.6889039
          },
          "southwest": {
            "lat": 36.9318511,
            "lng": -89.99588299999999
          }
        },
        "location": {
          "lat": 37.0829066,
          "lng": -89.8879304
        },
        "location_type": "APPROXIMATE",
        "viewport": {
          "northeast": {
            "lat": 37.1273699,
            "lng": -89.6889039
          },
          "southwest": {
            "lat": 36.9318511,
            "lng": -89.99588299999999
          }
        }
      },
      "place_id": "ChIJZZeN6QQSeIgRR7ja1iSpfVM",
      "types": [
        "administrative_area_level_3",
        "political"
      ]
    },
    {
      "address_components": [
        {
          "long_name": "Stoddard County",
          "short_name": "Stoddard County",
          "types": [
            "administrative_area_level_2",
            "political"
          ]
        },
        {
          "long_name": "Missouri",
          "short_name": "MO",
          "types": [
            "administrative_area_level_1",
            "political"
          ]
        },
        {
          "long_name": "United States",
          "short_name": "US",
          "types": [
            "country",
            "political"
          ]
        }
      ],
      "formatted_address": "Stoddard County, MO, USA",
      "geometry": {
        "bounds": {
          "northeast": {
            "lat": 37.1273699,
            "lng": -89.68467
          },
          "southwest": {
            "lat": 36.627375,
            "lng": -90.259918
          }
        },
        "location": {
          "lat": 36.8680558,
          "lng": -89.9253233
        },
        "location_type": "APPROXIMATE",
        "viewport": {
          "northeast": {
            "lat": 37.1273699,
            "lng": -89.68467
          },
          "southwest": {
            "lat": 36.627375,
            "lng": -90.259918
          }
        }
      },
      "place_id": "ChIJkwsEpPdzeIgRwPs8LT1k6wA",
      "types": [
        "administrative_area_level_2",
        "political"
      ]
    },
    {
      "address_components": [
        {
          "long_name": "Missouri",
          "short_name": "MO",
          "types": [
            "administrative_area_level_1",
            "political"
          ]
        },
        {
          "long_name": "United States",
          "short_name": "US",
          "types": [
            "country",
            "political"
          ]
        }
      ],
      "formatted_address": "Missouri, USA",
      "geometry": {
        "bounds": {
          "northeast": {
            "lat": 40.61364,
            "lng": -89.09949399999999
          },
          "southwest": {
            "lat": 35.9956829,
            "lng": -95.774704
          }
        },
        "location": {
          "lat": 37.9642529,
          "lng": -91.8318334
        },
        "location_type": "APPROXIMATE",
        "viewport": {
          "northeast": {
            "lat": 40.61364,
            "lng": -89.09949399999999
          },
          "southwest": {
            "lat": 35.9956829,
            "lng": -95.774704
          }
        }
      },
      "place_id": "ChIJfeMiSNXmwIcRcr1mBFnEW7U",
      "types": [
        "administrative_area_level_1",
        "political"
      ]
    },
    {
      "address_components": [
        {
          "long_name": "United States",
          "short_name": "US",
          "types": [
            "country",
            "political"
          ]
        }
      ],
      "formatted_address": "United States",
      "geometry": {
        "bounds": {
          "northeast": {
            "lat": 71.3867745,
            "lng": -66.9502861
          },
          "southwest": {
            "lat": 18.9106768,
            "lng": 172.4458955
          }
        },
        "location": {
          "lat": 37.09024,
          "lng": -95.712891
        },
        "location_type": "APPROXIMATE",
        "viewport": {
          "northeast": {
            "lat": 49.38,
            "lng": -66.94
          },
          "southwest": {
            "lat": 25.82,
            "lng": -124.39
          }
        }
      },
      "place_id": "ChIJCzYy5IS16lQRQrfeQ5K5Oxw",
      "types": [
        "country",
        "political"
      ]
    }
  ],
  "status": "OK"
}
