{
  "results": [
    {
      "address_components": [
        {
          "long_name": "239",
          "short_name": "239",
          "types": [
            "street_number"
          ]
        },
        {
          "long_name": "Williams Street",
          "short_name": "Williams St",
          "types": [
            "route"
          ]
        },
        {
          "long_name": "Plainville",
          "short_name": "Plainville",
          "types": [
            "locality",
            "political"
          ]
        },
        {
          "long_name": "Steele Township",
          "short_name": "Steele Township",
          "types": [
            "administrative_area_level_3",
            "political"
          ]
        },
        {
          "long_name": "Daviess County",
          "short_name": "Daviess County",
          "types": [
            "administrative_area_level_2",
            "political"
          ]
        },
        {
          "long_name": "Indiana",
          "short_name": "IN",
          "types": [
            "administrative_area_level_1",
            "political"
          ]
        },
        {
          "long_name": "United States",
          "short_name": "US",
          "types": [
            "country",
            "political"
          ]
        },
        {
          "long_name": "47568",
          "short_name": "47568",
          "types": [
            "postal_code"
          ]
        },
        {
          "long_name": "9605",
          "short_name": "9605",
          "types": [
            "postal_code_suffix"
          ]
        }
      ],
      "formatted_address": "239 Williams St, Plainville, IN 47568, USA",
      "geometry": {
        "location": {
          "lat": 38.804955,
          "lng": -87.15199899999999
        },
        "location_type": "ROOFTOP",
        "viewport": {
          "northeast": {
            "lat": 38.8063039802915,
            "lng": -87.15065001970848
          },
          "southwest": {
            "lat": 38.8036060197085,
            "lng": -87.1533479802915
          }
        }
      },
      "place_id": "ChIJFyoQMl3DbYgRbpOQhaOmm7c",
      "types": [
        "street_address"
      ]
    },
    {
      "address_components": [
        {
          "long_name": "Plainville",
          "short_name": "Plainville",
          "types": [
            "locality",
            "political"
          ]
        },
        {
          "long_name": "Steele Township",
          "short_name": "Steele Township",
          "types": [
            "administrative_area_level_3",
            "political"
          ]
        },
        {
          "long_name": "Daviess County",
          "short_name": "Daviess County",
          "types": [
            "administrative_area_level_2",
            "political"
          ]
        },
        {
          "long_name": "Indiana",
          "short_name": "IN",
          "types": [
            "administrative_area_level_1",
            "political"
          ]
        },
        {
          "long_name": "United States",
          "short_name": "US",
          "types": [
            "country",
            "political"
          ]
        }
      ],
      "formatted_address": "Plainville, IN, USA",
      "geometry": {
        "bounds": {
          "northeast": {
            "lat": 38.810604,
            "lng": -87.1467978
          },
          "southwest": {
            "lat": 38.796342,
            "lng": -87.158802
          }
        },
        "location": {
          "lat": 38.8061583,
          "lng": -87.15223379999999
        },
        "location_type": "APPROXIMATE",
        "viewport": {
          "northeast": {
            "lat": 38.810604,
            "lng": -87.1467978
          },
          "southwest": {
            "lat": 38.796342,
            "lng": -87.158802
          }
        }
      },
      "place_id": "ChIJebAV3ULDbYgR0Fyd7Xs6dqE",
      "types": [
        "locality",
        "political"
      ]
    },
    {
      "address_components": [
        {
          "long_name": "47568",
          "short_name": "47568",
          "types": [
            "postal_code"
          ]
        },
        {
          "long_name": "Plainville",
          "short_name": "Plainville",
          "types": [
            "locality",
            "political"
          ]
        },
        {
          "long_name": "Daviess County",
          "short_name": "Daviess County",
          "types": [
            "administrative_area_level_2",
            "political"
          ]
        },
        {
          "long_name": "Indiana",
          "short_name": "IN",
          "types": [
            "administrative_area_level_1",
            "political"
          ]
        },
        {
          "long_name": "United States",
          "short_name": "US",
          "types": [
            "country",
            "political"
          ]
        }
      ],
      "formatted_address": "Plainville, IN 47568, USA",
      "geometry": {
        "bounds": {
          "northeast": {
            "lat": 38.8387619,
            "lng": -87.02292700000001
          },
          "southwest": {
            "lat": 38.728411,
            "lng": -87.17251
          }
        },
        "location": {
          "lat": 38.7740444,
          "lng": -87.0923906
        },
        "location_type": "APPROXIMATE",
        "viewport": {
          "northeast": {
            "lat": 38.8387619,
            "lng": -87.02292700000001
          },
          "southwest": {
            "lat": 38.728411,
            "lng": -87.17251
          }
        }
      },
      "place_id": "ChIJuSMfk_fCbYgRTqaVIi-zK0U",
      "types": [
        "postal_code"
      ]
    },
    {
      "address_components": [
        {
          "long_name": "Steele Township",
          "short_name": "Steele Township",
          "types": [
            "administrative_area_level_3",
            "political"
          ]
        },
        {
          "long_name": "Daviess County",
          "short_name": "Daviess County",
          "types": [
            "administrative_area_level_2",
            "political"
          ]
        },
        {
          "long_name": "Indiana",
          "short_name": "IN",
          "types": [
            "administrative_area_level_1",
            "political"
          ]
        },
        {
          "long_name": "United States",
          "short_name": "US",
          "types": [
            "country",
            "political"
          ]
        }
      ],
      "formatted_address": "Steele Township, IN, USA",
      "geometry": {
        "bounds": {
          "northeast": {
            "lat": 38.847958,
            "lng": -87.12922979999999
          },
          "southwest": {
            "lat": 38.728775,
            "lng": -87.25783100000001
          }
        },
        "location": {
          "lat": 38.7662546,
          "lng": -87.20209899999999
        },
        "location_type": "APPROXIMATE",
        "viewport": {
          "northeast": {
            "lat": 38.847958,
            "lng": -87.12922979999999
          },
          "southwest": {
            "lat": 38.728775,
            "lng": -87.25783100000001
          }
        }
      },
      "place_id": "ChIJLTqqwc3CbYgRdf9_kq0d1Zk",
      "types": [
        "administrative_area_level_3",
        "political"
      ]
    },
    {
      "address_components": [
        {
          "long_name": "Washington",
          "short_name": "Washington",
          "types": [
            "political"
          ]
        },
        {
          "long_name": "Indiana",
          "short_name": "IN",
          "types": [
            "administrative_area_level_1",
            "political"
          ]
        },
        {
          "long_name": "United States",
          "short_name": "US",
          "types": [
            "country",
            "political"
          ]
        }
      ],
      "formatted_address": "Washington, IN, USA",
      "geometry": {
        "bounds": {
          "northeast": {
            "lat": 38.9042091,
            "lng": -86.90410899999999
          },
          "southwest": {
            "lat": 38.4904531,
            "lng": -87.279415
          }
        },
        "location": {
          "lat": 38.7020241,
          "lng": -87.14228949999999
        },
        "location_type": "APPROXIMATE",
        "viewport": {
          "northeast": {
            "lat": 38.9042091,
            "lng": -86.90410899999999
          },
          "southwest": {
            "lat": 38.4904531,
            "lng": -87.279415
          }
        }
      },
      "place_id": "ChIJkX8C0gLabYgRqfMYrJIpczQ",
      "types": [
        "political"
      ]
    },
    {
      "address_components": [
        {
          "long_name": "Daviess County",
          "short_name": "Daviess County",
          "types": [
            "administrative_area_level_2",
            "political"
          ]
        },
        {
          "long_name": "Indiana",
          "short_name": "IN",
          "types": [
            "administrative_area_level_1",
            "political"
          ]
        },
        {
          "long_name": "United States",
          "short_name": "US",
          "types": [
            "country",
            "political"
          ]
        }
      ],
      "formatted_address": "Daviess County, IN, USA",
      "geometry": {
        "bounds": {
          "northeast": {
            "lat": 38.904196,
            "lng": -86.90412289999999
          },
          "southwest": {
            "lat": 38.49037,
            "lng": -87.279415
          }
        },
        "location": {
          "lat": 38.7020241,
          "lng": -87.14228949999999
        },
        "location_type": "APPROXIMATE",
        "viewport": {
          "northeast": {
            "lat": 38.904196,
            "lng": -86.90412289999999
          },
          "southwest": {
            "lat": 38.49037,
            "lng": -87.279415
          }
        }
      },
      "place_id": "ChIJE_9QATrabYgRL8NN1vVVlj8",
      "types": [
        "administrative_area_level_2",
        "political"
      ]
    },
    {
      "address_components": [
        {
          "long_name": "Indiana",
          "short_name": "IN",
          "types": [
            "administrative_area_level_1",
            "political"
          ]
        },
        {
          "long_name": "United States",
          "short_name": "US",
          "types": [
            "country",
            "political"
          ]
        }
      ],
      "formatted_address": "Indiana, USA",
      "geometry": {
        "bounds": {
          "northeast": {
            "lat": 41.7606971,
            "lng": -84.784662
          },
          "southwest": {
            "lat": 37.7717419,
            "lng": -88.097892
          }
        },
        "location": {
          "lat": 40.2671941,
          "lng": -86.1349019
        },
        "location_type": "APPROXIMATE",
        "viewport": {
          "northeast": {
            "lat": 41.7606971,
            "lng": -84.784662
          },
          "southwest": {
            "lat": 37.7717419,
            "lng": -88.097892
          }
        }
      },
      "place_id": "ChIJHRv42bxQa4gRcuwyy84vEH4",
      "types": [
        "administrative_area_level_1",
        "political"
      ]
    },
    {
      "address_components": [
        {
          "long_name": "United States",
          "short_name": "US",
          "types": [
            "country",
            "political"
          ]
        }
      ],
      "formatted_address": "United States",
      "geometry": {
        "bounds": {
          "northeast": {
            "lat": 71.3867745,
            "lng": -66.9502861
          },
          "southwest": {
            "lat": 18.9106768,
            "lng": 172.4458955
          }
        },
        "location": {
          "lat": 37.09024,
          "lng": -95.712891
        },
        "location_type": "APPROXIMATE",
        "viewport": {
          "northeast": {
            "lat": 49.38,
            "lng": -66.94
          },
          "southwest": {
            "lat": 25.82,
            "lng": -124.39
          }
        }
      },
      "place_id": "ChIJCzYy5IS16lQRQrfeQ5K5Oxw",
      "types": [
        "country",
        "political"
      ]
    }
  ],
  "status": "OK"
}
