{
  "results": [
    {
      "address_components": [
        {
          "long_name": "422-426",
          "short_name": "422-426",
          "types": [
            "street_number"
          ]
        },
        {
          "long_name": "Howard Avenue",
          "short_name": "Howard Ave",
          "types": [
            "route"
          ]
        },
        {
          "long_name": "Holland",
          "short_name": "Holland",
          "types": [
            "locality",
            "political"
          ]
        },
        {
          "long_name": "Holland Charter Township",
          "short_name": "Holland Charter Township",
          "types": [
            "administrative_area_level_3",
            "political"
          ]
        },
        {
          "long_name": "Ottawa County",
          "short_name": "Ottawa County",
          "types": [
            "administrative_area_level_2",
            "political"
          ]
        },
        {
          "long_name": "Michigan",
          "short_name": "MI",
          "types": [
            "administrative_area_level_1",
            "political"
          ]
        },
        {
          "long_name": "United States",
          "short_name": "US",
          "types": [
            "country",
            "political"
          ]
        },
        {
          "long_name": "49424",
          "short_name": "49424",
          "types": [
            "postal_code"
          ]
        },
        {
          "long_name": "6550",
          "short_name": "6550",
          "types": [
            "postal_code_suffix"
          ]
        }
      ],
      "formatted_address": "422-426 Howard Ave, Holland, MI 49424, USA",
      "geometry": {
        "bounds": {
          "northeast": {
            "lat": 42.7963194,
            "lng": -86.12706260000002
          },
          "southwest": {
            "lat": 42.7961879,
            "lng": -86.127555
          }
        },
        "location": {
          "lat": 42.7962056,
          "lng": -86.127434
        },
        "location_type": "RANGE_INTERPOLATED",
        "viewport": {
          "northeast": {
            "lat": 42.7976026302915,
            "lng": -86.12595981970851
          },
          "southwest": {
            "lat": 42.7949046697085,
            "lng": -86.12865778029152
          }
        }
      },
      "place_id": "Eio0MjItNDI2IEhvd2FyZCBBdmUsIEhvbGxhbmQsIE1JIDQ5NDI0LCBVU0E",
      "types": [
        "street_address"
      ]
    },
    {
      "address_components": [
        {
          "long_name": "Beechwood",
          "short_name": "Beechwood",
          "types": [
            "locality",
            "political"
          ]
        },
        {
          "long_name": "Ottawa County",
          "short_name": "Ottawa County",
          "types": [
            "administrative_area_level_2",
            "political"
          ]
        },
        {
          "long_name": "Michigan",
          "short_name": "MI",
          "types": [
            "administrative_area_level_1",
            "political"
          ]
        },
        {
          "long_name": "United States",
          "short_name": "US",
          "types": [
            "country",
            "political"
          ]
        }
      ],
      "formatted_address": "Beechwood, MI, USA",
      "geometry": {
        "bounds": {
          "northeast": {
            "lat": 42.812163,
            "lng": -86.0905751
          },
          "southwest": {
            "lat": 42.77922299999999,
            "lng": -86.1686708
          }
        },
        "location": {
          "lat": 42.7969675,
          "lng": -86.1258752
        },
        "location_type": "APPROXIMATE",
        "viewport": {
          "northeast": {
            "lat": 42.812163,
            "lng": -86.0905751
          },
          "southwest": {
            "lat": 42.7851222,
            "lng": -86.14642409999999
          }
        }
      },
      "place_id": "ChIJs_th6dLyGYgREMUYGfdrulU",
      "types": [
        "locality",
        "political"
      ]
    },
    {
      "address_components": [
        {
          "long_name": "Holland Charter Township",
          "short_name": "Holland Charter Township",
          "types": [
            "administrative_area_level_3",
            "political"
          ]
        },
        {
          "long_name": "Ottawa County",
          "short_name": "Ottawa County",
          "types": [
            "administrative_area_level_2",
            "political"
          ]
        },
        {
          "long_name": "Michigan",
          "short_name": "MI",
          "types": [
            "administrative_area_level_1",
            "political"
          ]
        },
        {
          "long_name": "United States",
          "short_name": "US",
          "types": [
            "country",
            "political"
          ]
        }
      ],
      "formatted_address": "Holland Charter Township, MI, USA",
      "geometry": {
        "bounds": {
          "northeast": {
            "lat": 42.8562358,
            "lng": -86.018138
          },
          "southwest": {
            "lat": 42.768813,
            "lng": -86.1381519
          }
        },
        "location": {
          "lat": 42.8128096,
          "lng": -86.08838949999999
        },
        "location_type": "APPROXIMATE",
        "viewport": {
          "northeast": {
            "lat": 42.8562358,
            "lng": -86.018138
          },
          "southwest": {
            "lat": 42.768813,
            "lng": -86.1381519
          }
        }
      },
      "place_id": "ChIJZSOZo76SGYgRdwEdfqmawwo",
      "types": [
        "administrative_area_level_3",
        "political"
      ]
    },
    {
      "address_components": [
        {
          "long_name": "49424",
          "short_name": "49424",
          "types": [
            "postal_code"
          ]
        },
        {
          "long_name": "Holland",
          "short_name": "Holland",
          "types": [
            "locality",
            "political"
          ]
        },
        {
          "long_name": "Michigan",
          "short_name": "MI",
          "types": [
            "administrative_area_level_1",
            "political"
          ]
        },
        {
          "long_name": "United States",
          "short_name": "US",
          "types": [
            "country",
            "political"
          ]
        }
      ],
      "formatted_address": "Holland, MI 49424, USA",
      "geometry": {
        "bounds": {
          "northeast": {
            "lat": 42.9360711,
            "lng": -86.01828809999999
          },
          "southwest": {
            "lat": 42.7674418,
            "lng": -86.229204
          }
        },
        "location": {
          "lat": 42.8564729,
          "lng": -86.1141045
        },
        "location_type": "APPROXIMATE",
        "viewport": {
          "northeast": {
            "lat": 42.9360711,
            "lng": -86.01828809999999
          },
          "southwest": {
            "lat": 42.7674418,
            "lng": -86.229204
          }
        }
      },
      "place_id": "ChIJrb5itLqNGYgRyYhuOwLcDQQ",
      "types": [
        "postal_code"
      ]
    },
    {
      "address_components": [
        {
          "long_name": "Ottawa County",
          "short_name": "Ottawa County",
          "types": [
            "administrative_area_level_2",
            "political"
          ]
        },
        {
          "long_name": "Michigan",
          "short_name": "MI",
          "types": [
            "administrative_area_level_1",
            "political"
          ]
        },
        {
          "long_name": "United States",
          "short_name": "US",
          "types": [
            "country",
            "political"
          ]
        }
      ],
      "formatted_address": "Ottawa County, MI, USA",
      "geometry": {
        "bounds": {
          "northeast": {
            "lat": 43.2059778,
            "lng": -85.782067
          },
          "southwest": {
            "lat": 42.7674979,
            "lng": -86.27186309999999
          }
        },
        "location": {
          "lat": 42.95302299999999,
          "lng": -86.0937312
        },
        "location_type": "APPROXIMATE",
        "viewport": {
          "northeast": {
            "lat": 43.2059778,
            "lng": -85.782067
          },
          "southwest": {
            "lat": 42.7674979,
            "lng": -86.27186309999999
          }
        }
      },
      "place_id": "ChIJ7X2iC_iIGYgRBPwpw5yTx1c",
      "types": [
        "administrative_area_level_2",
        "political"
      ]
    },
    {
      "address_components": [
        {
          "long_name": "Michigan",
          "short_name": "MI",
          "types": [
            "administrative_area_level_1",
            "political"
          ]
        },
        {
          "long_name": "United States",
          "short_name": "US",
          "types": [
            "country",
            "political"
          ]
        }
      ],
      "formatted_address": "Michigan, USA",
      "geometry": {
        "bounds": {
          "northeast": {
            "lat": 48.1986461,
            "lng": -82.413474
          },
          "southwest": {
            "lat": 41.696118,
            "lng": -90.4181358
          }
        },
        "location": {
          "lat": 44.3148443,
          "lng": -85.60236429999999
        },
        "location_type": "APPROXIMATE",
        "viewport": {
          "northeast": {
            "lat": 48.198602,
            "lng": -82.413474
          },
          "southwest": {
            "lat": 41.696118,
            "lng": -90.4181358
          }
        }
      },
      "place_id": "ChIJEQTKxz2qTE0Rs8liellI3Zc",
      "types": [
        "administrative_area_level_1",
        "political"
      ]
    },
    {
      "address_components": [
        {
          "long_name": "United States",
          "short_name": "US",
          "types": [
            "country",
            "political"
          ]
        }
      ],
      "formatted_address": "United States",
      "geometry": {
        "bounds": {
          "northeast": {
            "lat": 71.3867745,
            "lng": -66.9502861
          },
          "southwest": {
            "lat": 18.9106768,
            "lng": 172.4458955
          }
        },
        "location": {
          "lat": 37.09024,
          "lng": -95.712891
        },
        "location_type": "APPROXIMATE",
        "viewport": {
          "northeast": {
            "lat": 49.38,
            "lng": -66.94
          },
          "southwest": {
            "lat": 25.82,
            "lng": -124.39
          }
        }
      },
      "place_id": "ChIJCzYy5IS16lQRQrfeQ5K5Oxw",
      "types": [
        "country",
        "political"
      ]
    }
  ],
  "status": "OK"
}
