{
  "results": [
    {
      "address_components": [
        {
          "long_name": "109",
          "short_name": "109",
          "types": [
            "street_number"
          ]
        },
        {
          "long_name": "Denbeigh Avenue",
          "short_name": "Denbeigh Ave",
          "types": [
            "route"
          ]
        },
        {
          "long_name": "Oriskany",
          "short_name": "Oriskany",
          "types": [
            "locality",
            "political"
          ]
        },
        {
          "long_name": "Whitestown",
          "short_name": "Whitestown",
          "types": [
            "administrative_area_level_3",
            "political"
          ]
        },
        {
          "long_name": "Oneida County",
          "short_name": "Oneida County",
          "types": [
            "administrative_area_level_2",
            "political"
          ]
        },
        {
          "long_name": "New York",
          "short_name": "NY",
          "types": [
            "administrative_area_level_1",
            "political"
          ]
        },
        {
          "long_name": "United States",
          "short_name": "US",
          "types": [
            "country",
            "political"
          ]
        },
        {
          "long_name": "13424",
          "short_name": "13424",
          "types": [
            "postal_code"
          ]
        }
      ],
      "formatted_address": "109 Denbeigh Ave, Oriskany, NY 13424, USA",
      "geometry": {
        "location": {
          "lat": 43.156675,
          "lng": -75.333443
        },
        "location_type": "ROOFTOP",
        "viewport": {
          "northeast": {
            "lat": 43.1580239802915,
            "lng": -75.3320940197085
          },
          "southwest": {
            "lat": 43.1553260197085,
            "lng": -75.33479198029151
          }
        }
      },
      "place_id": "ChIJT1tCPPs_2YkRpSxtqbNcK3I",
      "types": [
        "street_address"
      ]
    },
    {
      "address_components": [
        {
          "long_name": "Oriskany",
          "short_name": "Oriskany",
          "types": [
            "locality",
            "political"
          ]
        },
        {
          "long_name": "Whitestown",
          "short_name": "Whitestown",
          "types": [
            "administrative_area_level_3",
            "political"
          ]
        },
        {
          "long_name": "Oneida County",
          "short_name": "Oneida County",
          "types": [
            "administrative_area_level_2",
            "political"
          ]
        },
        {
          "long_name": "New York",
          "short_name": "NY",
          "types": [
            "administrative_area_level_1",
            "political"
          ]
        },
        {
          "long_name": "United States",
          "short_name": "US",
          "types": [
            "country",
            "political"
          ]
        },
        {
          "long_name": "13424",
          "short_name": "13424",
          "types": [
            "postal_code"
          ]
        }
      ],
      "formatted_address": "Oriskany, NY 13424, USA",
      "geometry": {
        "bounds": {
          "northeast": {
            "lat": 43.1675849,
            "lng": -75.32065
          },
          "southwest": {
            "lat": 43.14768309999999,
            "lng": -75.346688
          }
        },
        "location": {
          "lat": 43.1572918,
          "lng": -75.3326692
        },
        "location_type": "APPROXIMATE",
        "viewport": {
          "northeast": {
            "lat": 43.1675849,
            "lng": -75.32065
          },
          "southwest": {
            "lat": 43.14768309999999,
            "lng": -75.346688
          }
        }
      },
      "place_id": "ChIJ_zd_HPs_2YkRjiOHTmXzosg",
      "types": [
        "locality",
        "political"
      ]
    },
    {
      "address_components": [
        {
          "long_name": "13424",
          "short_name": "13424",
          "types": [
            "postal_code"
          ]
        },
        {
          "long_name": "Oriskany",
          "short_name": "Oriskany",
          "types": [
            "locality",
            "political"
          ]
        },
        {
          "long_name": "Oneida County",
          "short_name": "Oneida County",
          "types": [
            "administrative_area_level_2",
            "political"
          ]
        },
        {
          "long_name": "New York",
          "short_name": "NY",
          "types": [
            "administrative_area_level_1",
            "political"
          ]
        },
        {
          "long_name": "United States",
          "short_name": "US",
          "types": [
            "country",
            "political"
          ]
        }
      ],
      "formatted_address": "Oriskany, NY 13424, USA",
      "geometry": {
        "bounds": {
          "northeast": {
            "lat": 43.178764,
            "lng": -75.31185909999999
          },
          "southwest": {
            "lat": 43.1227279,
            "lng": -75.4079069
          }
        },
        "location": {
          "lat": 43.1601811,
          "lng": -75.35287790000001
        },
        "location_type": "APPROXIMATE",
        "viewport": {
          "northeast": {
            "lat": 43.178764,
            "lng": -75.31185909999999
          },
          "southwest": {
            "lat": 43.1227279,
            "lng": -75.4079069
          }
        }
      },
      "place_id": "ChIJjUj2STUV2YkRzI0UFQykQVI",
      "types": [
        "postal_code"
      ]
    },
    {
      "address_components": [
        {
          "long_name": "Whitestown",
          "short_name": "Whitestown",
          "types": [
            "administrative_area_level_3",
            "political"
          ]
        },
        {
          "long_name": "Oneida County",
          "short_name": "Oneida County",
          "types": [
            "administrative_area_level_2",
            "political"
          ]
        },
        {
          "long_name": "New York",
          "short_name": "NY",
          "types": [
            "administrative_area_level_1",
            "political"
          ]
        },
        {
          "long_name": "United States",
          "short_name": "US",
          "types": [
            "country",
            "political"
          ]
        }
      ],
      "formatted_address": "Whitestown, NY, USA",
      "geometry": {
        "bounds": {
          "northeast": {
            "lat": 43.178764,
            "lng": -75.2540109
          },
          "southwest": {
            "lat": 43.093293,
            "lng": -75.4218169
          }
        },
        "location": {
          "lat": 43.1381536,
          "lng": -75.329557
        },
        "location_type": "APPROXIMATE",
        "viewport": {
          "northeast": {
            "lat": 43.178764,
            "lng": -75.2540109
          },
          "southwest": {
            "lat": 43.093293,
            "lng": -75.4218169
          }
        }
      },
      "place_id": "ChIJbyykThxA2YkRPDufUOOeCDA",
      "types": [
        "administrative_area_level_3",
        "political"
      ]
    },
    {
      "address_components": [
        {
          "long_name": "Oneida County",
          "short_name": "Oneida County",
          "types": [
            "administrative_area_level_2",
            "political"
          ]
        },
        {
          "long_name": "New York",
          "short_name": "NY",
          "types": [
            "administrative_area_level_1",
            "political"
          ]
        },
        {
          "long_name": "United States",
          "short_name": "US",
          "types": [
            "country",
            "political"
          ]
        }
      ],
      "formatted_address": "Oneida County, NY, USA",
      "geometry": {
        "bounds": {
          "northeast": {
            "lat": 43.6152291,
            "lng": -75.06916509999999
          },
          "southwest": {
            "lat": 42.8633191,
            "lng": -75.8867559
          }
        },
        "location": {
          "lat": 43.2371798,
          "lng": -75.4344727
        },
        "location_type": "APPROXIMATE",
        "viewport": {
          "northeast": {
            "lat": 43.6152291,
            "lng": -75.06916509999999
          },
          "southwest": {
            "lat": 42.8633191,
            "lng": -75.8867559
          }
        }
      },
      "place_id": "ChIJJWR0Ie4T2YkRdzyeZzkM84g",
      "types": [
        "administrative_area_level_2",
        "political"
      ]
    },
    {
      "address_components": [
        {
          "long_name": "New York",
          "short_name": "NY",
          "types": [
            "administrative_area_level_1",
            "political"
          ]
        },
        {
          "long_name": "United States",
          "short_name": "US",
          "types": [
            "country",
            "political"
          ]
        }
      ],
      "formatted_address": "New York, USA",
      "geometry": {
        "bounds": {
          "northeast": {
            "lat": 45.015865,
            "lng": -71.85620639999999
          },
          "southwest": {
            "lat": 40.496091,
            "lng": -79.76214379999999
          }
        },
        "location": {
          "lat": 43.2994285,
          "lng": -74.21793260000001
        },
        "location_type": "APPROXIMATE",
        "viewport": {
          "northeast": {
            "lat": 45.015859,
            "lng": -71.85620639999999
          },
          "southwest": {
            "lat": 40.496091,
            "lng": -79.76214379999999
          }
        }
      },
      "place_id": "ChIJqaUj8fBLzEwRZ5UY3sHGz90",
      "types": [
        "administrative_area_level_1",
        "political"
      ]
    },
    {
      "address_components": [
        {
          "long_name": "United States",
          "short_name": "US",
          "types": [
            "country",
            "political"
          ]
        }
      ],
      "formatted_address": "United States",
      "geometry": {
        "bounds": {
          "northeast": {
            "lat": 71.3867745,
            "lng": -66.9502861
          },
          "southwest": {
            "lat": 18.9106768,
            "lng": 172.4458955
          }
        },
        "location": {
          "lat": 37.09024,
          "lng": -95.712891
        },
        "location_type": "APPROXIMATE",
        "viewport": {
          "northeast": {
            "lat": 49.38,
            "lng": -66.94
          },
          "southwest": {
            "lat": 25.82,
            "lng": -124.39
          }
        }
      },
      "place_id": "ChIJCzYy5IS16lQRQrfeQ5K5Oxw",
      "types": [
        "country",
        "political"
      ]
    }
  ],
  "status": "OK"
}
