{
  "results": [
    {
      "address_components": [
        {
          "long_name": "312-382",
          "short_name": "312-382",
          "types": [
            "street_number"
          ]
        },
        {
          "long_name": "Main Street",
          "short_name": "Main St",
          "types": [
            "route"
          ]
        },
        {
          "long_name": "Funk",
          "short_name": "Funk",
          "types": [
            "locality",
            "political"
          ]
        },
        {
          "long_name": "Divide",
          "short_name": "Divide",
          "types": [
            "administrative_area_level_3",
            "political"
          ]
        },
        {
          "long_name": "Phelps County",
          "short_name": "Phelps County",
          "types": [
            "administrative_area_level_2",
            "political"
          ]
        },
        {
          "long_name": "Nebraska",
          "short_name": "NE",
          "types": [
            "administrative_area_level_1",
            "political"
          ]
        },
        {
          "long_name": "United States",
          "short_name": "US",
          "types": [
            "country",
            "political"
          ]
        },
        {
          "long_name": "68940",
          "short_name": "68940",
          "types": [
            "postal_code"
          ]
        },
        {
          "long_name": "9705",
          "short_name": "9705",
          "types": [
            "postal_code_suffix"
          ]
        }
      ],
      "formatted_address": "312-382 Main St, Funk, NE 68940, USA",
      "geometry": {
        "bounds": {
          "northeast": {
            "lat": 40.4639022,
            "lng": -99.25046569999999
          },
          "southwest": {
            "lat": 40.462739,
            "lng": -99.2504688
          }
        },
        "location": {
          "lat": 40.4630515,
          "lng": -99.2504853
        },
        "location_type": "RANGE_INTERPOLATED",
        "viewport": {
          "northeast": {
            "lat": 40.4646695802915,
            "lng": -99.24911826970849
          },
          "southwest": {
            "lat": 40.4619716197085,
            "lng": -99.2518162302915
          }
        }
      },
      "place_id": "EiQzMTItMzgyIE1haW4gU3QsIEZ1bmssIE5FIDY4OTQwLCBVU0E",
      "types": [
        "street_address"
      ]
    },
    {
      "address_components": [
        {
          "long_name": "Funk",
          "short_name": "Funk",
          "types": [
            "locality",
            "political"
          ]
        },
        {
          "long_name": "Divide",
          "short_name": "Divide",
          "types": [
            "administrative_area_level_3",
            "political"
          ]
        },
        {
          "long_name": "Phelps County",
          "short_name": "Phelps County",
          "types": [
            "administrative_area_level_2",
            "political"
          ]
        },
        {
          "long_name": "Nebraska",
          "short_name": "NE",
          "types": [
            "administrative_area_level_1",
            "political"
          ]
        },
        {
          "long_name": "United States",
          "short_name": "US",
          "types": [
            "country",
            "political"
          ]
        },
        {
          "long_name": "68940",
          "short_name": "68940",
          "types": [
            "postal_code"
          ]
        }
      ],
      "formatted_address": "Funk, NE 68940, USA",
      "geometry": {
        "bounds": {
          "northeast": {
            "lat": 40.4669419,
            "lng": -99.2460639
          },
          "southwest": {
            "lat": 40.459147,
            "lng": -99.255634
          }
        },
        "location": {
          "lat": 40.4625119,
          "lng": -99.24926099999999
        },
        "location_type": "APPROXIMATE",
        "viewport": {
          "northeast": {
            "lat": 40.4669419,
            "lng": -99.2460639
          },
          "southwest": {
            "lat": 40.459147,
            "lng": -99.255634
          }
        }
      },
      "place_id": "ChIJWRt-irPNnocRj_qbF8KWvCY",
      "types": [
        "locality",
        "political"
      ]
    },
    {
      "address_components": [
        {
          "long_name": "Divide",
          "short_name": "Divide",
          "types": [
            "administrative_area_level_3",
            "political"
          ]
        },
        {
          "long_name": "Phelps County",
          "short_name": "Phelps County",
          "types": [
            "administrative_area_level_2",
            "political"
          ]
        },
        {
          "long_name": "Nebraska",
          "short_name": "NE",
          "types": [
            "administrative_area_level_1",
            "political"
          ]
        },
        {
          "long_name": "United States",
          "short_name": "US",
          "types": [
            "country",
            "political"
          ]
        }
      ],
      "formatted_address": "Divide, NE, USA",
      "geometry": {
        "bounds": {
          "northeast": {
            "lat": 40.5253519,
            "lng": -99.179418
          },
          "southwest": {
            "lat": 40.4375329,
            "lng": -99.30397289999999
          }
        },
        "location": {
          "lat": 40.4864229,
          "lng": -99.2563859
        },
        "location_type": "APPROXIMATE",
        "viewport": {
          "northeast": {
            "lat": 40.5253519,
            "lng": -99.179418
          },
          "southwest": {
            "lat": 40.4375329,
            "lng": -99.30397289999999
          }
        }
      },
      "place_id": "ChIJkcU8k5jTnocRNGGQ1bhKrgM",
      "types": [
        "administrative_area_level_3",
        "political"
      ]
    },
    {
      "address_components": [
        {
          "long_name": "68940",
          "short_name": "68940",
          "types": [
            "postal_code"
          ]
        },
        {
          "long_name": "Funk",
          "short_name": "Funk",
          "types": [
            "locality",
            "political"
          ]
        },
        {
          "long_name": "Nebraska",
          "short_name": "NE",
          "types": [
            "administrative_area_level_1",
            "political"
          ]
        },
        {
          "long_name": "United States",
          "short_name": "US",
          "types": [
            "country",
            "political"
          ]
        }
      ],
      "formatted_address": "Funk, NE 68940, USA",
      "geometry": {
        "bounds": {
          "northeast": {
            "lat": 40.643153,
            "lng": -99.179344
          },
          "southwest": {
            "lat": 40.43754200000001,
            "lng": -99.32314009999999
          }
        },
        "location": {
          "lat": 40.5267868,
          "lng": -99.2563859
        },
        "location_type": "APPROXIMATE",
        "viewport": {
          "northeast": {
            "lat": 40.643153,
            "lng": -99.179344
          },
          "southwest": {
            "lat": 40.43754200000001,
            "lng": -99.32314009999999
          }
        }
      },
      "place_id": "ChIJi0QwcmDJnocRgaNSFzJqYCw",
      "types": [
        "postal_code"
      ]
    },
    {
      "address_components": [
        {
          "long_name": "Phelps County",
          "short_name": "Phelps County",
          "types": [
            "administrative_area_level_2",
            "political"
          ]
        },
        {
          "long_name": "Nebraska",
          "short_name": "NE",
          "types": [
            "administrative_area_level_1",
            "political"
          ]
        },
        {
          "long_name": "United States",
          "short_name": "US",
          "types": [
            "country",
            "political"
          ]
        }
      ],
      "formatted_address": "Phelps County, NE, USA",
      "geometry": {
        "bounds": {
          "northeast": {
            "lat": 40.686105,
            "lng": -99.17922689999999
          },
          "southwest": {
            "lat": 40.350535,
            "lng": -99.64441579999999
          }
        },
        "location": {
          "lat": 40.4903536,
          "lng": -99.456155
        },
        "location_type": "APPROXIMATE",
        "viewport": {
          "northeast": {
            "lat": 40.686105,
            "lng": -99.17922689999999
          },
          "southwest": {
            "lat": 40.350535,
            "lng": -99.64441579999999
          }
        }
      },
      "place_id": "ChIJTRldU5vDnocRAHJzDF5TG8k",
      "types": [
        "administrative_area_level_2",
        "political"
      ]
    },
    {
      "address_components": [
        {
          "long_name": "Nebraska",
          "short_name": "NE",
          "types": [
            "administrative_area_level_1",
            "political"
          ]
        },
        {
          "long_name": "United States",
          "short_name": "US",
          "types": [
            "country",
            "political"
          ]
        }
      ],
      "formatted_address": "Nebraska, USA",
      "geometry": {
        "bounds": {
          "northeast": {
            "lat": 43.00170689999999,
            "lng": -95.30829000000001
          },
          "southwest": {
            "lat": 39.999932,
            "lng": -104.053514
          }
        },
        "location": {
          "lat": 41.4925374,
          "lng": -99.9018131
        },
        "location_type": "APPROXIMATE",
        "viewport": {
          "northeast": {
            "lat": 43.00170689999999,
            "lng": -95.30829000000001
          },
          "southwest": {
            "lat": 39.999932,
            "lng": -104.053514
          }
        }
      },
      "place_id": "ChIJ7fwMtciNk4cRxArzDwyQJ6E",
      "types": [
        "administrative_area_level_1",
        "political"
      ]
    },
    {
      "address_components": [
        {
          "long_name": "United States",
          "short_name": "US",
          "types": [
            "country",
            "political"
          ]
        }
      ],
      "formatted_address": "United States",
      "geometry": {
        "bounds": {
          "northeast": {
            "lat": 71.3867745,
            "lng": -66.9502861
          },
          "southwest": {
            "lat": 18.9106768,
            "lng": 172.4458955
          }
        },
        "location": {
          "lat": 37.09024,
          "lng": -95.712891
        },
        "location_type": "APPROXIMATE",
        "viewport": {
          "northeast": {
            "lat": 49.38,
            "lng": -66.94
          },
          "southwest": {
            "lat": 25.82,
            "lng": -124.39
          }
        }
      },
      "place_id": "ChIJCzYy5IS16lQRQrfeQ5K5Oxw",
      "types": [
        "country",
        "political"
      ]
    }
  ],
  "status": "OK"
}
