{
  "results": [
    {
      "address_components": [
        {
          "long_name": "210",
          "short_name": "210",
          "types": [
            "street_number"
          ]
        },
        {
          "long_name": "High Street",
          "short_name": "High St",
          "types": [
            "route"
          ]
        },
        {
          "long_name": "Fort Recovery",
          "short_name": "Fort Recovery",
          "types": [
            "locality",
            "political"
          ]
        },
        {
          "long_name": "Gibson Township",
          "short_name": "Gibson Township",
          "types": [
            "administrative_area_level_3",
            "political"
          ]
        },
        {
          "long_name": "Mercer County",
          "short_name": "Mercer County",
          "types": [
            "administrative_area_level_2",
            "political"
          ]
        },
        {
          "long_name": "Ohio",
          "short_name": "OH",
          "types": [
            "administrative_area_level_1",
            "political"
          ]
        },
        {
          "long_name": "United States",
          "short_name": "US",
          "types": [
            "country",
            "political"
          ]
        },
        {
          "long_name": "45846",
          "short_name": "45846",
          "types": [
            "postal_code"
          ]
        }
      ],
      "formatted_address": "210 High St, Fort Recovery, OH 45846, USA",
      "geometry": {
        "location": {
          "lat": 40.410687,
          "lng": -84.775876
        },
        "location_type": "ROOFTOP",
        "viewport": {
          "northeast": {
            "lat": 40.4120359802915,
            "lng": -84.77452701970849
          },
          "southwest": {
            "lat": 40.4093380197085,
            "lng": -84.7772249802915
          }
        }
      },
      "place_id": "ChIJJxXLKd_RP4gR4cdTKGlmPxs",
      "types": [
        "street_address"
      ]
    },
    {
      "address_components": [
        {
          "long_name": "Fort Recovery",
          "short_name": "Fort Recovery",
          "types": [
            "locality",
            "political"
          ]
        },
        {
          "long_name": "Mercer County",
          "short_name": "Mercer County",
          "types": [
            "administrative_area_level_2",
            "political"
          ]
        },
        {
          "long_name": "Ohio",
          "short_name": "OH",
          "types": [
            "administrative_area_level_1",
            "political"
          ]
        },
        {
          "long_name": "United States",
          "short_name": "US",
          "types": [
            "country",
            "political"
          ]
        },
        {
          "long_name": "45846",
          "short_name": "45846",
          "types": [
            "postal_code"
          ]
        }
      ],
      "formatted_address": "Fort Recovery, OH 45846, USA",
      "geometry": {
        "bounds": {
          "northeast": {
            "lat": 40.421437,
            "lng": -84.76503009999999
          },
          "southwest": {
            "lat": 40.40069,
            "lng": -84.79401279999999
          }
        },
        "location": {
          "lat": 40.4128241,
          "lng": -84.7763511
        },
        "location_type": "APPROXIMATE",
        "viewport": {
          "northeast": {
            "lat": 40.421437,
            "lng": -84.76503009999999
          },
          "southwest": {
            "lat": 40.40069,
            "lng": -84.79401279999999
          }
        }
      },
      "place_id": "ChIJ6wYP5ifOP4gReLvgGbM3hL8",
      "types": [
        "locality",
        "political"
      ]
    },
    {
      "address_components": [
        {
          "long_name": "Gibson Township",
          "short_name": "Gibson Township",
          "types": [
            "administrative_area_level_3",
            "political"
          ]
        },
        {
          "long_name": "Mercer County",
          "short_name": "Mercer County",
          "types": [
            "administrative_area_level_2",
            "political"
          ]
        },
        {
          "long_name": "Ohio",
          "short_name": "OH",
          "types": [
            "administrative_area_level_1",
            "political"
          ]
        },
        {
          "long_name": "United States",
          "short_name": "US",
          "types": [
            "country",
            "political"
          ]
        }
      ],
      "formatted_address": "Gibson Township, OH, USA",
      "geometry": {
        "bounds": {
          "northeast": {
            "lat": 40.414394,
            "lng": -84.6906609
          },
          "southwest": {
            "lat": 40.3519719,
            "lng": -84.8042229
          }
        },
        "location": {
          "lat": 40.3735663,
          "lng": -84.75244819999999
        },
        "location_type": "APPROXIMATE",
        "viewport": {
          "northeast": {
            "lat": 40.414394,
            "lng": -84.6906609
          },
          "southwest": {
            "lat": 40.3519719,
            "lng": -84.8042229
          }
        }
      },
      "place_id": "ChIJ0wEz-bnPP4gRfaz3XBEhaIs",
      "types": [
        "administrative_area_level_3",
        "political"
      ]
    },
    {
      "address_components": [
        {
          "long_name": "45846",
          "short_name": "45846",
          "types": [
            "postal_code"
          ]
        },
        {
          "long_name": "Fort Recovery",
          "short_name": "Fort Recovery",
          "types": [
            "locality",
            "political"
          ]
        },
        {
          "long_name": "Ohio",
          "short_name": "OH",
          "types": [
            "administrative_area_level_1",
            "political"
          ]
        },
        {
          "long_name": "United States",
          "short_name": "US",
          "types": [
            "country",
            "political"
          ]
        }
      ],
      "formatted_address": "Fort Recovery, OH 45846, USA",
      "geometry": {
        "bounds": {
          "northeast": {
            "lat": 40.55123589999999,
            "lng": -84.614907
          },
          "southwest": {
            "lat": 40.2911229,
            "lng": -84.804216
          }
        },
        "location": {
          "lat": 40.4142389,
          "lng": -84.75244819999999
        },
        "location_type": "APPROXIMATE",
        "viewport": {
          "northeast": {
            "lat": 40.55123589999999,
            "lng": -84.614907
          },
          "southwest": {
            "lat": 40.2911229,
            "lng": -84.804216
          }
        }
      },
      "place_id": "ChIJl9X-2xHLP4gRY8_hT-ku-9Q",
      "types": [
        "postal_code"
      ]
    },
    {
      "address_components": [
        {
          "long_name": "Celina",
          "short_name": "Celina",
          "types": [
            "political"
          ]
        },
        {
          "long_name": "United States",
          "short_name": "US",
          "types": [
            "country",
            "political"
          ]
        }
      ],
      "formatted_address": "Celina, USA",
      "geometry": {
        "bounds": {
          "northeast": {
            "lat": 40.728272,
            "lng": -84.434426
          },
          "southwest": {
            "lat": 40.3518211,
            "lng": -84.8045041
          }
        },
        "location": {
          "lat": 40.59405479999999,
          "lng": -84.68974949999999
        },
        "location_type": "APPROXIMATE",
        "viewport": {
          "northeast": {
            "lat": 40.728272,
            "lng": -84.434426
          },
          "southwest": {
            "lat": 40.3518211,
            "lng": -84.8045041
          }
        }
      },
      "place_id": "ChIJoyaWiBI1PogReo88aq-gPug",
      "types": [
        "political"
      ]
    },
    {
      "address_components": [
        {
          "long_name": "Mercer County",
          "short_name": "Mercer County",
          "types": [
            "administrative_area_level_2",
            "political"
          ]
        },
        {
          "long_name": "Ohio",
          "short_name": "OH",
          "types": [
            "administrative_area_level_1",
            "political"
          ]
        },
        {
          "long_name": "United States",
          "short_name": "US",
          "types": [
            "country",
            "political"
          ]
        }
      ],
      "formatted_address": "Mercer County, OH, USA",
      "geometry": {
        "bounds": {
          "northeast": {
            "lat": 40.728306,
            "lng": -84.43163179999999
          },
          "southwest": {
            "lat": 40.3517209,
            "lng": -84.804239
          }
        },
        "location": {
          "lat": 40.59405479999999,
          "lng": -84.68974949999999
        },
        "location_type": "APPROXIMATE",
        "viewport": {
          "northeast": {
            "lat": 40.728306,
            "lng": -84.43163179999999
          },
          "southwest": {
            "lat": 40.3517209,
            "lng": -84.804239
          }
        }
      },
      "place_id": "ChIJNWZwoBVTPogRJ3vbJqog7GY",
      "types": [
        "administrative_area_level_2",
        "political"
      ]
    },
    {
      "address_components": [
        {
          "long_name": "Ohio",
          "short_name": "OH",
          "types": [
            "administrative_area_level_1",
            "political"
          ]
        },
        {
          "long_name": "United States",
          "short_name": "US",
          "types": [
            "country",
            "political"
          ]
        }
      ],
      "formatted_address": "Ohio, USA",
      "geometry": {
        "bounds": {
          "northeast": {
            "lat": 41.9773019,
            "lng": -80.5182
          },
          "southwest": {
            "lat": 38.4034229,
            "lng": -84.8203049
          }
        },
        "location": {
          "lat": 40.4172871,
          "lng": -82.90712300000001
        },
        "location_type": "APPROXIMATE",
        "viewport": {
          "northeast": {
            "lat": 41.9773019,
            "lng": -80.5182
          },
          "southwest": {
            "lat": 38.4034229,
            "lng": -84.8203049
          }
        }
      },
      "place_id": "ChIJwY5NtXrpNogRFtmfnDlkzeU",
      "types": [
        "administrative_area_level_1",
        "political"
      ]
    },
    {
      "address_components": [
        {
          "long_name": "United States",
          "short_name": "US",
          "types": [
            "country",
            "political"
          ]
        }
      ],
      "formatted_address": "United States",
      "geometry": {
        "bounds": {
          "northeast": {
            "lat": 71.3867745,
            "lng": -66.9502861
          },
          "southwest": {
            "lat": 18.9106768,
            "lng": 172.4458955
          }
        },
        "location": {
          "lat": 37.09024,
          "lng": -95.712891
        },
        "location_type": "APPROXIMATE",
        "viewport": {
          "northeast": {
            "lat": 49.38,
            "lng": -66.94
          },
          "southwest": {
            "lat": 25.82,
            "lng": -124.39
          }
        }
      },
      "place_id": "ChIJCzYy5IS16lQRQrfeQ5K5Oxw",
      "types": [
        "country",
        "political"
      ]
    }
  ],
  "status": "OK"
}
