{
  "results": [
    {
      "address_components": [
        {
          "long_name": "724",
          "short_name": "724",
          "types": [
            "street_number"
          ]
        },
        {
          "long_name": "Corbel Drive",
          "short_name": "Corbel Dr",
          "types": [
            "route"
          ]
        },
        {
          "long_name": "Marysville",
          "short_name": "Marysville",
          "types": [
            "locality",
            "political"
          ]
        },
        {
          "long_name": "Paris Township",
          "short_name": "Paris Township",
          "types": [
            "administrative_area_level_3",
            "political"
          ]
        },
        {
          "long_name": "Union County",
          "short_name": "Union County",
          "types": [
            "administrative_area_level_2",
            "political"
          ]
        },
        {
          "long_name": "Ohio",
          "short_name": "OH",
          "types": [
            "administrative_area_level_1",
            "political"
          ]
        },
        {
          "long_name": "United States",
          "short_name": "US",
          "types": [
            "country",
            "political"
          ]
        },
        {
          "long_name": "43040",
          "short_name": "43040",
          "types": [
            "postal_code"
          ]
        },
        {
          "long_name": "7088",
          "short_name": "7088",
          "types": [
            "postal_code_suffix"
          ]
        }
      ],
      "formatted_address": "724 Corbel Dr, Marysville, OH 43040, USA",
      "geometry": {
        "location": {
          "lat": 40.227625,
          "lng": -83.35956999999999
        },
        "location_type": "ROOFTOP",
        "viewport": {
          "northeast": {
            "lat": 40.22897398029149,
            "lng": -83.3582210197085
          },
          "southwest": {
            "lat": 40.2262760197085,
            "lng": -83.3609189802915
          }
        }
      },
      "place_id": "ChIJ636qWkLEOIgRI8Q7qTay_6o",
      "types": [
        "street_address"
      ]
    },
    {
      "address_components": [
        {
          "long_name": "Marysville",
          "short_name": "Marysville",
          "types": [
            "locality",
            "political"
          ]
        },
        {
          "long_name": "Paris Township",
          "short_name": "Paris Township",
          "types": [
            "administrative_area_level_3",
            "political"
          ]
        },
        {
          "long_name": "Union County",
          "short_name": "Union County",
          "types": [
            "administrative_area_level_2",
            "political"
          ]
        },
        {
          "long_name": "Ohio",
          "short_name": "OH",
          "types": [
            "administrative_area_level_1",
            "political"
          ]
        },
        {
          "long_name": "United States",
          "short_name": "US",
          "types": [
            "country",
            "political"
          ]
        },
        {
          "long_name": "43040",
          "short_name": "43040",
          "types": [
            "postal_code"
          ]
        }
      ],
      "formatted_address": "Marysville, OH 43040, USA",
      "geometry": {
        "bounds": {
          "northeast": {
            "lat": 40.2739739,
            "lng": -83.283631
          },
          "southwest": {
            "lat": 40.185724,
            "lng": -83.4141301
          }
        },
        "location": {
          "lat": 40.2364486,
          "lng": -83.3671432
        },
        "location_type": "APPROXIMATE",
        "viewport": {
          "northeast": {
            "lat": 40.2739739,
            "lng": -83.283631
          },
          "southwest": {
            "lat": 40.185724,
            "lng": -83.4141301
          }
        }
      },
      "place_id": "ChIJqbuJrM7EOIgRGqOKDSF_Q8Y",
      "types": [
        "locality",
        "political"
      ]
    },
    {
      "address_components": [
        {
          "long_name": "Paris Township",
          "short_name": "Paris Township",
          "types": [
            "administrative_area_level_3",
            "political"
          ]
        },
        {
          "long_name": "Union County",
          "short_name": "Union County",
          "types": [
            "administrative_area_level_2",
            "political"
          ]
        },
        {
          "long_name": "Ohio",
          "short_name": "OH",
          "types": [
            "administrative_area_level_1",
            "political"
          ]
        },
        {
          "long_name": "United States",
          "short_name": "US",
          "types": [
            "country",
            "political"
          ]
        }
      ],
      "formatted_address": "Paris Township, OH, USA",
      "geometry": {
        "bounds": {
          "northeast": {
            "lat": 40.290507,
            "lng": -83.30924
          },
          "southwest": {
            "lat": 40.192297,
            "lng": -83.4580249
          }
        },
        "location": {
          "lat": 40.2612116,
          "lng": -83.357567
        },
        "location_type": "APPROXIMATE",
        "viewport": {
          "northeast": {
            "lat": 40.290507,
            "lng": -83.30924
          },
          "southwest": {
            "lat": 40.192297,
            "lng": -83.4580249
          }
        }
      },
      "place_id": "ChIJFXEWzgDFOIgRlTmMQFoTojM",
      "types": [
        "administrative_area_level_3",
        "political"
      ]
    },
    {
      "address_components": [
        {
          "long_name": "43040",
          "short_name": "43040",
          "types": [
            "postal_code"
          ]
        },
        {
          "long_name": "Marysville",
          "short_name": "Marysville",
          "types": [
            "locality",
            "political"
          ]
        },
        {
          "long_name": "Ohio",
          "short_name": "OH",
          "types": [
            "administrative_area_level_1",
            "political"
          ]
        },
        {
          "long_name": "United States",
          "short_name": "US",
          "types": [
            "country",
            "political"
          ]
        }
      ],
      "formatted_address": "Marysville, OH 43040, USA",
      "geometry": {
        "bounds": {
          "northeast": {
            "lat": 40.3769249,
            "lng": -83.1890671
          },
          "southwest": {
            "lat": 40.133933,
            "lng": -83.55280490000001
          }
        },
        "location": {
          "lat": 40.2612116,
          "lng": -83.357567
        },
        "location_type": "APPROXIMATE",
        "viewport": {
          "northeast": {
            "lat": 40.3769249,
            "lng": -83.1890671
          },
          "southwest": {
            "lat": 40.133933,
            "lng": -83.55280490000001
          }
        }
      },
      "place_id": "ChIJ3cIbxsHEOIgRtWk47u_klC0",
      "types": [
        "postal_code"
      ]
    },
    {
      "address_components": [
        {
          "long_name": "Union County",
          "short_name": "Union County",
          "types": [
            "administrative_area_level_2",
            "political"
          ]
        },
        {
          "long_name": "Ohio",
          "short_name": "OH",
          "types": [
            "administrative_area_level_1",
            "political"
          ]
        },
        {
          "long_name": "United States",
          "short_name": "US",
          "types": [
            "country",
            "political"
          ]
        }
      ],
      "formatted_address": "Union County, OH, USA",
      "geometry": {
        "bounds": {
          "northeast": {
            "lat": 40.507047,
            "lng": -83.1699019
          },
          "southwest": {
            "lat": 40.106927,
            "lng": -83.551338
          }
        },
        "location": {
          "lat": 40.36163820000001,
          "lng": -83.33618799999999
        },
        "location_type": "APPROXIMATE",
        "viewport": {
          "northeast": {
            "lat": 40.507047,
            "lng": -83.1699019
          },
          "southwest": {
            "lat": 40.106927,
            "lng": -83.551338
          }
        }
      },
      "place_id": "ChIJGeScSMrEOIgRJDVIUgtzi1w",
      "types": [
        "administrative_area_level_2",
        "political"
      ]
    },
    {
      "address_components": [
        {
          "long_name": "Columbus",
          "short_name": "Columbus",
          "types": [
            "political"
          ]
        },
        {
          "long_name": "Ohio",
          "short_name": "OH",
          "types": [
            "administrative_area_level_1",
            "political"
          ]
        },
        {
          "long_name": "United States",
          "short_name": "US",
          "types": [
            "country",
            "political"
          ]
        }
      ],
      "formatted_address": "Columbus, OH, USA",
      "geometry": {
        "bounds": {
          "northeast": {
            "lat": 40.717162,
            "lng": -82.182857
          },
          "southwest": {
            "lat": 39.4680629,
            "lng": -83.65333
          }
        },
        "location": {
          "lat": 39.9388943,
          "lng": -83.0790865
        },
        "location_type": "APPROXIMATE",
        "viewport": {
          "northeast": {
            "lat": 40.717162,
            "lng": -82.182857
          },
          "southwest": {
            "lat": 39.4680629,
            "lng": -83.65333
          }
        }
      },
      "place_id": "ChIJ04Fl80SKOIgRrDQZTaEfA_c",
      "types": [
        "political"
      ]
    },
    {
      "address_components": [
        {
          "long_name": "Ohio",
          "short_name": "OH",
          "types": [
            "administrative_area_level_1",
            "political"
          ]
        },
        {
          "long_name": "United States",
          "short_name": "US",
          "types": [
            "country",
            "political"
          ]
        }
      ],
      "formatted_address": "Ohio, USA",
      "geometry": {
        "bounds": {
          "northeast": {
            "lat": 41.9773019,
            "lng": -80.5182
          },
          "southwest": {
            "lat": 38.4034229,
            "lng": -84.8203049
          }
        },
        "location": {
          "lat": 40.4172871,
          "lng": -82.90712300000001
        },
        "location_type": "APPROXIMATE",
        "viewport": {
          "northeast": {
            "lat": 41.9773019,
            "lng": -80.5182
          },
          "southwest": {
            "lat": 38.4034229,
            "lng": -84.8203049
          }
        }
      },
      "place_id": "ChIJwY5NtXrpNogRFtmfnDlkzeU",
      "types": [
        "administrative_area_level_1",
        "political"
      ]
    },
    {
      "address_components": [
        {
          "long_name": "United States",
          "short_name": "US",
          "types": [
            "country",
            "political"
          ]
        }
      ],
      "formatted_address": "United States",
      "geometry": {
        "bounds": {
          "northeast": {
            "lat": 71.3867745,
            "lng": -66.9502861
          },
          "southwest": {
            "lat": 18.9106768,
            "lng": 172.4458955
          }
        },
        "location": {
          "lat": 37.09024,
          "lng": -95.712891
        },
        "location_type": "APPROXIMATE",
        "viewport": {
          "northeast": {
            "lat": 49.38,
            "lng": -66.94
          },
          "southwest": {
            "lat": 25.82,
            "lng": -124.39
          }
        }
      },
      "place_id": "ChIJCzYy5IS16lQRQrfeQ5K5Oxw",
      "types": [
        "country",
        "political"
      ]
    }
  ],
  "status": "OK"
}
