{
  "results": [
    {
      "address_components": [
        {
          "long_name": "1811",
          "short_name": "1811",
          "types": [
            "street_number"
          ]
        },
        {
          "long_name": "Jefferson Street",
          "short_name": "Jefferson St",
          "types": [
            "route"
          ]
        },
        {
          "long_name": "Unionville",
          "short_name": "Unionville",
          "types": [
            "locality",
            "political"
          ]
        },
        {
          "long_name": "Union Township",
          "short_name": "Union Township",
          "types": [
            "administrative_area_level_3",
            "political"
          ]
        },
        {
          "long_name": "Putnam County",
          "short_name": "Putnam County",
          "types": [
            "administrative_area_level_2",
            "political"
          ]
        },
        {
          "long_name": "Missouri",
          "short_name": "MO",
          "types": [
            "administrative_area_level_1",
            "political"
          ]
        },
        {
          "long_name": "United States",
          "short_name": "US",
          "types": [
            "country",
            "political"
          ]
        },
        {
          "long_name": "63565",
          "short_name": "63565",
          "types": [
            "postal_code"
          ]
        },
        {
          "long_name": "1654",
          "short_name": "1654",
          "types": [
            "postal_code_suffix"
          ]
        }
      ],
      "formatted_address": "1811 Jefferson St, Unionville, MO 63565, USA",
      "geometry": {
        "location": {
          "lat": 40.4757144,
          "lng": -93.0046083
        },
        "location_type": "ROOFTOP",
        "viewport": {
          "northeast": {
            "lat": 40.4770633802915,
            "lng": -93.00325931970849
          },
          "southwest": {
            "lat": 40.4743654197085,
            "lng": -93.00595728029151
          }
        }
      },
      "place_id": "ChIJqWrUUXZR6IcRiCYAyrug7Yw",
      "types": [
        "street_address"
      ]
    },
    {
      "address_components": [
        {
          "long_name": "Unionville",
          "short_name": "Unionville",
          "types": [
            "locality",
            "political"
          ]
        },
        {
          "long_name": "Putnam County",
          "short_name": "Putnam County",
          "types": [
            "administrative_area_level_2",
            "political"
          ]
        },
        {
          "long_name": "Missouri",
          "short_name": "MO",
          "types": [
            "administrative_area_level_1",
            "political"
          ]
        },
        {
          "long_name": "United States",
          "short_name": "US",
          "types": [
            "country",
            "political"
          ]
        },
        {
          "long_name": "63565",
          "short_name": "63565",
          "types": [
            "postal_code"
          ]
        }
      ],
      "formatted_address": "Unionville, MO 63565, USA",
      "geometry": {
        "bounds": {
          "northeast": {
            "lat": 40.4878999,
            "lng": -92.9900251
          },
          "southwest": {
            "lat": 40.465458,
            "lng": -93.02104779999999
          }
        },
        "location": {
          "lat": 40.4769606,
          "lng": -93.0032614
        },
        "location_type": "APPROXIMATE",
        "viewport": {
          "northeast": {
            "lat": 40.4878999,
            "lng": -92.9900251
          },
          "southwest": {
            "lat": 40.465458,
            "lng": -93.02104779999999
          }
        }
      },
      "place_id": "ChIJuY7NBXdR6IcR_pHtZsG9CPs",
      "types": [
        "locality",
        "political"
      ]
    },
    {
      "address_components": [
        {
          "long_name": "Union Township",
          "short_name": "Union Township",
          "types": [
            "administrative_area_level_3",
            "political"
          ]
        },
        {
          "long_name": "Putnam County",
          "short_name": "Putnam County",
          "types": [
            "administrative_area_level_2",
            "political"
          ]
        },
        {
          "long_name": "Missouri",
          "short_name": "MO",
          "types": [
            "administrative_area_level_1",
            "political"
          ]
        },
        {
          "long_name": "United States",
          "short_name": "US",
          "types": [
            "country",
            "political"
          ]
        }
      ],
      "formatted_address": "Union Township, MO, USA",
      "geometry": {
        "bounds": {
          "northeast": {
            "lat": 40.5870419,
            "lng": -92.97577
          },
          "southwest": {
            "lat": 40.471669,
            "lng": -93.09011
          }
        },
        "location": {
          "lat": 40.5339366,
          "lng": -93.0375914
        },
        "location_type": "APPROXIMATE",
        "viewport": {
          "northeast": {
            "lat": 40.5870419,
            "lng": -92.97577
          },
          "southwest": {
            "lat": 40.471669,
            "lng": -93.09011
          }
        }
      },
      "place_id": "ChIJR-MNBBRU6IcRvkfAR-27ZCo",
      "types": [
        "administrative_area_level_3",
        "political"
      ]
    },
    {
      "address_components": [
        {
          "long_name": "63565",
          "short_name": "63565",
          "types": [
            "postal_code"
          ]
        },
        {
          "long_name": "Unionville",
          "short_name": "Unionville",
          "types": [
            "locality",
            "political"
          ]
        },
        {
          "long_name": "Missouri",
          "short_name": "MO",
          "types": [
            "administrative_area_level_1",
            "political"
          ]
        },
        {
          "long_name": "United States",
          "short_name": "US",
          "types": [
            "country",
            "political"
          ]
        }
      ],
      "formatted_address": "Unionville, MO 63565, USA",
      "geometry": {
        "bounds": {
          "northeast": {
            "lat": 40.5890301,
            "lng": -92.658111
          },
          "southwest": {
            "lat": 40.3443539,
            "lng": -93.185762
          }
        },
        "location": {
          "lat": 40.4744901,
          "lng": -92.97755579999999
        },
        "location_type": "APPROXIMATE",
        "viewport": {
          "northeast": {
            "lat": 40.5890301,
            "lng": -92.658111
          },
          "southwest": {
            "lat": 40.3443539,
            "lng": -93.185762
          }
        }
      },
      "place_id": "ChIJ01FsPOtP6IcRdqfRh5zZ03w",
      "types": [
        "postal_code"
      ]
    },
    {
      "address_components": [
        {
          "long_name": "Putnam County",
          "short_name": "Putnam County",
          "types": [
            "administrative_area_level_2",
            "political"
          ]
        },
        {
          "long_name": "Missouri",
          "short_name": "MO",
          "types": [
            "administrative_area_level_1",
            "political"
          ]
        },
        {
          "long_name": "United States",
          "short_name": "US",
          "types": [
            "country",
            "political"
          ]
        }
      ],
      "formatted_address": "Putnam County, MO, USA",
      "geometry": {
        "bounds": {
          "northeast": {
            "lat": 40.5894309,
            "lng": -92.6645066
          },
          "southwest": {
            "lat": 40.3423339,
            "lng": -93.37522
          }
        },
        "location": {
          "lat": 40.4744901,
          "lng": -92.97755579999999
        },
        "location_type": "APPROXIMATE",
        "viewport": {
          "northeast": {
            "lat": 40.5894309,
            "lng": -92.6645066
          },
          "southwest": {
            "lat": 40.3423339,
            "lng": -93.37522
          }
        }
      },
      "place_id": "ChIJm6OVf4JS6IcREFo3x786H_k",
      "types": [
        "administrative_area_level_2",
        "political"
      ]
    },
    {
      "address_components": [
        {
          "long_name": "Missouri",
          "short_name": "MO",
          "types": [
            "administrative_area_level_1",
            "political"
          ]
        },
        {
          "long_name": "United States",
          "short_name": "US",
          "types": [
            "country",
            "political"
          ]
        }
      ],
      "formatted_address": "Missouri, USA",
      "geometry": {
        "bounds": {
          "northeast": {
            "lat": 40.61364,
            "lng": -89.09949399999999
          },
          "southwest": {
            "lat": 35.9956829,
            "lng": -95.774704
          }
        },
        "location": {
          "lat": 37.9642529,
          "lng": -91.8318334
        },
        "location_type": "APPROXIMATE",
        "viewport": {
          "northeast": {
            "lat": 40.61364,
            "lng": -89.09949399999999
          },
          "southwest": {
            "lat": 35.9956829,
            "lng": -95.774704
          }
        }
      },
      "place_id": "ChIJfeMiSNXmwIcRcr1mBFnEW7U",
      "types": [
        "administrative_area_level_1",
        "political"
      ]
    },
    {
      "address_components": [
        {
          "long_name": "United States",
          "short_name": "US",
          "types": [
            "country",
            "political"
          ]
        }
      ],
      "formatted_address": "United States",
      "geometry": {
        "bounds": {
          "northeast": {
            "lat": 71.3867745,
            "lng": -66.9502861
          },
          "southwest": {
            "lat": 18.9106768,
            "lng": 172.4458955
          }
        },
        "location": {
          "lat": 37.09024,
          "lng": -95.712891
        },
        "location_type": "APPROXIMATE",
        "viewport": {
          "northeast": {
            "lat": 49.38,
            "lng": -66.94
          },
          "southwest": {
            "lat": 25.82,
            "lng": -124.39
          }
        }
      },
      "place_id": "ChIJCzYy5IS16lQRQrfeQ5K5Oxw",
      "types": [
        "country",
        "political"
      ]
    }
  ],
  "status": "OK"
}
