{
  "results": [
    {
      "address_components": [
        {
          "long_name": "Hamilton Entrance",
          "short_name": "Hamilton Entrance",
          "types": [
            "route"
          ]
        },
        {
          "long_name": "Buffalo",
          "short_name": "Buffalo",
          "types": [
            "locality",
            "political"
          ]
        },
        {
          "long_name": "Amherst",
          "short_name": "Amherst",
          "types": [
            "administrative_area_level_3",
            "political"
          ]
        },
        {
          "long_name": "Erie County",
          "short_name": "Erie County",
          "types": [
            "administrative_area_level_2",
            "political"
          ]
        },
        {
          "long_name": "New York",
          "short_name": "NY",
          "types": [
            "administrative_area_level_1",
            "political"
          ]
        },
        {
          "long_name": "United States",
          "short_name": "US",
          "types": [
            "country",
            "political"
          ]
        },
        {
          "long_name": "14228",
          "short_name": "14228",
          "types": [
            "postal_code"
          ]
        }
      ],
      "formatted_address": "Hamilton Entrance, Buffalo, NY 14228, USA",
      "geometry": {
        "bounds": {
          "northeast": {
            "lat": 43.00254049999999,
            "lng": -78.7893662
          },
          "southwest": {
            "lat": 43.0021521,
            "lng": -78.7895472
          }
        },
        "location": {
          "lat": 43.0023267,
          "lng": -78.7893684
        },
        "location_type": "GEOMETRIC_CENTER",
        "viewport": {
          "northeast": {
            "lat": 43.0036952802915,
            "lng": -78.7881077197085
          },
          "southwest": {
            "lat": 43.0009973197085,
            "lng": -78.79080568029151
          }
        }
      },
      "place_id": "ChIJ2yISUtJz04kRLmJ32roEDSI",
      "types": [
        "route"
      ]
    },
    {
      "address_components": [
        {
          "long_name": "Getzville",
          "short_name": "Getzville",
          "types": [
            "locality",
            "political"
          ]
        },
        {
          "long_name": "Amherst",
          "short_name": "Amherst",
          "types": [
            "administrative_area_level_3",
            "political"
          ]
        },
        {
          "long_name": "Erie County",
          "short_name": "Erie County",
          "types": [
            "administrative_area_level_2",
            "political"
          ]
        },
        {
          "long_name": "New York",
          "short_name": "NY",
          "types": [
            "administrative_area_level_1",
            "political"
          ]
        },
        {
          "long_name": "United States",
          "short_name": "US",
          "types": [
            "country",
            "political"
          ]
        }
      ],
      "formatted_address": "Getzville, NY, USA",
      "geometry": {
        "bounds": {
          "northeast": {
            "lat": 43.0349482,
            "lng": -78.7377252
          },
          "southwest": {
            "lat": 42.9911787,
            "lng": -78.8064397
          }
        },
        "location": {
          "lat": 43.0232669,
          "lng": -78.76814120000002
        },
        "location_type": "APPROXIMATE",
        "viewport": {
          "northeast": {
            "lat": 43.0349482,
            "lng": -78.7377252
          },
          "southwest": {
            "lat": 42.9911787,
            "lng": -78.8064397
          }
        }
      },
      "place_id": "ChIJ5zQzr0Fx04kRMtXDz3k-KGM",
      "types": [
        "locality",
        "political"
      ]
    },
    {
      "address_components": [
        {
          "long_name": "14228",
          "short_name": "14228",
          "types": [
            "postal_code"
          ]
        },
        {
          "long_name": "Buffalo",
          "short_name": "Buffalo",
          "types": [
            "locality",
            "political"
          ]
        },
        {
          "long_name": "New York",
          "short_name": "NY",
          "types": [
            "administrative_area_level_1",
            "political"
          ]
        },
        {
          "long_name": "United States",
          "short_name": "US",
          "types": [
            "country",
            "political"
          ]
        }
      ],
      "formatted_address": "Buffalo, NY 14228, USA",
      "geometry": {
        "bounds": {
          "northeast": {
            "lat": 43.08622,
            "lng": -78.7204509
          },
          "southwest": {
            "lat": 42.9908511,
            "lng": -78.8276719
          }
        },
        "location": {
          "lat": 43.0378104,
          "lng": -78.78162189999999
        },
        "location_type": "APPROXIMATE",
        "viewport": {
          "northeast": {
            "lat": 43.08622,
            "lng": -78.7204509
          },
          "southwest": {
            "lat": 42.9908511,
            "lng": -78.8276719
          }
        }
      },
      "place_id": "ChIJq7gWSRpx04kRYE9E09UchvA",
      "postcode_localities": [
        "Amherst",
        "Buffalo"
      ],
      "types": [
        "postal_code"
      ]
    },
    {
      "address_components": [
        {
          "long_name": "Amherst",
          "short_name": "Amherst",
          "types": [
            "administrative_area_level_3",
            "political"
          ]
        },
        {
          "long_name": "Erie County",
          "short_name": "Erie County",
          "types": [
            "administrative_area_level_2",
            "political"
          ]
        },
        {
          "long_name": "New York",
          "short_name": "NY",
          "types": [
            "administrative_area_level_1",
            "political"
          ]
        },
        {
          "long_name": "United States",
          "short_name": "US",
          "types": [
            "country",
            "political"
          ]
        }
      ],
      "formatted_address": "Amherst, NY, USA",
      "geometry": {
        "bounds": {
          "northeast": {
            "lat": 43.08707880000001,
            "lng": -78.696865
          },
          "southwest": {
            "lat": 42.9457649,
            "lng": -78.8323319
          }
        },
        "location": {
          "lat": 43.0270921,
          "lng": -78.77028949999999
        },
        "location_type": "APPROXIMATE",
        "viewport": {
          "northeast": {
            "lat": 43.08707880000001,
            "lng": -78.696865
          },
          "southwest": {
            "lat": 42.9457649,
            "lng": -78.8323319
          }
        }
      },
      "place_id": "ChIJ54gzRVtx04kRw-Xz_LTIwoE",
      "types": [
        "administrative_area_level_3",
        "political"
      ]
    },
    {
      "address_components": [
        {
          "long_name": "Erie County",
          "short_name": "Erie County",
          "types": [
            "administrative_area_level_2",
            "political"
          ]
        },
        {
          "long_name": "New York",
          "short_name": "NY",
          "types": [
            "administrative_area_level_1",
            "political"
          ]
        },
        {
          "long_name": "United States",
          "short_name": "US",
          "types": [
            "country",
            "political"
          ]
        }
      ],
      "formatted_address": "Erie County, NY, USA",
      "geometry": {
        "bounds": {
          "northeast": {
            "lat": 43.098676,
            "lng": -78.4620461
          },
          "southwest": {
            "lat": 42.437997,
            "lng": -79.1371803
          }
        },
        "location": {
          "lat": 42.9023958,
          "lng": -78.8661589
        },
        "location_type": "APPROXIMATE",
        "viewport": {
          "northeast": {
            "lat": 43.098676,
            "lng": -78.4620461
          },
          "southwest": {
            "lat": 42.437997,
            "lng": -79.1371803
          }
        }
      },
      "place_id": "ChIJRRlv_BcQ04kRP2qzyO_pHxA",
      "types": [
        "administrative_area_level_2",
        "political"
      ]
    },
    {
      "address_components": [
        {
          "long_name": "New York",
          "short_name": "NY",
          "types": [
            "administrative_area_level_1",
            "political"
          ]
        },
        {
          "long_name": "United States",
          "short_name": "US",
          "types": [
            "country",
            "political"
          ]
        }
      ],
      "formatted_address": "New York, USA",
      "geometry": {
        "bounds": {
          "northeast": {
            "lat": 45.015865,
            "lng": -71.85620639999999
          },
          "southwest": {
            "lat": 40.496091,
            "lng": -79.76214379999999
          }
        },
        "location": {
          "lat": 43.2994285,
          "lng": -74.21793260000001
        },
        "location_type": "APPROXIMATE",
        "viewport": {
          "northeast": {
            "lat": 45.015859,
            "lng": -71.85620639999999
          },
          "southwest": {
            "lat": 40.496091,
            "lng": -79.76214379999999
          }
        }
      },
      "place_id": "ChIJqaUj8fBLzEwRZ5UY3sHGz90",
      "types": [
        "administrative_area_level_1",
        "political"
      ]
    },
    {
      "address_components": [
        {
          "long_name": "United States",
          "short_name": "US",
          "types": [
            "country",
            "political"
          ]
        }
      ],
      "formatted_address": "United States",
      "geometry": {
        "bounds": {
          "northeast": {
            "lat": 71.3867745,
            "lng": -66.9502861
          },
          "southwest": {
            "lat": 18.9106768,
            "lng": 172.4458955
          }
        },
        "location": {
          "lat": 37.09024,
          "lng": -95.712891
        },
        "location_type": "APPROXIMATE",
        "viewport": {
          "northeast": {
            "lat": 49.38,
            "lng": -66.94
          },
          "southwest": {
            "lat": 25.82,
            "lng": -124.39
          }
        }
      },
      "place_id": "ChIJCzYy5IS16lQRQrfeQ5K5Oxw",
      "types": [
        "country",
        "political"
      ]
    }
  ],
  "status": "OK"
}
