{
  "results": [
    {
      "address_components": [
        {
          "long_name": "7050",
          "short_name": "7050",
          "types": [
            "street_number"
          ]
        },
        {
          "long_name": "Saxony Lane",
          "short_name": "Saxony Ln",
          "types": [
            "route"
          ]
        },
        {
          "long_name": "House Springs",
          "short_name": "House Springs",
          "types": [
            "locality",
            "political"
          ]
        },
        {
          "long_name": "High Ridge Township",
          "short_name": "High Ridge Township",
          "types": [
            "administrative_area_level_3",
            "political"
          ]
        },
        {
          "long_name": "Jefferson County",
          "short_name": "Jefferson County",
          "types": [
            "administrative_area_level_2",
            "political"
          ]
        },
        {
          "long_name": "Missouri",
          "short_name": "MO",
          "types": [
            "administrative_area_level_1",
            "political"
          ]
        },
        {
          "long_name": "United States",
          "short_name": "US",
          "types": [
            "country",
            "political"
          ]
        },
        {
          "long_name": "63051",
          "short_name": "63051",
          "types": [
            "postal_code"
          ]
        },
        {
          "long_name": "2163",
          "short_name": "2163",
          "types": [
            "postal_code_suffix"
          ]
        }
      ],
      "formatted_address": "7050 Saxony Ln, House Springs, MO 63051, USA",
      "geometry": {
        "location": {
          "lat": 38.3917689,
          "lng": -90.59106899999999
        },
        "location_type": "ROOFTOP",
        "viewport": {
          "northeast": {
            "lat": 38.3931178802915,
            "lng": -90.58972001970848
          },
          "southwest": {
            "lat": 38.3904199197085,
            "lng": -90.5924179802915
          }
        }
      },
      "place_id": "ChIJG4ocNE7f2IcRbepCur4zP84",
      "types": [
        "street_address"
      ]
    },
    {
      "address_components": [
        {
          "long_name": "Scotsdale",
          "short_name": "Scotsdale",
          "types": [
            "locality",
            "political"
          ]
        },
        {
          "long_name": "High Ridge Township",
          "short_name": "High Ridge Township",
          "types": [
            "administrative_area_level_3",
            "political"
          ]
        },
        {
          "long_name": "Jefferson County",
          "short_name": "Jefferson County",
          "types": [
            "administrative_area_level_2",
            "political"
          ]
        },
        {
          "long_name": "Missouri",
          "short_name": "MO",
          "types": [
            "administrative_area_level_1",
            "political"
          ]
        },
        {
          "long_name": "United States",
          "short_name": "US",
          "types": [
            "country",
            "political"
          ]
        },
        {
          "long_name": "63051",
          "short_name": "63051",
          "types": [
            "postal_code"
          ]
        }
      ],
      "formatted_address": "Scotsdale, MO 63051, USA",
      "geometry": {
        "bounds": {
          "northeast": {
            "lat": 38.4126531,
            "lng": -90.581625
          },
          "southwest": {
            "lat": 38.3754829,
            "lng": -90.59877480000002
          }
        },
        "location": {
          "lat": 38.398943,
          "lng": -90.58734779999999
        },
        "location_type": "APPROXIMATE",
        "viewport": {
          "northeast": {
            "lat": 38.4126531,
            "lng": -90.581625
          },
          "southwest": {
            "lat": 38.3754829,
            "lng": -90.59877480000002
          }
        }
      },
      "place_id": "ChIJO4bHgk3f2IcRJNGkncXVn6c",
      "types": [
        "locality",
        "political"
      ]
    },
    {
      "address_components": [
        {
          "long_name": "High Ridge Township",
          "short_name": "High Ridge Township",
          "types": [
            "administrative_area_level_3",
            "political"
          ]
        },
        {
          "long_name": "Jefferson County",
          "short_name": "Jefferson County",
          "types": [
            "administrative_area_level_2",
            "political"
          ]
        },
        {
          "long_name": "Missouri",
          "short_name": "MO",
          "types": [
            "administrative_area_level_1",
            "political"
          ]
        },
        {
          "long_name": "United States",
          "short_name": "US",
          "types": [
            "country",
            "political"
          ]
        }
      ],
      "formatted_address": "High Ridge Township, MO, USA",
      "geometry": {
        "bounds": {
          "northeast": {
            "lat": 38.50165399999999,
            "lng": -90.512322
          },
          "southwest": {
            "lat": 38.35441489999999,
            "lng": -90.631894
          }
        },
        "location": {
          "lat": 38.4627022,
          "lng": -90.5446912
        },
        "location_type": "APPROXIMATE",
        "viewport": {
          "northeast": {
            "lat": 38.5016541,
            "lng": -90.512322
          },
          "southwest": {
            "lat": 38.35441489999999,
            "lng": -90.631894
          }
        }
      },
      "place_id": "ChIJC8smuuXY2IcR_MEcRaifEIE",
      "types": [
        "administrative_area_level_3",
        "political"
      ]
    },
    {
      "address_components": [
        {
          "long_name": "63051",
          "short_name": "63051",
          "types": [
            "postal_code"
          ]
        },
        {
          "long_name": "House Springs",
          "short_name": "House Springs",
          "types": [
            "locality",
            "political"
          ]
        },
        {
          "long_name": "Jefferson County",
          "short_name": "Jefferson County",
          "types": [
            "administrative_area_level_2",
            "political"
          ]
        },
        {
          "long_name": "Missouri",
          "short_name": "MO",
          "types": [
            "administrative_area_level_1",
            "political"
          ]
        },
        {
          "long_name": "United States",
          "short_name": "US",
          "types": [
            "country",
            "political"
          ]
        }
      ],
      "formatted_address": "House Springs, MO 63051, USA",
      "geometry": {
        "bounds": {
          "northeast": {
            "lat": 38.4579161,
            "lng": -90.4833539
          },
          "southwest": {
            "lat": 38.3392569,
            "lng": -90.6766579
          }
        },
        "location": {
          "lat": 38.3783386,
          "lng": -90.5825359
        },
        "location_type": "APPROXIMATE",
        "viewport": {
          "northeast": {
            "lat": 38.4579161,
            "lng": -90.4833539
          },
          "southwest": {
            "lat": 38.3392569,
            "lng": -90.6766579
          }
        }
      },
      "place_id": "ChIJlyJ8ozLZ2IcRaHFOELc7qs0",
      "postcode_localities": [
        "Byrnes Mill",
        "House Springs"
      ],
      "types": [
        "postal_code"
      ]
    },
    {
      "address_components": [
        {
          "long_name": "Jefferson County",
          "short_name": "Jefferson County",
          "types": [
            "administrative_area_level_2",
            "political"
          ]
        },
        {
          "long_name": "Missouri",
          "short_name": "MO",
          "types": [
            "administrative_area_level_1",
            "political"
          ]
        },
        {
          "long_name": "United States",
          "short_name": "US",
          "types": [
            "country",
            "political"
          ]
        }
      ],
      "formatted_address": "Jefferson County, MO, USA",
      "geometry": {
        "bounds": {
          "northeast": {
            "lat": 38.5019541,
            "lng": -90.2495648
          },
          "southwest": {
            "lat": 38.0034991,
            "lng": -90.7801849
          }
        },
        "location": {
          "lat": 38.2310301,
          "lng": -90.52578229999999
        },
        "location_type": "APPROXIMATE",
        "viewport": {
          "northeast": {
            "lat": 38.5019541,
            "lng": -90.2495648
          },
          "southwest": {
            "lat": 38.0034991,
            "lng": -90.7801849
          }
        }
      },
      "place_id": "ChIJYdYCyp_c2IcRh4w_joxIqR0",
      "types": [
        "administrative_area_level_2",
        "political"
      ]
    },
    {
      "address_components": [
        {
          "long_name": "St. Louis",
          "short_name": "St. Louis",
          "types": [
            "political"
          ]
        },
        {
          "long_name": "United States",
          "short_name": "US",
          "types": [
            "country",
            "political"
          ]
        }
      ],
      "formatted_address": "St. Louis, USA",
      "geometry": {
        "bounds": {
          "northeast": {
            "lat": 39.5233661,
            "lng": -89.138356
          },
          "southwest": {
            "lat": 37.7341961,
            "lng": -91.4186371
          }
        },
        "location": {
          "lat": 38.8196814,
          "lng": -90.4502368
        },
        "location_type": "APPROXIMATE",
        "viewport": {
          "northeast": {
            "lat": 39.5233661,
            "lng": -89.138356
          },
          "southwest": {
            "lat": 37.7341961,
            "lng": -91.4186371
          }
        }
      },
      "place_id": "ChIJneBzzj4z34cRFGg2ez6q57o",
      "types": [
        "political"
      ]
    },
    {
      "address_components": [
        {
          "long_name": "Missouri",
          "short_name": "MO",
          "types": [
            "administrative_area_level_1",
            "political"
          ]
        },
        {
          "long_name": "United States",
          "short_name": "US",
          "types": [
            "country",
            "political"
          ]
        }
      ],
      "formatted_address": "Missouri, USA",
      "geometry": {
        "bounds": {
          "northeast": {
            "lat": 40.61364,
            "lng": -89.09949399999999
          },
          "southwest": {
            "lat": 35.9956829,
            "lng": -95.774704
          }
        },
        "location": {
          "lat": 37.9642529,
          "lng": -91.8318334
        },
        "location_type": "APPROXIMATE",
        "viewport": {
          "northeast": {
            "lat": 40.61364,
            "lng": -89.09949399999999
          },
          "southwest": {
            "lat": 35.9956829,
            "lng": -95.774704
          }
        }
      },
      "place_id": "ChIJfeMiSNXmwIcRcr1mBFnEW7U",
      "types": [
        "administrative_area_level_1",
        "political"
      ]
    },
    {
      "address_components": [
        {
          "long_name": "United States",
          "short_name": "US",
          "types": [
            "country",
            "political"
          ]
        }
      ],
      "formatted_address": "United States",
      "geometry": {
        "bounds": {
          "northeast": {
            "lat": 71.3867745,
            "lng": -66.9502861
          },
          "southwest": {
            "lat": 18.9106768,
            "lng": 172.4458955
          }
        },
        "location": {
          "lat": 37.09024,
          "lng": -95.712891
        },
        "location_type": "APPROXIMATE",
        "viewport": {
          "northeast": {
            "lat": 49.38,
            "lng": -66.94
          },
          "southwest": {
            "lat": 25.82,
            "lng": -124.39
          }
        }
      },
      "place_id": "ChIJCzYy5IS16lQRQrfeQ5K5Oxw",
      "types": [
        "country",
        "political"
      ]
    }
  ],
  "status": "OK"
}
