{
  "results": [
    {
      "address_components": [
        {
          "long_name": "101-149",
          "short_name": "101-149",
          "types": [
            "street_number"
          ]
        },
        {
          "long_name": "North Liberty Street",
          "short_name": "N Liberty St",
          "types": [
            "route"
          ]
        },
        {
          "long_name": "Blue Hill",
          "short_name": "Blue Hill",
          "types": [
            "locality",
            "political"
          ]
        },
        {
          "long_name": "4",
          "short_name": "4",
          "types": [
            "administrative_area_level_3",
            "political"
          ]
        },
        {
          "long_name": "Webster County",
          "short_name": "Webster County",
          "types": [
            "administrative_area_level_2",
            "political"
          ]
        },
        {
          "long_name": "Nebraska",
          "short_name": "NE",
          "types": [
            "administrative_area_level_1",
            "political"
          ]
        },
        {
          "long_name": "United States",
          "short_name": "US",
          "types": [
            "country",
            "political"
          ]
        },
        {
          "long_name": "68930",
          "short_name": "68930",
          "types": [
            "postal_code"
          ]
        }
      ],
      "formatted_address": "101-149 N Liberty St, Blue Hill, NE 68930, USA",
      "geometry": {
        "bounds": {
          "northeast": {
            "lat": 40.3330737,
            "lng": -98.4485514
          },
          "southwest": {
            "lat": 40.3325688,
            "lng": -98.4485524
          }
        },
        "location": {
          "lat": 40.3329892,
          "lng": -98.4485328
        },
        "location_type": "RANGE_INTERPOLATED",
        "viewport": {
          "northeast": {
            "lat": 40.3341702302915,
            "lng": -98.44720291970849
          },
          "southwest": {
            "lat": 40.33147226970851,
            "lng": -98.44990088029151
          }
        }
      },
      "place_id": "Ei4xMDEtMTQ5IE4gTGliZXJ0eSBTdCwgQmx1ZSBIaWxsLCBORSA2ODkzMCwgVVNB",
      "types": [
        "street_address"
      ]
    },
    {
      "address_components": [
        {
          "long_name": "Blue Hill",
          "short_name": "Blue Hill",
          "types": [
            "locality",
            "political"
          ]
        },
        {
          "long_name": "Webster County",
          "short_name": "Webster County",
          "types": [
            "administrative_area_level_2",
            "political"
          ]
        },
        {
          "long_name": "Nebraska",
          "short_name": "NE",
          "types": [
            "administrative_area_level_1",
            "political"
          ]
        },
        {
          "long_name": "United States",
          "short_name": "US",
          "types": [
            "country",
            "political"
          ]
        },
        {
          "long_name": "68930",
          "short_name": "68930",
          "types": [
            "postal_code"
          ]
        }
      ],
      "formatted_address": "Blue Hill, NE 68930, USA",
      "geometry": {
        "bounds": {
          "northeast": {
            "lat": 40.34937900000001,
            "lng": -98.4390799
          },
          "southwest": {
            "lat": 40.3227819,
            "lng": -98.45787899999999
          }
        },
        "location": {
          "lat": 40.3333467,
          "lng": -98.4508925
        },
        "location_type": "APPROXIMATE",
        "viewport": {
          "northeast": {
            "lat": 40.34937900000001,
            "lng": -98.4390799
          },
          "southwest": {
            "lat": 40.3227819,
            "lng": -98.45787899999999
          }
        }
      },
      "place_id": "ChIJH2FEY39UmIcRFEGXcv-ITDw",
      "types": [
        "locality",
        "political"
      ]
    },
    {
      "address_components": [
        {
          "long_name": "4",
          "short_name": "4",
          "types": [
            "administrative_area_level_3",
            "political"
          ]
        },
        {
          "long_name": "Webster County",
          "short_name": "Webster County",
          "types": [
            "administrative_area_level_2",
            "political"
          ]
        },
        {
          "long_name": "Nebraska",
          "short_name": "NE",
          "types": [
            "administrative_area_level_1",
            "political"
          ]
        },
        {
          "long_name": "United States",
          "short_name": "US",
          "types": [
            "country",
            "political"
          ]
        },
        {
          "long_name": "68930",
          "short_name": "68930",
          "types": [
            "postal_code"
          ]
        }
      ],
      "formatted_address": "4, NE 68930, USA",
      "geometry": {
        "bounds": {
          "northeast": {
            "lat": 40.342999,
            "lng": -98.4390799
          },
          "southwest": {
            "lat": 40.321866,
            "lng": -98.45787899999999
          }
        },
        "location": {
          "lat": 40.3335874,
          "lng": -98.44858459999999
        },
        "location_type": "APPROXIMATE",
        "viewport": {
          "northeast": {
            "lat": 40.342999,
            "lng": -98.4390799
          },
          "southwest": {
            "lat": 40.321866,
            "lng": -98.45787899999999
          }
        }
      },
      "place_id": "ChIJL9Y-gNCqmYcRBsKEc7biaOE",
      "types": [
        "administrative_area_level_3",
        "political"
      ]
    },
    {
      "address_components": [
        {
          "long_name": "68930",
          "short_name": "68930",
          "types": [
            "postal_code"
          ]
        },
        {
          "long_name": "Blue Hill",
          "short_name": "Blue Hill",
          "types": [
            "locality",
            "political"
          ]
        },
        {
          "long_name": "Nebraska",
          "short_name": "NE",
          "types": [
            "administrative_area_level_1",
            "political"
          ]
        },
        {
          "long_name": "United States",
          "short_name": "US",
          "types": [
            "country",
            "political"
          ]
        }
      ],
      "formatted_address": "Blue Hill, NE 68930, USA",
      "geometry": {
        "bounds": {
          "northeast": {
            "lat": 40.437346,
            "lng": -98.27798609999999
          },
          "southwest": {
            "lat": 40.1573501,
            "lng": -98.610401
          }
        },
        "location": {
          "lat": 40.2860295,
          "lng": -98.4403573
        },
        "location_type": "APPROXIMATE",
        "viewport": {
          "northeast": {
            "lat": 40.437346,
            "lng": -98.27798609999999
          },
          "southwest": {
            "lat": 40.1573501,
            "lng": -98.610401
          }
        }
      },
      "place_id": "ChIJk30SSF5UmIcRkqpiAX7yS_8",
      "postcode_localities": [
        "Blue Hill",
        "Cowles",
        "Rosemont"
      ],
      "types": [
        "postal_code"
      ]
    },
    {
      "address_components": [
        {
          "long_name": "Webster County",
          "short_name": "Webster County",
          "types": [
            "administrative_area_level_2",
            "political"
          ]
        },
        {
          "long_name": "Nebraska",
          "short_name": "NE",
          "types": [
            "administrative_area_level_1",
            "political"
          ]
        },
        {
          "long_name": "United States",
          "short_name": "US",
          "types": [
            "country",
            "political"
          ]
        }
      ],
      "formatted_address": "Webster County, NE, USA",
      "geometry": {
        "bounds": {
          "northeast": {
            "lat": 40.350558,
            "lng": -98.27329309999999
          },
          "southwest": {
            "lat": 40.0022048,
            "lng": -98.7268629
          }
        },
        "location": {
          "lat": 40.2357266,
          "lng": -98.5721016
        },
        "location_type": "APPROXIMATE",
        "viewport": {
          "northeast": {
            "lat": 40.350558,
            "lng": -98.27329309999999
          },
          "southwest": {
            "lat": 40.0022048,
            "lng": -98.7268629
          }
        }
      },
      "place_id": "ChIJQwxMo91WmIcRU6V8rvEifd0",
      "types": [
        "administrative_area_level_2",
        "political"
      ]
    },
    {
      "address_components": [
        {
          "long_name": "Nebraska",
          "short_name": "NE",
          "types": [
            "administrative_area_level_1",
            "political"
          ]
        },
        {
          "long_name": "United States",
          "short_name": "US",
          "types": [
            "country",
            "political"
          ]
        }
      ],
      "formatted_address": "Nebraska, USA",
      "geometry": {
        "bounds": {
          "northeast": {
            "lat": 43.00170689999999,
            "lng": -95.30829000000001
          },
          "southwest": {
            "lat": 39.999932,
            "lng": -104.053514
          }
        },
        "location": {
          "lat": 41.4925374,
          "lng": -99.9018131
        },
        "location_type": "APPROXIMATE",
        "viewport": {
          "northeast": {
            "lat": 43.00170689999999,
            "lng": -95.30829000000001
          },
          "southwest": {
            "lat": 39.999932,
            "lng": -104.053514
          }
        }
      },
      "place_id": "ChIJ7fwMtciNk4cRxArzDwyQJ6E",
      "types": [
        "administrative_area_level_1",
        "political"
      ]
    },
    {
      "address_components": [
        {
          "long_name": "United States",
          "short_name": "US",
          "types": [
            "country",
            "political"
          ]
        }
      ],
      "formatted_address": "United States",
      "geometry": {
        "bounds": {
          "northeast": {
            "lat": 71.3867745,
            "lng": -66.9502861
          },
          "southwest": {
            "lat": 18.9106768,
            "lng": 172.4458955
          }
        },
        "location": {
          "lat": 37.09024,
          "lng": -95.712891
        },
        "location_type": "APPROXIMATE",
        "viewport": {
          "northeast": {
            "lat": 49.38,
            "lng": -66.94
          },
          "southwest": {
            "lat": 25.82,
            "lng": -124.39
          }
        }
      },
      "place_id": "ChIJCzYy5IS16lQRQrfeQ5K5Oxw",
      "types": [
        "country",
        "political"
      ]
    }
  ],
  "status": "OK"
}
