{
  "results": [
    {
      "address_components": [
        {
          "long_name": "232",
          "short_name": "232",
          "types": [
            "street_number"
          ]
        },
        {
          "long_name": "Warner Drive",
          "short_name": "Warner Dr",
          "types": [
            "route"
          ]
        },
        {
          "long_name": "Calverton",
          "short_name": "Calverton",
          "types": [
            "locality",
            "political"
          ]
        },
        {
          "long_name": "Riverhead",
          "short_name": "Riverhead",
          "types": [
            "administrative_area_level_3",
            "political"
          ]
        },
        {
          "long_name": "Suffolk County",
          "short_name": "Suffolk County",
          "types": [
            "administrative_area_level_2",
            "political"
          ]
        },
        {
          "long_name": "New York",
          "short_name": "NY",
          "types": [
            "administrative_area_level_1",
            "political"
          ]
        },
        {
          "long_name": "United States",
          "short_name": "US",
          "types": [
            "country",
            "political"
          ]
        },
        {
          "long_name": "11933",
          "short_name": "11933",
          "types": [
            "postal_code"
          ]
        }
      ],
      "formatted_address": "232 Warner Dr, Calverton, NY 11933, USA",
      "geometry": {
        "location": {
          "lat": 40.96471100000001,
          "lng": -72.74006299999999
        },
        "location_type": "ROOFTOP",
        "viewport": {
          "northeast": {
            "lat": 40.96605998029151,
            "lng": -72.7387140197085
          },
          "southwest": {
            "lat": 40.96336201970851,
            "lng": -72.7414119802915
          }
        }
      },
      "place_id": "ChIJF0YQskxg6IkRyXgD_59vmrg",
      "types": [
        "street_address"
      ]
    },
    {
      "address_components": [
        {
          "long_name": "Baiting Hollow",
          "short_name": "Baiting Hollow",
          "types": [
            "locality",
            "political"
          ]
        },
        {
          "long_name": "Riverhead",
          "short_name": "Riverhead",
          "types": [
            "administrative_area_level_3",
            "political"
          ]
        },
        {
          "long_name": "Suffolk County",
          "short_name": "Suffolk County",
          "types": [
            "administrative_area_level_2",
            "political"
          ]
        },
        {
          "long_name": "New York",
          "short_name": "NY",
          "types": [
            "administrative_area_level_1",
            "political"
          ]
        },
        {
          "long_name": "United States",
          "short_name": "US",
          "types": [
            "country",
            "political"
          ]
        }
      ],
      "formatted_address": "Baiting Hollow, NY, USA",
      "geometry": {
        "bounds": {
          "northeast": {
            "lat": 40.97764129999999,
            "lng": -72.7020153
          },
          "southwest": {
            "lat": 40.95563,
            "lng": -72.781403
          }
        },
        "location": {
          "lat": 40.9697519,
          "lng": -72.7392711
        },
        "location_type": "APPROXIMATE",
        "viewport": {
          "northeast": {
            "lat": 40.97764129999999,
            "lng": -72.7020153
          },
          "southwest": {
            "lat": 40.95563,
            "lng": -72.781403
          }
        }
      },
      "place_id": "ChIJMV3Joite6IkRW6lLwa-QRnA",
      "types": [
        "locality",
        "political"
      ]
    },
    {
      "address_components": [
        {
          "long_name": "11933",
          "short_name": "11933",
          "types": [
            "postal_code"
          ]
        },
        {
          "long_name": "Calverton",
          "short_name": "Calverton",
          "types": [
            "locality",
            "political"
          ]
        },
        {
          "long_name": "Suffolk County",
          "short_name": "Suffolk County",
          "types": [
            "administrative_area_level_2",
            "political"
          ]
        },
        {
          "long_name": "New York",
          "short_name": "NY",
          "types": [
            "administrative_area_level_1",
            "political"
          ]
        },
        {
          "long_name": "United States",
          "short_name": "US",
          "types": [
            "country",
            "political"
          ]
        }
      ],
      "formatted_address": "Calverton, NY 11933, USA",
      "geometry": {
        "bounds": {
          "northeast": {
            "lat": 40.9857799,
            "lng": -72.6856459
          },
          "southwest": {
            "lat": 40.864898,
            "lng": -72.8298291
          }
        },
        "location": {
          "lat": 40.9065698,
          "lng": -72.7436046
        },
        "location_type": "APPROXIMATE",
        "viewport": {
          "northeast": {
            "lat": 40.9857799,
            "lng": -72.6856459
          },
          "southwest": {
            "lat": 40.864898,
            "lng": -72.8298291
          }
        }
      },
      "place_id": "ChIJ81Kqby1e6IkRdNpP4JJoJ_Y",
      "postcode_localities": [
        "BAITING HOLLO",
        "Baiting Hollow",
        "Calverton"
      ],
      "types": [
        "postal_code"
      ]
    },
    {
      "address_components": [
        {
          "long_name": "Riverhead",
          "short_name": "Riverhead",
          "types": [
            "administrative_area_level_3",
            "political"
          ]
        },
        {
          "long_name": "Suffolk County",
          "short_name": "Suffolk County",
          "types": [
            "administrative_area_level_2",
            "political"
          ]
        },
        {
          "long_name": "New York",
          "short_name": "NY",
          "types": [
            "administrative_area_level_1",
            "political"
          ]
        },
        {
          "long_name": "United States",
          "short_name": "US",
          "types": [
            "country",
            "political"
          ]
        }
      ],
      "formatted_address": "Riverhead, NY, USA",
      "geometry": {
        "bounds": {
          "northeast": {
            "lat": 40.9952936,
            "lng": -72.55419429999999
          },
          "southwest": {
            "lat": 40.875828,
            "lng": -72.8638019
          }
        },
        "location": {
          "lat": 40.9355608,
          "lng": -72.7089981
        },
        "location_type": "APPROXIMATE",
        "viewport": {
          "northeast": {
            "lat": 40.9952936,
            "lng": -72.55419429999999
          },
          "southwest": {
            "lat": 40.875828,
            "lng": -72.8638019
          }
        }
      },
      "place_id": "ChIJ6TgIp1Fc6IkR02Tkt8cMG6Y",
      "types": [
        "administrative_area_level_3",
        "political"
      ]
    },
    {
      "address_components": [
        {
          "long_name": "Suffolk County",
          "short_name": "Suffolk County",
          "types": [
            "administrative_area_level_2",
            "political"
          ]
        },
        {
          "long_name": "New York",
          "short_name": "NY",
          "types": [
            "administrative_area_level_1",
            "political"
          ]
        },
        {
          "long_name": "United States",
          "short_name": "US",
          "types": [
            "country",
            "political"
          ]
        }
      ],
      "formatted_address": "Suffolk County, NY, USA",
      "geometry": {
        "bounds": {
          "northeast": {
            "lat": 41.2923797,
            "lng": -71.8562082
          },
          "southwest": {
            "lat": 40.6094203,
            "lng": -73.497125
          }
        },
        "location": {
          "lat": 40.9848784,
          "lng": -72.61511689999999
        },
        "location_type": "APPROXIMATE",
        "viewport": {
          "northeast": {
            "lat": 41.2923194,
            "lng": -71.8562082
          },
          "southwest": {
            "lat": 40.6094203,
            "lng": -73.497125
          }
        }
      },
      "place_id": "ChIJ1_mbyICu4IkRU18dDUkMxJU",
      "types": [
        "administrative_area_level_2",
        "political"
      ]
    },
    {
      "address_components": [
        {
          "long_name": "New York",
          "short_name": "NY",
          "types": [
            "administrative_area_level_1",
            "political"
          ]
        },
        {
          "long_name": "United States",
          "short_name": "US",
          "types": [
            "country",
            "political"
          ]
        }
      ],
      "formatted_address": "New York, USA",
      "geometry": {
        "bounds": {
          "northeast": {
            "lat": 45.015865,
            "lng": -71.85620639999999
          },
          "southwest": {
            "lat": 40.496091,
            "lng": -79.76214379999999
          }
        },
        "location": {
          "lat": 43.2994285,
          "lng": -74.21793260000001
        },
        "location_type": "APPROXIMATE",
        "viewport": {
          "northeast": {
            "lat": 45.015859,
            "lng": -71.85620639999999
          },
          "southwest": {
            "lat": 40.496091,
            "lng": -79.76214379999999
          }
        }
      },
      "place_id": "ChIJqaUj8fBLzEwRZ5UY3sHGz90",
      "types": [
        "administrative_area_level_1",
        "political"
      ]
    },
    {
      "address_components": [
        {
          "long_name": "United States",
          "short_name": "US",
          "types": [
            "country",
            "political"
          ]
        }
      ],
      "formatted_address": "United States",
      "geometry": {
        "bounds": {
          "northeast": {
            "lat": 71.3867745,
            "lng": -66.9502861
          },
          "southwest": {
            "lat": 18.9106768,
            "lng": 172.4458955
          }
        },
        "location": {
          "lat": 37.09024,
          "lng": -95.712891
        },
        "location_type": "APPROXIMATE",
        "viewport": {
          "northeast": {
            "lat": 49.38,
            "lng": -66.94
          },
          "southwest": {
            "lat": 25.82,
            "lng": -124.39
          }
        }
      },
      "place_id": "ChIJCzYy5IS16lQRQrfeQ5K5Oxw",
      "types": [
        "country",
        "political"
      ]
    }
  ],
  "status": "OK"
}
