{
  "results": [
    {
      "address_components": [
        {
          "long_name": "100-104",
          "short_name": "100-104",
          "types": [
            "street_number"
          ]
        },
        {
          "long_name": "Maple Street",
          "short_name": "Maple St",
          "types": [
            "route"
          ]
        },
        {
          "long_name": "Rosedale",
          "short_name": "Rosedale",
          "types": [
            "locality",
            "political"
          ]
        },
        {
          "long_name": "Florida Township",
          "short_name": "Florida Township",
          "types": [
            "administrative_area_level_3",
            "political"
          ]
        },
        {
          "long_name": "Parke County",
          "short_name": "Parke County",
          "types": [
            "administrative_area_level_2",
            "political"
          ]
        },
        {
          "long_name": "Indiana",
          "short_name": "IN",
          "types": [
            "administrative_area_level_1",
            "political"
          ]
        },
        {
          "long_name": "United States",
          "short_name": "US",
          "types": [
            "country",
            "political"
          ]
        },
        {
          "long_name": "47874",
          "short_name": "47874",
          "types": [
            "postal_code"
          ]
        }
      ],
      "formatted_address": "100-104 Maple St, Rosedale, IN 47874, USA",
      "geometry": {
        "bounds": {
          "northeast": {
            "lat": 39.6226321,
            "lng": -87.28167309999999
          },
          "southwest": {
            "lat": 39.6216404,
            "lng": -87.2816989
          }
        },
        "location": {
          "lat": 39.6224597,
          "lng": -87.2816756
        },
        "location_type": "RANGE_INTERPOLATED",
        "viewport": {
          "northeast": {
            "lat": 39.62348523029149,
            "lng": -87.28033701970848
          },
          "southwest": {
            "lat": 39.6207872697085,
            "lng": -87.28303498029149
          }
        }
      },
      "place_id": "EikxMDAtMTA0IE1hcGxlIFN0LCBSb3NlZGFsZSwgSU4gNDc4NzQsIFVTQQ",
      "types": [
        "street_address"
      ]
    },
    {
      "address_components": [
        {
          "long_name": "Rosedale",
          "short_name": "Rosedale",
          "types": [
            "locality",
            "political"
          ]
        },
        {
          "long_name": "Florida Township",
          "short_name": "Florida Township",
          "types": [
            "administrative_area_level_3",
            "political"
          ]
        },
        {
          "long_name": "Parke County",
          "short_name": "Parke County",
          "types": [
            "administrative_area_level_2",
            "political"
          ]
        },
        {
          "long_name": "Indiana",
          "short_name": "IN",
          "types": [
            "administrative_area_level_1",
            "political"
          ]
        },
        {
          "long_name": "United States",
          "short_name": "US",
          "types": [
            "country",
            "political"
          ]
        },
        {
          "long_name": "47874",
          "short_name": "47874",
          "types": [
            "postal_code"
          ]
        }
      ],
      "formatted_address": "Rosedale, IN 47874, USA",
      "geometry": {
        "bounds": {
          "northeast": {
            "lat": 39.6278748,
            "lng": -87.2711339
          },
          "southwest": {
            "lat": 39.616614,
            "lng": -87.2878879
          }
        },
        "location": {
          "lat": 39.6228165,
          "lng": -87.28335
        },
        "location_type": "APPROXIMATE",
        "viewport": {
          "northeast": {
            "lat": 39.6278748,
            "lng": -87.2711339
          },
          "southwest": {
            "lat": 39.616614,
            "lng": -87.2878879
          }
        }
      },
      "place_id": "ChIJHYJvrN9BbYgRYLbkpxpfXlw",
      "types": [
        "locality",
        "political"
      ]
    },
    {
      "address_components": [
        {
          "long_name": "Florida Township",
          "short_name": "Florida Township",
          "types": [
            "administrative_area_level_3",
            "political"
          ]
        },
        {
          "long_name": "Parke County",
          "short_name": "Parke County",
          "types": [
            "administrative_area_level_2",
            "political"
          ]
        },
        {
          "long_name": "Indiana",
          "short_name": "IN",
          "types": [
            "administrative_area_level_1",
            "political"
          ]
        },
        {
          "long_name": "United States",
          "short_name": "US",
          "types": [
            "country",
            "political"
          ]
        }
      ],
      "formatted_address": "Florida Township, IN, USA",
      "geometry": {
        "bounds": {
          "northeast": {
            "lat": 39.69587500000001,
            "lng": -87.23728899999999
          },
          "southwest": {
            "lat": 39.6076839,
            "lng": -87.3956251
          }
        },
        "location": {
          "lat": 39.6416847,
          "lng": -87.32149079999999
        },
        "location_type": "APPROXIMATE",
        "viewport": {
          "northeast": {
            "lat": 39.69587500000001,
            "lng": -87.23728899999999
          },
          "southwest": {
            "lat": 39.6076839,
            "lng": -87.3956251
          }
        }
      },
      "place_id": "ChIJPzs5ADpCbYgRXptrHZulYe4",
      "types": [
        "administrative_area_level_3",
        "political"
      ]
    },
    {
      "address_components": [
        {
          "long_name": "47874",
          "short_name": "47874",
          "types": [
            "postal_code"
          ]
        },
        {
          "long_name": "Rosedale",
          "short_name": "Rosedale",
          "types": [
            "locality",
            "political"
          ]
        },
        {
          "long_name": "Indiana",
          "short_name": "IN",
          "types": [
            "administrative_area_level_1",
            "political"
          ]
        },
        {
          "long_name": "United States",
          "short_name": "US",
          "types": [
            "country",
            "political"
          ]
        }
      ],
      "formatted_address": "Rosedale, IN 47874, USA",
      "geometry": {
        "bounds": {
          "northeast": {
            "lat": 39.6966521,
            "lng": -87.1614851
          },
          "southwest": {
            "lat": 39.562719,
            "lng": -87.4171679
          }
        },
        "location": {
          "lat": 39.642591,
          "lng": -87.3612205
        },
        "location_type": "APPROXIMATE",
        "viewport": {
          "northeast": {
            "lat": 39.6966521,
            "lng": -87.1614851
          },
          "southwest": {
            "lat": 39.562719,
            "lng": -87.4171679
          }
        }
      },
      "place_id": "ChIJV5Rl68ZBbYgRLTD34POpPGM",
      "types": [
        "postal_code"
      ]
    },
    {
      "address_components": [
        {
          "long_name": "Parke County",
          "short_name": "Parke County",
          "types": [
            "administrative_area_level_2",
            "political"
          ]
        },
        {
          "long_name": "Indiana",
          "short_name": "IN",
          "types": [
            "administrative_area_level_1",
            "political"
          ]
        },
        {
          "long_name": "United States",
          "short_name": "US",
          "types": [
            "country",
            "political"
          ]
        }
      ],
      "formatted_address": "Parke County, IN, USA",
      "geometry": {
        "bounds": {
          "northeast": {
            "lat": 39.9533789,
            "lng": -87.0094769
          },
          "southwest": {
            "lat": 39.604769,
            "lng": -87.434162
          }
        },
        "location": {
          "lat": 39.69929459999999,
          "lng": -87.14228949999999
        },
        "location_type": "APPROXIMATE",
        "viewport": {
          "northeast": {
            "lat": 39.9533789,
            "lng": -87.0094769
          },
          "southwest": {
            "lat": 39.604769,
            "lng": -87.434162
          }
        }
      },
      "place_id": "ChIJoz_poCFIbYgRoXBL_yN113A",
      "types": [
        "administrative_area_level_2",
        "political"
      ]
    },
    {
      "address_components": [
        {
          "long_name": "Indiana",
          "short_name": "IN",
          "types": [
            "administrative_area_level_1",
            "political"
          ]
        },
        {
          "long_name": "United States",
          "short_name": "US",
          "types": [
            "country",
            "political"
          ]
        }
      ],
      "formatted_address": "Indiana, USA",
      "geometry": {
        "bounds": {
          "northeast": {
            "lat": 41.7606971,
            "lng": -84.784662
          },
          "southwest": {
            "lat": 37.7717419,
            "lng": -88.097892
          }
        },
        "location": {
          "lat": 40.2671941,
          "lng": -86.1349019
        },
        "location_type": "APPROXIMATE",
        "viewport": {
          "northeast": {
            "lat": 41.7606971,
            "lng": -84.784662
          },
          "southwest": {
            "lat": 37.7717419,
            "lng": -88.097892
          }
        }
      },
      "place_id": "ChIJHRv42bxQa4gRcuwyy84vEH4",
      "types": [
        "administrative_area_level_1",
        "political"
      ]
    },
    {
      "address_components": [
        {
          "long_name": "United States",
          "short_name": "US",
          "types": [
            "country",
            "political"
          ]
        }
      ],
      "formatted_address": "United States",
      "geometry": {
        "bounds": {
          "northeast": {
            "lat": 71.3867745,
            "lng": -66.9502861
          },
          "southwest": {
            "lat": 18.9106768,
            "lng": 172.4458955
          }
        },
        "location": {
          "lat": 37.09024,
          "lng": -95.712891
        },
        "location_type": "APPROXIMATE",
        "viewport": {
          "northeast": {
            "lat": 49.38,
            "lng": -66.94
          },
          "southwest": {
            "lat": 25.82,
            "lng": -124.39
          }
        }
      },
      "place_id": "ChIJCzYy5IS16lQRQrfeQ5K5Oxw",
      "types": [
        "country",
        "political"
      ]
    }
  ],
  "status": "OK"
}
