{
  "results": [
    {
      "address_components": [
        {
          "long_name": "39",
          "short_name": "39",
          "types": [
            "street_number"
          ]
        },
        {
          "long_name": "Lakeview Drive",
          "short_name": "Lakeview Dr",
          "types": [
            "route"
          ]
        },
        {
          "long_name": "Yorktown Heights",
          "short_name": "Yorktown Heights",
          "types": [
            "locality",
            "political"
          ]
        },
        {
          "long_name": "Somers",
          "short_name": "Somers",
          "types": [
            "administrative_area_level_3",
            "political"
          ]
        },
        {
          "long_name": "Westchester County",
          "short_name": "Westchester County",
          "types": [
            "administrative_area_level_2",
            "political"
          ]
        },
        {
          "long_name": "New York",
          "short_name": "NY",
          "types": [
            "administrative_area_level_1",
            "political"
          ]
        },
        {
          "long_name": "United States",
          "short_name": "US",
          "types": [
            "country",
            "political"
          ]
        },
        {
          "long_name": "10598",
          "short_name": "10598",
          "types": [
            "postal_code"
          ]
        }
      ],
      "formatted_address": "39 Lakeview Dr, Yorktown Heights, NY 10598, USA",
      "geometry": {
        "location": {
          "lat": 41.330289,
          "lng": -73.74091
        },
        "location_type": "ROOFTOP",
        "viewport": {
          "northeast": {
            "lat": 41.3316379802915,
            "lng": -73.7395610197085
          },
          "southwest": {
            "lat": 41.3289400197085,
            "lng": -73.74225898029151
          }
        }
      },
      "place_id": "ChIJmzp0uoyzwokRc-pAUZ9sNEY",
      "types": [
        "street_address"
      ]
    },
    {
      "address_components": [
        {
          "long_name": "Shenorock",
          "short_name": "Shenorock",
          "types": [
            "locality",
            "political"
          ]
        },
        {
          "long_name": "Somers",
          "short_name": "Somers",
          "types": [
            "administrative_area_level_3",
            "political"
          ]
        },
        {
          "long_name": "Westchester County",
          "short_name": "Westchester County",
          "types": [
            "administrative_area_level_2",
            "political"
          ]
        },
        {
          "long_name": "New York",
          "short_name": "NY",
          "types": [
            "administrative_area_level_1",
            "political"
          ]
        },
        {
          "long_name": "United States",
          "short_name": "US",
          "types": [
            "country",
            "political"
          ]
        }
      ],
      "formatted_address": "Shenorock, NY, USA",
      "geometry": {
        "bounds": {
          "northeast": {
            "lat": 41.337967,
            "lng": -73.7280311
          },
          "southwest": {
            "lat": 41.318253,
            "lng": -73.751783
          }
        },
        "location": {
          "lat": 41.3317606,
          "lng": -73.7381876
        },
        "location_type": "APPROXIMATE",
        "viewport": {
          "northeast": {
            "lat": 41.337967,
            "lng": -73.7280311
          },
          "southwest": {
            "lat": 41.318253,
            "lng": -73.751783
          }
        }
      },
      "place_id": "ChIJxe_-F_OzwokRvZ03721Vb50",
      "types": [
        "locality",
        "political"
      ]
    },
    {
      "address_components": [
        {
          "long_name": "Somers",
          "short_name": "Somers",
          "types": [
            "administrative_area_level_3",
            "political"
          ]
        },
        {
          "long_name": "Westchester County",
          "short_name": "Westchester County",
          "types": [
            "administrative_area_level_2",
            "political"
          ]
        },
        {
          "long_name": "New York",
          "short_name": "NY",
          "types": [
            "administrative_area_level_1",
            "political"
          ]
        },
        {
          "long_name": "United States",
          "short_name": "US",
          "types": [
            "country",
            "political"
          ]
        }
      ],
      "formatted_address": "Somers, NY, USA",
      "geometry": {
        "bounds": {
          "northeast": {
            "lat": 41.3550988,
            "lng": -73.6588171
          },
          "southwest": {
            "lat": 41.2379047,
            "lng": -73.78000709999999
          }
        },
        "location": {
          "lat": 41.29963050000001,
          "lng": -73.7360175
        },
        "location_type": "APPROXIMATE",
        "viewport": {
          "northeast": {
            "lat": 41.3550988,
            "lng": -73.6588171
          },
          "southwest": {
            "lat": 41.2379047,
            "lng": -73.78000709999999
          }
        }
      },
      "place_id": "ChIJ6wv7yGixwokRIwjh6OWI4I0",
      "types": [
        "administrative_area_level_3",
        "political"
      ]
    },
    {
      "address_components": [
        {
          "long_name": "10598",
          "short_name": "10598",
          "types": [
            "postal_code"
          ]
        },
        {
          "long_name": "Yorktown Heights",
          "short_name": "Yorktown Heights",
          "types": [
            "locality",
            "political"
          ]
        },
        {
          "long_name": "New York",
          "short_name": "NY",
          "types": [
            "administrative_area_level_1",
            "political"
          ]
        },
        {
          "long_name": "United States",
          "short_name": "US",
          "types": [
            "country",
            "political"
          ]
        }
      ],
      "formatted_address": "Yorktown Heights, NY 10598, USA",
      "geometry": {
        "bounds": {
          "northeast": {
            "lat": 41.344904,
            "lng": -73.7280311
          },
          "southwest": {
            "lat": 41.22649089999999,
            "lng": -73.847942
          }
        },
        "location": {
          "lat": 41.2868678,
          "lng": -73.78308609999999
        },
        "location_type": "APPROXIMATE",
        "viewport": {
          "northeast": {
            "lat": 41.344904,
            "lng": -73.7280311
          },
          "southwest": {
            "lat": 41.22649089999999,
            "lng": -73.847942
          }
        }
      },
      "place_id": "ChIJgQ0S1VW2wokRwr9JICmTBr0",
      "types": [
        "postal_code"
      ]
    },
    {
      "address_components": [
        {
          "long_name": "Westchester County",
          "short_name": "Westchester County",
          "types": [
            "administrative_area_level_2",
            "political"
          ]
        },
        {
          "long_name": "New York",
          "short_name": "NY",
          "types": [
            "administrative_area_level_1",
            "political"
          ]
        },
        {
          "long_name": "United States",
          "short_name": "US",
          "types": [
            "country",
            "political"
          ]
        }
      ],
      "formatted_address": "Westchester County, NY, USA",
      "geometry": {
        "bounds": {
          "northeast": {
            "lat": 41.366375,
            "lng": -73.4827091
          },
          "southwest": {
            "lat": 40.8764415,
            "lng": -73.98062070000002
          }
        },
        "location": {
          "lat": 41.1220194,
          "lng": -73.7948516
        },
        "location_type": "APPROXIMATE",
        "viewport": {
          "northeast": {
            "lat": 41.366375,
            "lng": -73.4827091
          },
          "southwest": {
            "lat": 40.8764415,
            "lng": -73.98062070000002
          }
        }
      },
      "place_id": "ChIJr1lrnWrJwokRidu9ImLYDjc",
      "types": [
        "administrative_area_level_2",
        "political"
      ]
    },
    {
      "address_components": [
        {
          "long_name": "New York",
          "short_name": "NY",
          "types": [
            "administrative_area_level_1",
            "political"
          ]
        },
        {
          "long_name": "United States",
          "short_name": "US",
          "types": [
            "country",
            "political"
          ]
        }
      ],
      "formatted_address": "New York, USA",
      "geometry": {
        "bounds": {
          "northeast": {
            "lat": 45.015865,
            "lng": -71.85620639999999
          },
          "southwest": {
            "lat": 40.496091,
            "lng": -79.76214379999999
          }
        },
        "location": {
          "lat": 43.2994285,
          "lng": -74.21793260000001
        },
        "location_type": "APPROXIMATE",
        "viewport": {
          "northeast": {
            "lat": 45.015859,
            "lng": -71.85620639999999
          },
          "southwest": {
            "lat": 40.496091,
            "lng": -79.76214379999999
          }
        }
      },
      "place_id": "ChIJqaUj8fBLzEwRZ5UY3sHGz90",
      "types": [
        "administrative_area_level_1",
        "political"
      ]
    },
    {
      "address_components": [
        {
          "long_name": "United States",
          "short_name": "US",
          "types": [
            "country",
            "political"
          ]
        }
      ],
      "formatted_address": "United States",
      "geometry": {
        "bounds": {
          "northeast": {
            "lat": 71.3867745,
            "lng": -66.9502861
          },
          "southwest": {
            "lat": 18.9106768,
            "lng": 172.4458955
          }
        },
        "location": {
          "lat": 37.09024,
          "lng": -95.712891
        },
        "location_type": "APPROXIMATE",
        "viewport": {
          "northeast": {
            "lat": 49.38,
            "lng": -66.94
          },
          "southwest": {
            "lat": 25.82,
            "lng": -124.39
          }
        }
      },
      "place_id": "ChIJCzYy5IS16lQRQrfeQ5K5Oxw",
      "types": [
        "country",
        "political"
      ]
    }
  ],
  "status": "OK"
}
