{
  "results": [
    {
      "address_components": [
        {
          "long_name": "Interstate 70",
          "short_name": "I-70",
          "types": [
            "route"
          ]
        },
        {
          "long_name": "High Hill",
          "short_name": "High Hill",
          "types": [
            "locality",
            "political"
          ]
        },
        {
          "long_name": "Bear Creek Township",
          "short_name": "Bear Creek Township",
          "types": [
            "administrative_area_level_3",
            "political"
          ]
        },
        {
          "long_name": "Montgomery County",
          "short_name": "Montgomery County",
          "types": [
            "administrative_area_level_2",
            "political"
          ]
        },
        {
          "long_name": "Missouri",
          "short_name": "MO",
          "types": [
            "administrative_area_level_1",
            "political"
          ]
        },
        {
          "long_name": "United States",
          "short_name": "US",
          "types": [
            "country",
            "political"
          ]
        },
        {
          "long_name": "63350",
          "short_name": "63350",
          "types": [
            "postal_code"
          ]
        }
      ],
      "formatted_address": "I-70, High Hill, MO 63350, USA",
      "geometry": {
        "bounds": {
          "northeast": {
            "lat": 38.8766493,
            "lng": -91.3768904
          },
          "southwest": {
            "lat": 38.8750023,
            "lng": -91.3818077
          }
        },
        "location": {
          "lat": 38.8758841,
          "lng": -91.379317
        },
        "location_type": "GEOMETRIC_CENTER",
        "viewport": {
          "northeast": {
            "lat": 38.8771747802915,
            "lng": -91.3768904
          },
          "southwest": {
            "lat": 38.8744768197085,
            "lng": -91.3818077
          }
        }
      },
      "place_id": "ChIJ80SBkr0Q3IcRTCAkQVZ1CLo",
      "types": [
        "route"
      ]
    },
    {
      "address_components": [
        {
          "long_name": "High Hill",
          "short_name": "High Hill",
          "types": [
            "locality",
            "political"
          ]
        },
        {
          "long_name": "Bear Creek Township",
          "short_name": "Bear Creek Township",
          "types": [
            "administrative_area_level_3",
            "political"
          ]
        },
        {
          "long_name": "Montgomery County",
          "short_name": "Montgomery County",
          "types": [
            "administrative_area_level_2",
            "political"
          ]
        },
        {
          "long_name": "Missouri",
          "short_name": "MO",
          "types": [
            "administrative_area_level_1",
            "political"
          ]
        },
        {
          "long_name": "United States",
          "short_name": "US",
          "types": [
            "country",
            "political"
          ]
        },
        {
          "long_name": "63350",
          "short_name": "63350",
          "types": [
            "postal_code"
          ]
        }
      ],
      "formatted_address": "High Hill, MO 63350, USA",
      "geometry": {
        "bounds": {
          "northeast": {
            "lat": 38.882785,
            "lng": -91.367599
          },
          "southwest": {
            "lat": 38.8676659,
            "lng": -91.390591
          }
        },
        "location": {
          "lat": 38.8783763,
          "lng": -91.3834923
        },
        "location_type": "APPROXIMATE",
        "viewport": {
          "northeast": {
            "lat": 38.882785,
            "lng": -91.367599
          },
          "southwest": {
            "lat": 38.8676659,
            "lng": -91.390591
          }
        }
      },
      "place_id": "ChIJlS_Qq6IQ3IcRWf3eFnl6pG8",
      "types": [
        "locality",
        "political"
      ]
    },
    {
      "address_components": [
        {
          "long_name": "63350",
          "short_name": "63350",
          "types": [
            "postal_code"
          ]
        },
        {
          "long_name": "High Hill",
          "short_name": "High Hill",
          "types": [
            "locality",
            "political"
          ]
        },
        {
          "long_name": "Bear Creek Township",
          "short_name": "Bear Creek Township",
          "types": [
            "administrative_area_level_3",
            "political"
          ]
        },
        {
          "long_name": "Montgomery County",
          "short_name": "Montgomery County",
          "types": [
            "administrative_area_level_2",
            "political"
          ]
        },
        {
          "long_name": "Missouri",
          "short_name": "MO",
          "types": [
            "administrative_area_level_1",
            "political"
          ]
        },
        {
          "long_name": "United States",
          "short_name": "US",
          "types": [
            "country",
            "political"
          ]
        }
      ],
      "formatted_address": "High Hill, MO 63350, USA",
      "geometry": {
        "bounds": {
          "northeast": {
            "lat": 38.963432,
            "lng": -91.3098189
          },
          "southwest": {
            "lat": 38.8460881,
            "lng": -91.41472390000001
          }
        },
        "location": {
          "lat": 38.9067589,
          "lng": -91.3565692
        },
        "location_type": "APPROXIMATE",
        "viewport": {
          "northeast": {
            "lat": 38.963432,
            "lng": -91.3098189
          },
          "southwest": {
            "lat": 38.8460881,
            "lng": -91.41472390000001
          }
        }
      },
      "place_id": "ChIJKVKFs1cX3IcRPiTF846BDcc",
      "types": [
        "postal_code"
      ]
    },
    {
      "address_components": [
        {
          "long_name": "Bear Creek Township",
          "short_name": "Bear Creek Township",
          "types": [
            "administrative_area_level_3",
            "political"
          ]
        },
        {
          "long_name": "Montgomery County",
          "short_name": "Montgomery County",
          "types": [
            "administrative_area_level_2",
            "political"
          ]
        },
        {
          "long_name": "Missouri",
          "short_name": "MO",
          "types": [
            "administrative_area_level_1",
            "political"
          ]
        },
        {
          "long_name": "United States",
          "short_name": "US",
          "types": [
            "country",
            "political"
          ]
        }
      ],
      "formatted_address": "Bear Creek Township, MO, USA",
      "geometry": {
        "bounds": {
          "northeast": {
            "lat": 39.0371668,
            "lng": -91.263104
          },
          "southwest": {
            "lat": 38.84346499999999,
            "lng": -91.415832
          }
        },
        "location": {
          "lat": 38.9384123,
          "lng": -91.3276422
        },
        "location_type": "APPROXIMATE",
        "viewport": {
          "northeast": {
            "lat": 39.0371668,
            "lng": -91.263104
          },
          "southwest": {
            "lat": 38.84346499999999,
            "lng": -91.415832
          }
        }
      },
      "place_id": "ChIJW3u1jUoY3IcR0v1cD51P4gk",
      "types": [
        "administrative_area_level_3",
        "political"
      ]
    },
    {
      "address_components": [
        {
          "long_name": "Montgomery County",
          "short_name": "Montgomery County",
          "types": [
            "administrative_area_level_2",
            "political"
          ]
        },
        {
          "long_name": "Missouri",
          "short_name": "MO",
          "types": [
            "administrative_area_level_1",
            "political"
          ]
        },
        {
          "long_name": "United States",
          "short_name": "US",
          "types": [
            "country",
            "political"
          ]
        }
      ],
      "formatted_address": "Montgomery County, MO, USA",
      "geometry": {
        "bounds": {
          "northeast": {
            "lat": 39.147853,
            "lng": -91.26023190000001
          },
          "southwest": {
            "lat": 38.6762668,
            "lng": -91.647171
          }
        },
        "location": {
          "lat": 38.9365599,
          "lng": -91.4821482
        },
        "location_type": "APPROXIMATE",
        "viewport": {
          "northeast": {
            "lat": 39.147853,
            "lng": -91.26023190000001
          },
          "southwest": {
            "lat": 38.6762668,
            "lng": -91.647171
          }
        }
      },
      "place_id": "ChIJTRZaG4EN3IcR8WeRgBVDefo",
      "types": [
        "administrative_area_level_2",
        "political"
      ]
    },
    {
      "address_components": [
        {
          "long_name": "Missouri",
          "short_name": "MO",
          "types": [
            "administrative_area_level_1",
            "political"
          ]
        },
        {
          "long_name": "United States",
          "short_name": "US",
          "types": [
            "country",
            "political"
          ]
        }
      ],
      "formatted_address": "Missouri, USA",
      "geometry": {
        "bounds": {
          "northeast": {
            "lat": 40.61364,
            "lng": -89.09949399999999
          },
          "southwest": {
            "lat": 35.9956829,
            "lng": -95.774704
          }
        },
        "location": {
          "lat": 37.9642529,
          "lng": -91.8318334
        },
        "location_type": "APPROXIMATE",
        "viewport": {
          "northeast": {
            "lat": 40.61364,
            "lng": -89.09949399999999
          },
          "southwest": {
            "lat": 35.9956829,
            "lng": -95.774704
          }
        }
      },
      "place_id": "ChIJfeMiSNXmwIcRcr1mBFnEW7U",
      "types": [
        "administrative_area_level_1",
        "political"
      ]
    },
    {
      "address_components": [
        {
          "long_name": "United States",
          "short_name": "US",
          "types": [
            "country",
            "political"
          ]
        }
      ],
      "formatted_address": "United States",
      "geometry": {
        "bounds": {
          "northeast": {
            "lat": 71.3867745,
            "lng": -66.9502861
          },
          "southwest": {
            "lat": 18.9106768,
            "lng": 172.4458955
          }
        },
        "location": {
          "lat": 37.09024,
          "lng": -95.712891
        },
        "location_type": "APPROXIMATE",
        "viewport": {
          "northeast": {
            "lat": 49.38,
            "lng": -66.94
          },
          "southwest": {
            "lat": 25.82,
            "lng": -124.39
          }
        }
      },
      "place_id": "ChIJCzYy5IS16lQRQrfeQ5K5Oxw",
      "types": [
        "country",
        "political"
      ]
    }
  ],
  "status": "OK"
}
