{
  "results": [
    {
      "address_components": [
        {
          "long_name": "313",
          "short_name": "313",
          "types": [
            "street_number"
          ]
        },
        {
          "long_name": "North Home Avenue",
          "short_name": "N Home Ave",
          "types": [
            "route"
          ]
        },
        {
          "long_name": "Brooklyn",
          "short_name": "Brooklyn",
          "types": [
            "locality",
            "political"
          ]
        },
        {
          "long_name": "Clay Township",
          "short_name": "Clay Township",
          "types": [
            "administrative_area_level_3",
            "political"
          ]
        },
        {
          "long_name": "Morgan County",
          "short_name": "Morgan County",
          "types": [
            "administrative_area_level_2",
            "political"
          ]
        },
        {
          "long_name": "Indiana",
          "short_name": "IN",
          "types": [
            "administrative_area_level_1",
            "political"
          ]
        },
        {
          "long_name": "United States",
          "short_name": "US",
          "types": [
            "country",
            "political"
          ]
        },
        {
          "long_name": "46111",
          "short_name": "46111",
          "types": [
            "postal_code"
          ]
        }
      ],
      "formatted_address": "313 N Home Ave, Brooklyn, IN 46111, USA",
      "geometry": {
        "bounds": {
          "northeast": {
            "lat": 39.5448794,
            "lng": -86.36749789999999
          },
          "southwest": {
            "lat": 39.5441609,
            "lng": -86.3675169
          }
        },
        "location": {
          "lat": 39.5441606,
          "lng": -86.3674981
        },
        "location_type": "RANGE_INTERPOLATED",
        "viewport": {
          "northeast": {
            "lat": 39.5458691302915,
            "lng": -86.3661584197085
          },
          "southwest": {
            "lat": 39.5431711697085,
            "lng": -86.3688563802915
          }
        }
      },
      "place_id": "EiczMTMgTiBIb21lIEF2ZSwgQnJvb2tseW4sIElOIDQ2MTExLCBVU0E",
      "types": [
        "street_address"
      ]
    },
    {
      "address_components": [
        {
          "long_name": "Brooklyn",
          "short_name": "Brooklyn",
          "types": [
            "locality",
            "political"
          ]
        },
        {
          "long_name": "Clay Township",
          "short_name": "Clay Township",
          "types": [
            "administrative_area_level_3",
            "political"
          ]
        },
        {
          "long_name": "Morgan County",
          "short_name": "Morgan County",
          "types": [
            "administrative_area_level_2",
            "political"
          ]
        },
        {
          "long_name": "Indiana",
          "short_name": "IN",
          "types": [
            "administrative_area_level_1",
            "political"
          ]
        },
        {
          "long_name": "United States",
          "short_name": "US",
          "types": [
            "country",
            "political"
          ]
        }
      ],
      "formatted_address": "Brooklyn, IN, USA",
      "geometry": {
        "bounds": {
          "northeast": {
            "lat": 39.5510559,
            "lng": -86.35490589999999
          },
          "southwest": {
            "lat": 39.531819,
            "lng": -86.3788919
          }
        },
        "location": {
          "lat": 39.5392141,
          "lng": -86.36915979999999
        },
        "location_type": "APPROXIMATE",
        "viewport": {
          "northeast": {
            "lat": 39.5510559,
            "lng": -86.35490589999999
          },
          "southwest": {
            "lat": 39.531819,
            "lng": -86.3788919
          }
        }
      },
      "place_id": "ChIJZb5gbA-ZbIgRSBbrrHV5_pQ",
      "types": [
        "locality",
        "political"
      ]
    },
    {
      "address_components": [
        {
          "long_name": "46111",
          "short_name": "46111",
          "types": [
            "postal_code"
          ]
        },
        {
          "long_name": "Brooklyn",
          "short_name": "Brooklyn",
          "types": [
            "locality",
            "political"
          ]
        },
        {
          "long_name": "Clay Township",
          "short_name": "Clay Township",
          "types": [
            "administrative_area_level_3",
            "political"
          ]
        },
        {
          "long_name": "Morgan County",
          "short_name": "Morgan County",
          "types": [
            "administrative_area_level_2",
            "political"
          ]
        },
        {
          "long_name": "Indiana",
          "short_name": "IN",
          "types": [
            "administrative_area_level_1",
            "political"
          ]
        },
        {
          "long_name": "United States",
          "short_name": "US",
          "types": [
            "country",
            "political"
          ]
        }
      ],
      "formatted_address": "Brooklyn, IN 46111, USA",
      "geometry": {
        "bounds": {
          "northeast": {
            "lat": 39.5490409,
            "lng": -86.364216
          },
          "southwest": {
            "lat": 39.531956,
            "lng": -86.3736749
          }
        },
        "location": {
          "lat": 39.5397875,
          "lng": -86.3693536
        },
        "location_type": "APPROXIMATE",
        "viewport": {
          "northeast": {
            "lat": 39.5490409,
            "lng": -86.364216
          },
          "southwest": {
            "lat": 39.531956,
            "lng": -86.3736749
          }
        }
      },
      "place_id": "ChIJd4zjlQ2ZbIgRZYF6dWn5F7o",
      "types": [
        "postal_code"
      ]
    },
    {
      "address_components": [
        {
          "long_name": "Clay Township",
          "short_name": "Clay Township",
          "types": [
            "administrative_area_level_3",
            "political"
          ]
        },
        {
          "long_name": "Morgan County",
          "short_name": "Morgan County",
          "types": [
            "administrative_area_level_2",
            "political"
          ]
        },
        {
          "long_name": "Indiana",
          "short_name": "IN",
          "types": [
            "administrative_area_level_1",
            "political"
          ]
        },
        {
          "long_name": "United States",
          "short_name": "US",
          "types": [
            "country",
            "political"
          ]
        }
      ],
      "formatted_address": "Clay Township, IN, USA",
      "geometry": {
        "bounds": {
          "northeast": {
            "lat": 39.5591639,
            "lng": -86.323111
          },
          "southwest": {
            "lat": 39.4849469,
            "lng": -86.466399
          }
        },
        "location": {
          "lat": 39.5354803,
          "lng": -86.438974
        },
        "location_type": "APPROXIMATE",
        "viewport": {
          "northeast": {
            "lat": 39.5591639,
            "lng": -86.323111
          },
          "southwest": {
            "lat": 39.4849469,
            "lng": -86.466399
          }
        }
      },
      "place_id": "ChIJtZ3vuI2ZbIgR2ldqfxfM8p0",
      "types": [
        "administrative_area_level_3",
        "political"
      ]
    },
    {
      "address_components": [
        {
          "long_name": "Morgan County",
          "short_name": "Morgan County",
          "types": [
            "administrative_area_level_2",
            "political"
          ]
        },
        {
          "long_name": "Indiana",
          "short_name": "IN",
          "types": [
            "administrative_area_level_1",
            "political"
          ]
        },
        {
          "long_name": "United States",
          "short_name": "US",
          "types": [
            "country",
            "political"
          ]
        }
      ],
      "formatted_address": "Morgan County, IN, USA",
      "geometry": {
        "bounds": {
          "northeast": {
            "lat": 39.633645,
            "lng": -86.2497459
          },
          "southwest": {
            "lat": 39.3382911,
            "lng": -86.68758609999999
          }
        },
        "location": {
          "lat": 39.51168089999999,
          "lng": -86.3376761
        },
        "location_type": "APPROXIMATE",
        "viewport": {
          "northeast": {
            "lat": 39.633645,
            "lng": -86.2497459
          },
          "southwest": {
            "lat": 39.3382911,
            "lng": -86.68758609999999
          }
        }
      },
      "place_id": "ChIJI_JuDtObbIgRFB8B1JTcnuw",
      "types": [
        "administrative_area_level_2",
        "political"
      ]
    },
    {
      "address_components": [
        {
          "long_name": "Indianapolis",
          "short_name": "Indianapolis",
          "types": [
            "political"
          ]
        },
        {
          "long_name": "Indiana",
          "short_name": "IN",
          "types": [
            "administrative_area_level_1",
            "political"
          ]
        },
        {
          "long_name": "United States",
          "short_name": "US",
          "types": [
            "country",
            "political"
          ]
        }
      ],
      "formatted_address": "Indianapolis, IN, USA",
      "geometry": {
        "bounds": {
          "northeast": {
            "lat": 40.218985,
            "lng": -85.5763581
          },
          "southwest": {
            "lat": 39.048355,
            "lng": -87.0149399
          }
        },
        "location": {
          "lat": 39.7616739,
          "lng": -86.41873079999999
        },
        "location_type": "APPROXIMATE",
        "viewport": {
          "northeast": {
            "lat": 40.218985,
            "lng": -85.5763581
          },
          "southwest": {
            "lat": 39.048355,
            "lng": -87.0149399
          }
        }
      },
      "place_id": "ChIJpwnS6GanbIgRYryPufOfANQ",
      "types": [
        "political"
      ]
    },
    {
      "address_components": [
        {
          "long_name": "Indiana",
          "short_name": "IN",
          "types": [
            "administrative_area_level_1",
            "political"
          ]
        },
        {
          "long_name": "United States",
          "short_name": "US",
          "types": [
            "country",
            "political"
          ]
        }
      ],
      "formatted_address": "Indiana, USA",
      "geometry": {
        "bounds": {
          "northeast": {
            "lat": 41.7606971,
            "lng": -84.784662
          },
          "southwest": {
            "lat": 37.7717419,
            "lng": -88.097892
          }
        },
        "location": {
          "lat": 40.2671941,
          "lng": -86.1349019
        },
        "location_type": "APPROXIMATE",
        "viewport": {
          "northeast": {
            "lat": 41.7606971,
            "lng": -84.784662
          },
          "southwest": {
            "lat": 37.7717419,
            "lng": -88.097892
          }
        }
      },
      "place_id": "ChIJHRv42bxQa4gRcuwyy84vEH4",
      "types": [
        "administrative_area_level_1",
        "political"
      ]
    },
    {
      "address_components": [
        {
          "long_name": "United States",
          "short_name": "US",
          "types": [
            "country",
            "political"
          ]
        }
      ],
      "formatted_address": "United States",
      "geometry": {
        "bounds": {
          "northeast": {
            "lat": 71.3867745,
            "lng": -66.9502861
          },
          "southwest": {
            "lat": 18.9106768,
            "lng": 172.4458955
          }
        },
        "location": {
          "lat": 37.09024,
          "lng": -95.712891
        },
        "location_type": "APPROXIMATE",
        "viewport": {
          "northeast": {
            "lat": 49.38,
            "lng": -66.94
          },
          "southwest": {
            "lat": 25.82,
            "lng": -124.39
          }
        }
      },
      "place_id": "ChIJCzYy5IS16lQRQrfeQ5K5Oxw",
      "types": [
        "country",
        "political"
      ]
    }
  ],
  "status": "OK"
}
