{
  "results": [
    {
      "address_components": [
        {
          "long_name": "8018",
          "short_name": "8018",
          "types": [
            "street_number"
          ]
        },
        {
          "long_name": "Indiana 54",
          "short_name": "IN-54",
          "types": [
            "route"
          ]
        },
        {
          "long_name": "Springville",
          "short_name": "Springville",
          "types": [
            "locality",
            "political"
          ]
        },
        {
          "long_name": "Marshall Township",
          "short_name": "Marshall Township",
          "types": [
            "administrative_area_level_3",
            "political"
          ]
        },
        {
          "long_name": "Lawrence County",
          "short_name": "Lawrence County",
          "types": [
            "administrative_area_level_2",
            "political"
          ]
        },
        {
          "long_name": "Indiana",
          "short_name": "IN",
          "types": [
            "administrative_area_level_1",
            "political"
          ]
        },
        {
          "long_name": "United States",
          "short_name": "US",
          "types": [
            "country",
            "political"
          ]
        },
        {
          "long_name": "47462",
          "short_name": "47462",
          "types": [
            "postal_code"
          ]
        },
        {
          "long_name": "5158",
          "short_name": "5158",
          "types": [
            "postal_code_suffix"
          ]
        }
      ],
      "formatted_address": "8018 IN-54, Springville, IN 47462, USA",
      "geometry": {
        "location": {
          "lat": 38.917273,
          "lng": -86.554698
        },
        "location_type": "ROOFTOP",
        "viewport": {
          "northeast": {
            "lat": 38.9186219802915,
            "lng": -86.55334901970849
          },
          "southwest": {
            "lat": 38.91592401970851,
            "lng": -86.5560469802915
          }
        }
      },
      "place_id": "ChIJj0JN5j0VbIgRs3Km_3z9LOE",
      "types": [
        "street_address"
      ]
    },
    {
      "address_components": [
        {
          "long_name": "Marshall Township",
          "short_name": "Marshall Township",
          "types": [
            "administrative_area_level_3",
            "political"
          ]
        },
        {
          "long_name": "Lawrence County",
          "short_name": "Lawrence County",
          "types": [
            "administrative_area_level_2",
            "political"
          ]
        },
        {
          "long_name": "Indiana",
          "short_name": "IN",
          "types": [
            "administrative_area_level_1",
            "political"
          ]
        },
        {
          "long_name": "United States",
          "short_name": "US",
          "types": [
            "country",
            "political"
          ]
        }
      ],
      "formatted_address": "Marshall Township, IN, USA",
      "geometry": {
        "bounds": {
          "northeast": {
            "lat": 38.9921469,
            "lng": -86.4607599
          },
          "southwest": {
            "lat": 38.90444,
            "lng": -86.5736599
          }
        },
        "location": {
          "lat": 38.9568186,
          "lng": -86.51986509999999
        },
        "location_type": "APPROXIMATE",
        "viewport": {
          "northeast": {
            "lat": 38.9921469,
            "lng": -86.4607599
          },
          "southwest": {
            "lat": 38.90444,
            "lng": -86.5736599
          }
        }
      },
      "place_id": "ChIJ8y21XkZrbIgRhhkZYmzObqc",
      "types": [
        "administrative_area_level_3",
        "political"
      ]
    },
    {
      "address_components": [
        {
          "long_name": "47462",
          "short_name": "47462",
          "types": [
            "postal_code"
          ]
        },
        {
          "long_name": "Springville",
          "short_name": "Springville",
          "types": [
            "locality",
            "political"
          ]
        },
        {
          "long_name": "Indiana",
          "short_name": "IN",
          "types": [
            "administrative_area_level_1",
            "political"
          ]
        },
        {
          "long_name": "United States",
          "short_name": "US",
          "types": [
            "country",
            "political"
          ]
        }
      ],
      "formatted_address": "Springville, IN 47462, USA",
      "geometry": {
        "bounds": {
          "northeast": {
            "lat": 39.0315129,
            "lng": -86.52106789999999
          },
          "southwest": {
            "lat": 38.8687089,
            "lng": -86.760778
          }
        },
        "location": {
          "lat": 38.9603563,
          "lng": -86.6409554
        },
        "location_type": "APPROXIMATE",
        "viewport": {
          "northeast": {
            "lat": 39.0315129,
            "lng": -86.52106789999999
          },
          "southwest": {
            "lat": 38.8687089,
            "lng": -86.760778
          }
        }
      },
      "place_id": "ChIJn-bXrpBAbIgR-DfUFlrzGjE",
      "types": [
        "postal_code"
      ]
    },
    {
      "address_components": [
        {
          "long_name": "Lawrence County",
          "short_name": "Lawrence County",
          "types": [
            "administrative_area_level_2",
            "political"
          ]
        },
        {
          "long_name": "Indiana",
          "short_name": "IN",
          "types": [
            "administrative_area_level_1",
            "political"
          ]
        },
        {
          "long_name": "United States",
          "short_name": "US",
          "types": [
            "country",
            "political"
          ]
        }
      ],
      "formatted_address": "Lawrence County, IN, USA",
      "geometry": {
        "bounds": {
          "northeast": {
            "lat": 38.992404,
            "lng": -86.27528099999999
          },
          "southwest": {
            "lat": 38.6865611,
            "lng": -86.6840579
          }
        },
        "location": {
          "lat": 38.8518863,
          "lng": -86.49965460000001
        },
        "location_type": "APPROXIMATE",
        "viewport": {
          "northeast": {
            "lat": 38.992404,
            "lng": -86.27528099999999
          },
          "southwest": {
            "lat": 38.6865611,
            "lng": -86.6840579
          }
        }
      },
      "place_id": "ChIJt_0uoAUWbIgRcfpwkrNuS7k",
      "types": [
        "administrative_area_level_2",
        "political"
      ]
    },
    {
      "address_components": [
        {
          "long_name": "Bedford",
          "short_name": "Bedford",
          "types": [
            "political"
          ]
        },
        {
          "long_name": "Indiana",
          "short_name": "IN",
          "types": [
            "administrative_area_level_1",
            "political"
          ]
        },
        {
          "long_name": "United States",
          "short_name": "US",
          "types": [
            "country",
            "political"
          ]
        }
      ],
      "formatted_address": "Bedford, IN, USA",
      "geometry": {
        "bounds": {
          "northeast": {
            "lat": 38.992404,
            "lng": -86.27528099999999
          },
          "southwest": {
            "lat": 38.6865611,
            "lng": -86.683577
          }
        },
        "location": {
          "lat": 38.8518863,
          "lng": -86.49965460000001
        },
        "location_type": "APPROXIMATE",
        "viewport": {
          "northeast": {
            "lat": 38.992404,
            "lng": -86.27528099999999
          },
          "southwest": {
            "lat": 38.6865611,
            "lng": -86.683577
          }
        }
      },
      "place_id": "ChIJIWv3tFwRbIgRW_VAxzfV0HI",
      "types": [
        "political"
      ]
    },
    {
      "address_components": [
        {
          "long_name": "Indiana",
          "short_name": "IN",
          "types": [
            "administrative_area_level_1",
            "political"
          ]
        },
        {
          "long_name": "United States",
          "short_name": "US",
          "types": [
            "country",
            "political"
          ]
        }
      ],
      "formatted_address": "Indiana, USA",
      "geometry": {
        "bounds": {
          "northeast": {
            "lat": 41.7606971,
            "lng": -84.784662
          },
          "southwest": {
            "lat": 37.7717419,
            "lng": -88.097892
          }
        },
        "location": {
          "lat": 40.2671941,
          "lng": -86.1349019
        },
        "location_type": "APPROXIMATE",
        "viewport": {
          "northeast": {
            "lat": 41.7606971,
            "lng": -84.784662
          },
          "southwest": {
            "lat": 37.7717419,
            "lng": -88.097892
          }
        }
      },
      "place_id": "ChIJHRv42bxQa4gRcuwyy84vEH4",
      "types": [
        "administrative_area_level_1",
        "political"
      ]
    },
    {
      "address_components": [
        {
          "long_name": "United States",
          "short_name": "US",
          "types": [
            "country",
            "political"
          ]
        }
      ],
      "formatted_address": "United States",
      "geometry": {
        "bounds": {
          "northeast": {
            "lat": 71.3867745,
            "lng": -66.9502861
          },
          "southwest": {
            "lat": 18.9106768,
            "lng": 172.4458955
          }
        },
        "location": {
          "lat": 37.09024,
          "lng": -95.712891
        },
        "location_type": "APPROXIMATE",
        "viewport": {
          "northeast": {
            "lat": 49.38,
            "lng": -66.94
          },
          "southwest": {
            "lat": 25.82,
            "lng": -124.39
          }
        }
      },
      "place_id": "ChIJCzYy5IS16lQRQrfeQ5K5Oxw",
      "types": [
        "country",
        "political"
      ]
    }
  ],
  "status": "OK"
}
