{
  "results": [
    {
      "address_components": [
        {
          "long_name": "210",
          "short_name": "210",
          "types": [
            "street_number"
          ]
        },
        {
          "long_name": "Main Delta Street",
          "short_name": "Main Delta St",
          "types": [
            "route"
          ]
        },
        {
          "long_name": "Advance",
          "short_name": "Advance",
          "types": [
            "locality",
            "political"
          ]
        },
        {
          "long_name": "Welch Township",
          "short_name": "Welch Township",
          "types": [
            "administrative_area_level_3",
            "political"
          ]
        },
        {
          "long_name": "Cape Girardeau County",
          "short_name": "Cape Girardeau County",
          "types": [
            "administrative_area_level_2",
            "political"
          ]
        },
        {
          "long_name": "Missouri",
          "short_name": "MO",
          "types": [
            "administrative_area_level_1",
            "political"
          ]
        },
        {
          "long_name": "United States",
          "short_name": "US",
          "types": [
            "country",
            "political"
          ]
        },
        {
          "long_name": "63730",
          "short_name": "63730",
          "types": [
            "postal_code"
          ]
        }
      ],
      "formatted_address": "210 Main Delta St, Advance, MO 63730, USA",
      "geometry": {
        "location": {
          "lat": 37.19732500000001,
          "lng": -89.739457
        },
        "location_type": "ROOFTOP",
        "viewport": {
          "northeast": {
            "lat": 37.19867398029151,
            "lng": -89.7381080197085
          },
          "southwest": {
            "lat": 37.19597601970851,
            "lng": -89.74080598029151
          }
        }
      },
      "place_id": "ChIJK9nfDScZeIgRBUc-xA9TPZs",
      "types": [
        "street_address"
      ]
    },
    {
      "address_components": [
        {
          "long_name": "Delta",
          "short_name": "Delta",
          "types": [
            "locality",
            "political"
          ]
        },
        {
          "long_name": "Welch Township",
          "short_name": "Welch Township",
          "types": [
            "administrative_area_level_3",
            "political"
          ]
        },
        {
          "long_name": "Cape Girardeau County",
          "short_name": "Cape Girardeau County",
          "types": [
            "administrative_area_level_2",
            "political"
          ]
        },
        {
          "long_name": "Missouri",
          "short_name": "MO",
          "types": [
            "administrative_area_level_1",
            "political"
          ]
        },
        {
          "long_name": "United States",
          "short_name": "US",
          "types": [
            "country",
            "political"
          ]
        }
      ],
      "formatted_address": "Delta, MO, USA",
      "geometry": {
        "bounds": {
          "northeast": {
            "lat": 37.205423,
            "lng": -89.7313041
          },
          "southwest": {
            "lat": 37.191258,
            "lng": -89.74815000000001
          }
        },
        "location": {
          "lat": 37.1967187,
          "lng": -89.7362026
        },
        "location_type": "APPROXIMATE",
        "viewport": {
          "northeast": {
            "lat": 37.205423,
            "lng": -89.7313041
          },
          "southwest": {
            "lat": 37.191258,
            "lng": -89.74815000000001
          }
        }
      },
      "place_id": "ChIJa6LmlCcZeIgRU1X4t7XgjDI",
      "types": [
        "locality",
        "political"
      ]
    },
    {
      "address_components": [
        {
          "long_name": "Welch Township",
          "short_name": "Welch Township",
          "types": [
            "administrative_area_level_3",
            "political"
          ]
        },
        {
          "long_name": "Cape Girardeau County",
          "short_name": "Cape Girardeau County",
          "types": [
            "administrative_area_level_2",
            "political"
          ]
        },
        {
          "long_name": "Missouri",
          "short_name": "MO",
          "types": [
            "administrative_area_level_1",
            "political"
          ]
        },
        {
          "long_name": "United States",
          "short_name": "US",
          "types": [
            "country",
            "political"
          ]
        }
      ],
      "formatted_address": "Welch Township, MO, USA",
      "geometry": {
        "bounds": {
          "northeast": {
            "lat": 37.2338989,
            "lng": -89.657197
          },
          "southwest": {
            "lat": 37.126038,
            "lng": -89.86672109999999
          }
        },
        "location": {
          "lat": 37.189913,
          "lng": -89.7567693
        },
        "location_type": "APPROXIMATE",
        "viewport": {
          "northeast": {
            "lat": 37.2338989,
            "lng": -89.657197
          },
          "southwest": {
            "lat": 37.126038,
            "lng": -89.86672109999999
          }
        }
      },
      "place_id": "ChIJ1emTD24ZeIgRqWEEoSSTv2E",
      "types": [
        "administrative_area_level_3",
        "political"
      ]
    },
    {
      "address_components": [
        {
          "long_name": "63730",
          "short_name": "63730",
          "types": [
            "postal_code"
          ]
        },
        {
          "long_name": "Advance",
          "short_name": "Advance",
          "types": [
            "locality",
            "political"
          ]
        },
        {
          "long_name": "Missouri",
          "short_name": "MO",
          "types": [
            "administrative_area_level_1",
            "political"
          ]
        },
        {
          "long_name": "United States",
          "short_name": "US",
          "types": [
            "country",
            "political"
          ]
        }
      ],
      "formatted_address": "Advance, MO 63730, USA",
      "geometry": {
        "bounds": {
          "northeast": {
            "lat": 37.224875,
            "lng": -89.7357169
          },
          "southwest": {
            "lat": 36.948119,
            "lng": -90.0320991
          }
        },
        "location": {
          "lat": 37.1044912,
          "lng": -89.91063770000001
        },
        "location_type": "APPROXIMATE",
        "viewport": {
          "northeast": {
            "lat": 37.224875,
            "lng": -89.7357169
          },
          "southwest": {
            "lat": 36.948119,
            "lng": -90.0320991
          }
        }
      },
      "place_id": "ChIJdZ3PLwMPeIgR0qeXlNtURBA",
      "types": [
        "postal_code"
      ]
    },
    {
      "address_components": [
        {
          "long_name": "Cape Girardeau County",
          "short_name": "Cape Girardeau County",
          "types": [
            "administrative_area_level_2",
            "political"
          ]
        },
        {
          "long_name": "Missouri",
          "short_name": "MO",
          "types": [
            "administrative_area_level_1",
            "political"
          ]
        },
        {
          "long_name": "United States",
          "short_name": "US",
          "types": [
            "country",
            "political"
          ]
        }
      ],
      "formatted_address": "Cape Girardeau County, MO, USA",
      "geometry": {
        "bounds": {
          "northeast": {
            "lat": 37.606356,
            "lng": -89.421054
          },
          "southwest": {
            "lat": 37.126038,
            "lng": -89.8668
          }
        },
        "location": {
          "lat": 37.3821319,
          "lng": -89.62516459999999
        },
        "location_type": "APPROXIMATE",
        "viewport": {
          "northeast": {
            "lat": 37.606356,
            "lng": -89.421054
          },
          "southwest": {
            "lat": 37.126038,
            "lng": -89.8668
          }
        }
      },
      "place_id": "ChIJ7Q-pZvyOd4gRAb-nUYfMqhM",
      "types": [
        "administrative_area_level_2",
        "political"
      ]
    },
    {
      "address_components": [
        {
          "long_name": "Missouri",
          "short_name": "MO",
          "types": [
            "administrative_area_level_1",
            "political"
          ]
        },
        {
          "long_name": "United States",
          "short_name": "US",
          "types": [
            "country",
            "political"
          ]
        }
      ],
      "formatted_address": "Missouri, USA",
      "geometry": {
        "bounds": {
          "northeast": {
            "lat": 40.61364,
            "lng": -89.09949399999999
          },
          "southwest": {
            "lat": 35.9956829,
            "lng": -95.774704
          }
        },
        "location": {
          "lat": 37.9642529,
          "lng": -91.8318334
        },
        "location_type": "APPROXIMATE",
        "viewport": {
          "northeast": {
            "lat": 40.61364,
            "lng": -89.09949399999999
          },
          "southwest": {
            "lat": 35.9956829,
            "lng": -95.774704
          }
        }
      },
      "place_id": "ChIJfeMiSNXmwIcRcr1mBFnEW7U",
      "types": [
        "administrative_area_level_1",
        "political"
      ]
    },
    {
      "address_components": [
        {
          "long_name": "United States",
          "short_name": "US",
          "types": [
            "country",
            "political"
          ]
        }
      ],
      "formatted_address": "United States",
      "geometry": {
        "bounds": {
          "northeast": {
            "lat": 71.3867745,
            "lng": -66.9502861
          },
          "southwest": {
            "lat": 18.9106768,
            "lng": 172.4458955
          }
        },
        "location": {
          "lat": 37.09024,
          "lng": -95.712891
        },
        "location_type": "APPROXIMATE",
        "viewport": {
          "northeast": {
            "lat": 49.38,
            "lng": -66.94
          },
          "southwest": {
            "lat": 25.82,
            "lng": -124.39
          }
        }
      },
      "place_id": "ChIJCzYy5IS16lQRQrfeQ5K5Oxw",
      "types": [
        "country",
        "political"
      ]
    }
  ],
  "status": "OK"
}
