{
  "results": [
    {
      "address_components": [
        {
          "long_name": "North Street",
          "short_name": "North St",
          "types": [
            "route"
          ]
        },
        {
          "long_name": "Bucyrus",
          "short_name": "Bucyrus",
          "types": [
            "locality",
            "political"
          ]
        },
        {
          "long_name": "Liberty Township",
          "short_name": "Liberty Township",
          "types": [
            "administrative_area_level_3",
            "political"
          ]
        },
        {
          "long_name": "Crawford County",
          "short_name": "Crawford County",
          "types": [
            "administrative_area_level_2",
            "political"
          ]
        },
        {
          "long_name": "Ohio",
          "short_name": "OH",
          "types": [
            "administrative_area_level_1",
            "political"
          ]
        },
        {
          "long_name": "United States",
          "short_name": "US",
          "types": [
            "country",
            "political"
          ]
        },
        {
          "long_name": "44820",
          "short_name": "44820",
          "types": [
            "postal_code"
          ]
        }
      ],
      "formatted_address": "North St, Bucyrus, OH 44820, USA",
      "geometry": {
        "bounds": {
          "northeast": {
            "lat": 40.87254,
            "lng": -82.875759
          },
          "southwest": {
            "lat": 40.8720193,
            "lng": -82.876767
          }
        },
        "location": {
          "lat": 40.87227970000001,
          "lng": -82.876263
        },
        "location_type": "GEOMETRIC_CENTER",
        "viewport": {
          "northeast": {
            "lat": 40.8736286302915,
            "lng": -82.8749140197085
          },
          "southwest": {
            "lat": 40.8709306697085,
            "lng": -82.8776119802915
          }
        }
      },
      "place_id": "ChIJC2dHXhCdOYgRm8lfcIHd0Go",
      "types": [
        "route"
      ]
    },
    {
      "address_components": [
        {
          "long_name": "Liberty Township",
          "short_name": "Liberty Township",
          "types": [
            "administrative_area_level_3",
            "political"
          ]
        },
        {
          "long_name": "Crawford County",
          "short_name": "Crawford County",
          "types": [
            "administrative_area_level_2",
            "political"
          ]
        },
        {
          "long_name": "Ohio",
          "short_name": "OH",
          "types": [
            "administrative_area_level_1",
            "political"
          ]
        },
        {
          "long_name": "United States",
          "short_name": "US",
          "types": [
            "country",
            "political"
          ]
        }
      ],
      "formatted_address": "Liberty Township, OH, USA",
      "geometry": {
        "bounds": {
          "northeast": {
            "lat": 40.9072369,
            "lng": -82.85455189999999
          },
          "southwest": {
            "lat": 40.8194475,
            "lng": -82.9597309
          }
        },
        "location": {
          "lat": 40.8806112,
          "lng": -82.8855961
        },
        "location_type": "APPROXIMATE",
        "viewport": {
          "northeast": {
            "lat": 40.9072369,
            "lng": -82.85455189999999
          },
          "southwest": {
            "lat": 40.8194475,
            "lng": -82.9597309
          }
        }
      },
      "place_id": "ChIJGd3jYdV3OYgRHXk8PDya0JA",
      "types": [
        "administrative_area_level_3",
        "political"
      ]
    },
    {
      "address_components": [
        {
          "long_name": "44820",
          "short_name": "44820",
          "types": [
            "postal_code"
          ]
        },
        {
          "long_name": "Bucyrus",
          "short_name": "Bucyrus",
          "types": [
            "locality",
            "political"
          ]
        },
        {
          "long_name": "Ohio",
          "short_name": "OH",
          "types": [
            "administrative_area_level_1",
            "political"
          ]
        },
        {
          "long_name": "United States",
          "short_name": "US",
          "types": [
            "country",
            "political"
          ]
        }
      ],
      "formatted_address": "Bucyrus, OH 44820, USA",
      "geometry": {
        "bounds": {
          "northeast": {
            "lat": 40.935854,
            "lng": -82.80814
          },
          "southwest": {
            "lat": 40.697223,
            "lng": -83.1118149
          }
        },
        "location": {
          "lat": 40.86445519999999,
          "lng": -82.95015579999999
        },
        "location_type": "APPROXIMATE",
        "viewport": {
          "northeast": {
            "lat": 40.935854,
            "lng": -82.80814
          },
          "southwest": {
            "lat": 40.697223,
            "lng": -83.1118149
          }
        }
      },
      "place_id": "ChIJTxolgRh0OYgRjAv16f0DD0k",
      "types": [
        "postal_code"
      ]
    },
    {
      "address_components": [
        {
          "long_name": "Bucyrus",
          "short_name": "Bucyrus",
          "types": [
            "political"
          ]
        },
        {
          "long_name": "Ohio",
          "short_name": "OH",
          "types": [
            "administrative_area_level_1",
            "political"
          ]
        },
        {
          "long_name": "United States",
          "short_name": "US",
          "types": [
            "country",
            "political"
          ]
        }
      ],
      "formatted_address": "Bucyrus, OH, USA",
      "geometry": {
        "bounds": {
          "northeast": {
            "lat": 40.997176,
            "lng": -82.724243
          },
          "southwest": {
            "lat": 40.7028739,
            "lng": -83.11266789999999
          }
        },
        "location": {
          "lat": 40.8268068,
          "lng": -82.99316069999999
        },
        "location_type": "APPROXIMATE",
        "viewport": {
          "northeast": {
            "lat": 40.997176,
            "lng": -82.724243
          },
          "southwest": {
            "lat": 40.7028739,
            "lng": -83.11266789999999
          }
        }
      },
      "place_id": "ChIJYSJO7jp2OYgRDCM0T1HSPrc",
      "types": [
        "political"
      ]
    },
    {
      "address_components": [
        {
          "long_name": "Crawford County",
          "short_name": "Crawford County",
          "types": [
            "administrative_area_level_2",
            "political"
          ]
        },
        {
          "long_name": "Ohio",
          "short_name": "OH",
          "types": [
            "administrative_area_level_1",
            "political"
          ]
        },
        {
          "long_name": "United States",
          "short_name": "US",
          "types": [
            "country",
            "political"
          ]
        }
      ],
      "formatted_address": "Crawford County, OH, USA",
      "geometry": {
        "bounds": {
          "northeast": {
            "lat": 40.996943,
            "lng": -82.7241839
          },
          "southwest": {
            "lat": 40.7025499,
            "lng": -83.1127449
          }
        },
        "location": {
          "lat": 40.8268068,
          "lng": -82.99316069999999
        },
        "location_type": "APPROXIMATE",
        "viewport": {
          "northeast": {
            "lat": 40.996943,
            "lng": -82.7241839
          },
          "southwest": {
            "lat": 40.7025499,
            "lng": -83.1127449
          }
        }
      },
      "place_id": "ChIJn6s3eqydOYgR-xZdtX4vIRo",
      "types": [
        "administrative_area_level_2",
        "political"
      ]
    },
    {
      "address_components": [
        {
          "long_name": "Ohio",
          "short_name": "OH",
          "types": [
            "administrative_area_level_1",
            "political"
          ]
        },
        {
          "long_name": "United States",
          "short_name": "US",
          "types": [
            "country",
            "political"
          ]
        }
      ],
      "formatted_address": "Ohio, USA",
      "geometry": {
        "bounds": {
          "northeast": {
            "lat": 41.9773019,
            "lng": -80.5182
          },
          "southwest": {
            "lat": 38.4034229,
            "lng": -84.8203049
          }
        },
        "location": {
          "lat": 40.4172871,
          "lng": -82.90712300000001
        },
        "location_type": "APPROXIMATE",
        "viewport": {
          "northeast": {
            "lat": 41.9773019,
            "lng": -80.5182
          },
          "southwest": {
            "lat": 38.4034229,
            "lng": -84.8203049
          }
        }
      },
      "place_id": "ChIJwY5NtXrpNogRFtmfnDlkzeU",
      "types": [
        "administrative_area_level_1",
        "political"
      ]
    },
    {
      "address_components": [
        {
          "long_name": "United States",
          "short_name": "US",
          "types": [
            "country",
            "political"
          ]
        }
      ],
      "formatted_address": "United States",
      "geometry": {
        "bounds": {
          "northeast": {
            "lat": 71.3867745,
            "lng": -66.9502861
          },
          "southwest": {
            "lat": 18.9106768,
            "lng": 172.4458955
          }
        },
        "location": {
          "lat": 37.09024,
          "lng": -95.712891
        },
        "location_type": "APPROXIMATE",
        "viewport": {
          "northeast": {
            "lat": 49.38,
            "lng": -66.94
          },
          "southwest": {
            "lat": 25.82,
            "lng": -124.39
          }
        }
      },
      "place_id": "ChIJCzYy5IS16lQRQrfeQ5K5Oxw",
      "types": [
        "country",
        "political"
      ]
    }
  ],
  "status": "OK"
}
