{
  "results": [
    {
      "address_components": [
        {
          "long_name": "100-198",
          "short_name": "100-198",
          "types": [
            "street_number"
          ]
        },
        {
          "long_name": "North Singer Street",
          "short_name": "N Singer St",
          "types": [
            "route"
          ]
        },
        {
          "long_name": "Carlisle",
          "short_name": "Carlisle",
          "types": [
            "locality",
            "political"
          ]
        },
        {
          "long_name": "Haddon Township",
          "short_name": "Haddon Township",
          "types": [
            "administrative_area_level_3",
            "political"
          ]
        },
        {
          "long_name": "Sullivan County",
          "short_name": "Sullivan County",
          "types": [
            "administrative_area_level_2",
            "political"
          ]
        },
        {
          "long_name": "Indiana",
          "short_name": "IN",
          "types": [
            "administrative_area_level_1",
            "political"
          ]
        },
        {
          "long_name": "United States",
          "short_name": "US",
          "types": [
            "country",
            "political"
          ]
        },
        {
          "long_name": "47838",
          "short_name": "47838",
          "types": [
            "postal_code"
          ]
        },
        {
          "long_name": "8132",
          "short_name": "8132",
          "types": [
            "postal_code_suffix"
          ]
        }
      ],
      "formatted_address": "100-198 N Singer St, Carlisle, IN 47838, USA",
      "geometry": {
        "bounds": {
          "northeast": {
            "lat": 38.9613546,
            "lng": -87.4008628
          },
          "southwest": {
            "lat": 38.9606977,
            "lng": -87.401952
          }
        },
        "location": {
          "lat": 38.9609152,
          "lng": -87.4015608
        },
        "location_type": "RANGE_INTERPOLATED",
        "viewport": {
          "northeast": {
            "lat": 38.9623751302915,
            "lng": -87.40005841970849
          },
          "southwest": {
            "lat": 38.95967716970851,
            "lng": -87.40275638029149
          }
        }
      },
      "place_id": "EiwxMDAtMTk4IE4gU2luZ2VyIFN0LCBDYXJsaXNsZSwgSU4gNDc4MzgsIFVTQQ",
      "types": [
        "street_address"
      ]
    },
    {
      "address_components": [
        {
          "long_name": "Carlisle",
          "short_name": "Carlisle",
          "types": [
            "locality",
            "political"
          ]
        },
        {
          "long_name": "Haddon Township",
          "short_name": "Haddon Township",
          "types": [
            "administrative_area_level_3",
            "political"
          ]
        },
        {
          "long_name": "Sullivan County",
          "short_name": "Sullivan County",
          "types": [
            "administrative_area_level_2",
            "political"
          ]
        },
        {
          "long_name": "Indiana",
          "short_name": "IN",
          "types": [
            "administrative_area_level_1",
            "political"
          ]
        },
        {
          "long_name": "United States",
          "short_name": "US",
          "types": [
            "country",
            "political"
          ]
        },
        {
          "long_name": "47838",
          "short_name": "47838",
          "types": [
            "postal_code"
          ]
        }
      ],
      "formatted_address": "Carlisle, IN 47838, USA",
      "geometry": {
        "bounds": {
          "northeast": {
            "lat": 38.968285,
            "lng": -87.3947549
          },
          "southwest": {
            "lat": 38.948467,
            "lng": -87.409566
          }
        },
        "location": {
          "lat": 38.9623034,
          "lng": -87.40255719999999
        },
        "location_type": "APPROXIMATE",
        "viewport": {
          "northeast": {
            "lat": 38.968285,
            "lng": -87.3947549
          },
          "southwest": {
            "lat": 38.948467,
            "lng": -87.409566
          }
        }
      },
      "place_id": "ChIJ9XtQ2jSNbYgR3_dy-u0pyKI",
      "types": [
        "locality",
        "political"
      ]
    },
    {
      "address_components": [
        {
          "long_name": "Haddon Township",
          "short_name": "Haddon Township",
          "types": [
            "administrative_area_level_3",
            "political"
          ]
        },
        {
          "long_name": "Sullivan County",
          "short_name": "Sullivan County",
          "types": [
            "administrative_area_level_2",
            "political"
          ]
        },
        {
          "long_name": "Indiana",
          "short_name": "IN",
          "types": [
            "administrative_area_level_1",
            "political"
          ]
        },
        {
          "long_name": "United States",
          "short_name": "US",
          "types": [
            "country",
            "political"
          ]
        }
      ],
      "formatted_address": "Haddon Township, IN, USA",
      "geometry": {
        "bounds": {
          "northeast": {
            "lat": 39.0398158,
            "lng": -87.3149799
          },
          "southwest": {
            "lat": 38.9016319,
            "lng": -87.5279099
          }
        },
        "location": {
          "lat": 38.9379759,
          "lng": -87.4009165
        },
        "location_type": "APPROXIMATE",
        "viewport": {
          "northeast": {
            "lat": 39.0398158,
            "lng": -87.3149799
          },
          "southwest": {
            "lat": 38.9016319,
            "lng": -87.5279099
          }
        }
      },
      "place_id": "ChIJu_UXEtiMbYgRJY9tzMr0hxI",
      "types": [
        "administrative_area_level_3",
        "political"
      ]
    },
    {
      "address_components": [
        {
          "long_name": "47838",
          "short_name": "47838",
          "types": [
            "postal_code"
          ]
        },
        {
          "long_name": "Carlisle",
          "short_name": "Carlisle",
          "types": [
            "locality",
            "political"
          ]
        },
        {
          "long_name": "Indiana",
          "short_name": "IN",
          "types": [
            "administrative_area_level_1",
            "political"
          ]
        },
        {
          "long_name": "United States",
          "short_name": "US",
          "types": [
            "country",
            "political"
          ]
        }
      ],
      "formatted_address": "Carlisle, IN 47838, USA",
      "geometry": {
        "bounds": {
          "northeast": {
            "lat": 39.0320759,
            "lng": -87.230919
          },
          "southwest": {
            "lat": 38.9016389,
            "lng": -87.542672
          }
        },
        "location": {
          "lat": 38.9788069,
          "lng": -87.3612205
        },
        "location_type": "APPROXIMATE",
        "viewport": {
          "northeast": {
            "lat": 39.0320759,
            "lng": -87.230919
          },
          "southwest": {
            "lat": 38.9016389,
            "lng": -87.542672
          }
        }
      },
      "place_id": "ChIJrU16MlmNbYgRApk-JCBc12U",
      "types": [
        "postal_code"
      ]
    },
    {
      "address_components": [
        {
          "long_name": "Sullivan County",
          "short_name": "Sullivan County",
          "types": [
            "administrative_area_level_2",
            "political"
          ]
        },
        {
          "long_name": "Indiana",
          "short_name": "IN",
          "types": [
            "administrative_area_level_1",
            "political"
          ]
        },
        {
          "long_name": "United States",
          "short_name": "US",
          "types": [
            "country",
            "political"
          ]
        }
      ],
      "formatted_address": "Sullivan County, IN, USA",
      "geometry": {
        "bounds": {
          "northeast": {
            "lat": 39.2594959,
            "lng": -87.2403709
          },
          "southwest": {
            "lat": 38.9014529,
            "lng": -87.6587459
          }
        },
        "location": {
          "lat": 39.08431220000001,
          "lng": -87.42075179999999
        },
        "location_type": "APPROXIMATE",
        "viewport": {
          "northeast": {
            "lat": 39.2594959,
            "lng": -87.2403709
          },
          "southwest": {
            "lat": 38.9014529,
            "lng": -87.6587459
          }
        }
      },
      "place_id": "ChIJv7Iy-AKPbYgR73hk9ONsvUg",
      "types": [
        "administrative_area_level_2",
        "political"
      ]
    },
    {
      "address_components": [
        {
          "long_name": "Terre Haute",
          "short_name": "Terre Haute",
          "types": [
            "political"
          ]
        },
        {
          "long_name": "United States",
          "short_name": "US",
          "types": [
            "country",
            "political"
          ]
        }
      ],
      "formatted_address": "Terre Haute, USA",
      "geometry": {
        "bounds": {
          "northeast": {
            "lat": 40.148421,
            "lng": -86.939981
          },
          "southwest": {
            "lat": 38.901575,
            "lng": -87.6459896
          }
        },
        "location": {
          "lat": 39.3724131,
          "lng": -87.30161319999999
        },
        "location_type": "APPROXIMATE",
        "viewport": {
          "northeast": {
            "lat": 40.148421,
            "lng": -86.939981
          },
          "southwest": {
            "lat": 38.901575,
            "lng": -87.6459896
          }
        }
      },
      "place_id": "ChIJRe-oBt9wbYgRGBsFhwro7sc",
      "types": [
        "political"
      ]
    },
    {
      "address_components": [
        {
          "long_name": "Indiana",
          "short_name": "IN",
          "types": [
            "administrative_area_level_1",
            "political"
          ]
        },
        {
          "long_name": "United States",
          "short_name": "US",
          "types": [
            "country",
            "political"
          ]
        }
      ],
      "formatted_address": "Indiana, USA",
      "geometry": {
        "bounds": {
          "northeast": {
            "lat": 41.7606971,
            "lng": -84.784662
          },
          "southwest": {
            "lat": 37.7717419,
            "lng": -88.097892
          }
        },
        "location": {
          "lat": 40.2671941,
          "lng": -86.1349019
        },
        "location_type": "APPROXIMATE",
        "viewport": {
          "northeast": {
            "lat": 41.7606971,
            "lng": -84.784662
          },
          "southwest": {
            "lat": 37.7717419,
            "lng": -88.097892
          }
        }
      },
      "place_id": "ChIJHRv42bxQa4gRcuwyy84vEH4",
      "types": [
        "administrative_area_level_1",
        "political"
      ]
    },
    {
      "address_components": [
        {
          "long_name": "United States",
          "short_name": "US",
          "types": [
            "country",
            "political"
          ]
        }
      ],
      "formatted_address": "United States",
      "geometry": {
        "bounds": {
          "northeast": {
            "lat": 71.3867745,
            "lng": -66.9502861
          },
          "southwest": {
            "lat": 18.9106768,
            "lng": 172.4458955
          }
        },
        "location": {
          "lat": 37.09024,
          "lng": -95.712891
        },
        "location_type": "APPROXIMATE",
        "viewport": {
          "northeast": {
            "lat": 49.38,
            "lng": -66.94
          },
          "southwest": {
            "lat": 25.82,
            "lng": -124.39
          }
        }
      },
      "place_id": "ChIJCzYy5IS16lQRQrfeQ5K5Oxw",
      "types": [
        "country",
        "political"
      ]
    }
  ],
  "status": "OK"
}
