{
  "results": [
    {
      "address_components": [
        {
          "long_name": "River Road",
          "short_name": "River Rd",
          "types": [
            "route"
          ]
        },
        {
          "long_name": "Patoka",
          "short_name": "Patoka",
          "types": [
            "locality",
            "political"
          ]
        },
        {
          "long_name": "White River Township",
          "short_name": "White River Township",
          "types": [
            "administrative_area_level_3",
            "political"
          ]
        },
        {
          "long_name": "Gibson County",
          "short_name": "Gibson County",
          "types": [
            "administrative_area_level_2",
            "political"
          ]
        },
        {
          "long_name": "Indiana",
          "short_name": "IN",
          "types": [
            "administrative_area_level_1",
            "political"
          ]
        },
        {
          "long_name": "United States",
          "short_name": "US",
          "types": [
            "country",
            "political"
          ]
        },
        {
          "long_name": "47666",
          "short_name": "47666",
          "types": [
            "postal_code"
          ]
        }
      ],
      "formatted_address": "River Rd, Patoka, IN 47666, USA",
      "geometry": {
        "bounds": {
          "northeast": {
            "lat": 38.402002,
            "lng": -87.5869568
          },
          "southwest": {
            "lat": 38.4013694,
            "lng": -87.5877574
          }
        },
        "location": {
          "lat": 38.4016702,
          "lng": -87.58733629999999
        },
        "location_type": "GEOMETRIC_CENTER",
        "viewport": {
          "northeast": {
            "lat": 38.4030346802915,
            "lng": -87.5860081197085
          },
          "southwest": {
            "lat": 38.40033671970851,
            "lng": -87.5887060802915
          }
        }
      },
      "place_id": "ChIJV9toOrfjcYgR9nvEnTyHzYo",
      "types": [
        "route"
      ]
    },
    {
      "address_components": [
        {
          "long_name": "Patoka",
          "short_name": "Patoka",
          "types": [
            "locality",
            "political"
          ]
        },
        {
          "long_name": "White River Township",
          "short_name": "White River Township",
          "types": [
            "administrative_area_level_3",
            "political"
          ]
        },
        {
          "long_name": "Gibson County",
          "short_name": "Gibson County",
          "types": [
            "administrative_area_level_2",
            "political"
          ]
        },
        {
          "long_name": "Indiana",
          "short_name": "IN",
          "types": [
            "administrative_area_level_1",
            "political"
          ]
        },
        {
          "long_name": "United States",
          "short_name": "US",
          "types": [
            "country",
            "political"
          ]
        },
        {
          "long_name": "47666",
          "short_name": "47666",
          "types": [
            "postal_code"
          ]
        }
      ],
      "formatted_address": "Patoka, IN 47666, USA",
      "geometry": {
        "bounds": {
          "northeast": {
            "lat": 38.4139159,
            "lng": -87.579144
          },
          "southwest": {
            "lat": 38.391428,
            "lng": -87.598519
          }
        },
        "location": {
          "lat": 38.4069908,
          "lng": -87.5855787
        },
        "location_type": "APPROXIMATE",
        "viewport": {
          "northeast": {
            "lat": 38.4139159,
            "lng": -87.579144
          },
          "southwest": {
            "lat": 38.391428,
            "lng": -87.598519
          }
        }
      },
      "place_id": "ChIJv3BDsBTjcYgRO_NW-wVTMTg",
      "types": [
        "locality",
        "political"
      ]
    },
    {
      "address_components": [
        {
          "long_name": "White River Township",
          "short_name": "White River Township",
          "types": [
            "administrative_area_level_3",
            "political"
          ]
        },
        {
          "long_name": "Gibson County",
          "short_name": "Gibson County",
          "types": [
            "administrative_area_level_2",
            "political"
          ]
        },
        {
          "long_name": "Indiana",
          "short_name": "IN",
          "types": [
            "administrative_area_level_1",
            "political"
          ]
        },
        {
          "long_name": "United States",
          "short_name": "US",
          "types": [
            "country",
            "political"
          ]
        }
      ],
      "formatted_address": "White River Township, IN, USA",
      "geometry": {
        "bounds": {
          "northeast": {
            "lat": 38.5183959,
            "lng": -87.5231149
          },
          "southwest": {
            "lat": 38.3913829,
            "lng": -87.7594019
          }
        },
        "location": {
          "lat": 38.4386406,
          "lng": -87.55936129999999
        },
        "location_type": "APPROXIMATE",
        "viewport": {
          "northeast": {
            "lat": 38.5183959,
            "lng": -87.5231149
          },
          "southwest": {
            "lat": 38.3913829,
            "lng": -87.7594019
          }
        }
      },
      "place_id": "ChIJT-ugVsjkcYgR2UJcVybLphs",
      "types": [
        "administrative_area_level_3",
        "political"
      ]
    },
    {
      "address_components": [
        {
          "long_name": "47666",
          "short_name": "47666",
          "types": [
            "postal_code"
          ]
        },
        {
          "long_name": "Patoka",
          "short_name": "Patoka",
          "types": [
            "locality",
            "political"
          ]
        },
        {
          "long_name": "Indiana",
          "short_name": "IN",
          "types": [
            "administrative_area_level_1",
            "political"
          ]
        },
        {
          "long_name": "United States",
          "short_name": "US",
          "types": [
            "country",
            "political"
          ]
        }
      ],
      "formatted_address": "Patoka, IN 47666, USA",
      "geometry": {
        "bounds": {
          "northeast": {
            "lat": 38.4759959,
            "lng": -87.4073311
          },
          "southwest": {
            "lat": 38.370185,
            "lng": -87.6730099
          }
        },
        "location": {
          "lat": 38.4279201,
          "lng": -87.5494745
        },
        "location_type": "APPROXIMATE",
        "viewport": {
          "northeast": {
            "lat": 38.4759959,
            "lng": -87.4073311
          },
          "southwest": {
            "lat": 38.370185,
            "lng": -87.6730099
          }
        }
      },
      "place_id": "ChIJdVJKnqDjcYgRhXjSX7zJ62w",
      "types": [
        "postal_code"
      ]
    },
    {
      "address_components": [
        {
          "long_name": "Gibson County",
          "short_name": "Gibson County",
          "types": [
            "administrative_area_level_2",
            "political"
          ]
        },
        {
          "long_name": "Indiana",
          "short_name": "IN",
          "types": [
            "administrative_area_level_1",
            "political"
          ]
        },
        {
          "long_name": "United States",
          "short_name": "US",
          "types": [
            "country",
            "political"
          ]
        }
      ],
      "formatted_address": "Gibson County, IN, USA",
      "geometry": {
        "bounds": {
          "northeast": {
            "lat": 38.533519,
            "lng": -87.3156609
          },
          "southwest": {
            "lat": 38.165379,
            "lng": -87.988164
          }
        },
        "location": {
          "lat": 38.3338249,
          "lng": -87.5791287
        },
        "location_type": "APPROXIMATE",
        "viewport": {
          "northeast": {
            "lat": 38.533519,
            "lng": -87.3156609
          },
          "southwest": {
            "lat": 38.165379,
            "lng": -87.988164
          }
        }
      },
      "place_id": "ChIJfwz5VGHecYgR30TbEUcrKlM",
      "types": [
        "administrative_area_level_2",
        "political"
      ]
    },
    {
      "address_components": [
        {
          "long_name": "Evansville",
          "short_name": "Evansville",
          "types": [
            "political"
          ]
        },
        {
          "long_name": "United States",
          "short_name": "US",
          "types": [
            "country",
            "political"
          ]
        }
      ],
      "formatted_address": "Evansville, USA",
      "geometry": {
        "bounds": {
          "northeast": {
            "lat": 38.533519,
            "lng": -87.0174159
          },
          "southwest": {
            "lat": 37.3506131,
            "lng": -88.0584993
          }
        },
        "location": {
          "lat": 38.039119,
          "lng": -87.6186379
        },
        "location_type": "APPROXIMATE",
        "viewport": {
          "northeast": {
            "lat": 38.533519,
            "lng": -87.0174159
          },
          "southwest": {
            "lat": 37.3506131,
            "lng": -88.0584993
          }
        }
      },
      "place_id": "ChIJNRdJ3uvUcYgRV_cxqvYP-PA",
      "types": [
        "political"
      ]
    },
    {
      "address_components": [
        {
          "long_name": "Indiana",
          "short_name": "IN",
          "types": [
            "administrative_area_level_1",
            "political"
          ]
        },
        {
          "long_name": "United States",
          "short_name": "US",
          "types": [
            "country",
            "political"
          ]
        }
      ],
      "formatted_address": "Indiana, USA",
      "geometry": {
        "bounds": {
          "northeast": {
            "lat": 41.7606971,
            "lng": -84.784662
          },
          "southwest": {
            "lat": 37.7717419,
            "lng": -88.097892
          }
        },
        "location": {
          "lat": 40.2671941,
          "lng": -86.1349019
        },
        "location_type": "APPROXIMATE",
        "viewport": {
          "northeast": {
            "lat": 41.7606971,
            "lng": -84.784662
          },
          "southwest": {
            "lat": 37.7717419,
            "lng": -88.097892
          }
        }
      },
      "place_id": "ChIJHRv42bxQa4gRcuwyy84vEH4",
      "types": [
        "administrative_area_level_1",
        "political"
      ]
    },
    {
      "address_components": [
        {
          "long_name": "United States",
          "short_name": "US",
          "types": [
            "country",
            "political"
          ]
        }
      ],
      "formatted_address": "United States",
      "geometry": {
        "bounds": {
          "northeast": {
            "lat": 71.3867745,
            "lng": -66.9502861
          },
          "southwest": {
            "lat": 18.9106768,
            "lng": 172.4458955
          }
        },
        "location": {
          "lat": 37.09024,
          "lng": -95.712891
        },
        "location_type": "APPROXIMATE",
        "viewport": {
          "northeast": {
            "lat": 49.38,
            "lng": -66.94
          },
          "southwest": {
            "lat": 25.82,
            "lng": -124.39
          }
        }
      },
      "place_id": "ChIJCzYy5IS16lQRQrfeQ5K5Oxw",
      "types": [
        "country",
        "political"
      ]
    }
  ],
  "status": "OK"
}
