{
  "results": [
    {
      "address_components": [
        {
          "long_name": "157",
          "short_name": "157",
          "types": [
            "street_number"
          ]
        },
        {
          "long_name": "Britton Lane",
          "short_name": "Britton Ln",
          "types": [
            "route"
          ]
        },
        {
          "long_name": "Monroe",
          "short_name": "Monroe",
          "types": [
            "locality",
            "political"
          ]
        },
        {
          "long_name": "Lemon Township",
          "short_name": "Lemon Township",
          "types": [
            "administrative_area_level_3",
            "political"
          ]
        },
        {
          "long_name": "Butler County",
          "short_name": "Butler County",
          "types": [
            "administrative_area_level_2",
            "political"
          ]
        },
        {
          "long_name": "Ohio",
          "short_name": "OH",
          "types": [
            "administrative_area_level_1",
            "political"
          ]
        },
        {
          "long_name": "United States",
          "short_name": "US",
          "types": [
            "country",
            "political"
          ]
        },
        {
          "long_name": "45050",
          "short_name": "45050",
          "types": [
            "postal_code"
          ]
        },
        {
          "long_name": "1140",
          "short_name": "1140",
          "types": [
            "postal_code_suffix"
          ]
        }
      ],
      "formatted_address": "157 Britton Ln, Monroe, OH 45050, USA",
      "geometry": {
        "location": {
          "lat": 39.446059,
          "lng": -84.366929
        },
        "location_type": "ROOFTOP",
        "viewport": {
          "northeast": {
            "lat": 39.44740798029149,
            "lng": -84.36558001970849
          },
          "southwest": {
            "lat": 39.44471001970849,
            "lng": -84.36827798029151
          }
        }
      },
      "place_id": "ChIJyy7q-BBcQIgRrDSNMrlEpig",
      "types": [
        "street_address"
      ]
    },
    {
      "address_components": [
        {
          "long_name": "Monroe",
          "short_name": "Monroe",
          "types": [
            "locality",
            "political"
          ]
        },
        {
          "long_name": "Butler County",
          "short_name": "Butler County",
          "types": [
            "administrative_area_level_2",
            "political"
          ]
        },
        {
          "long_name": "Ohio",
          "short_name": "OH",
          "types": [
            "administrative_area_level_1",
            "political"
          ]
        },
        {
          "long_name": "United States",
          "short_name": "US",
          "types": [
            "country",
            "political"
          ]
        }
      ],
      "formatted_address": "Monroe, OH, USA",
      "geometry": {
        "bounds": {
          "northeast": {
            "lat": 39.478219,
            "lng": -84.29236809999999
          },
          "southwest": {
            "lat": 39.40969,
            "lng": -84.436405
          }
        },
        "location": {
          "lat": 39.44033599999999,
          "lng": -84.3621634
        },
        "location_type": "APPROXIMATE",
        "viewport": {
          "northeast": {
            "lat": 39.478219,
            "lng": -84.29236809999999
          },
          "southwest": {
            "lat": 39.40969,
            "lng": -84.436405
          }
        }
      },
      "place_id": "ChIJ6R9zqRpcQIgRQLoT5vqZLNo",
      "types": [
        "locality",
        "political"
      ]
    },
    {
      "address_components": [
        {
          "long_name": "45050",
          "short_name": "45050",
          "types": [
            "postal_code"
          ]
        },
        {
          "long_name": "Monroe",
          "short_name": "Monroe",
          "types": [
            "locality",
            "political"
          ]
        },
        {
          "long_name": "Ohio",
          "short_name": "OH",
          "types": [
            "administrative_area_level_1",
            "political"
          ]
        },
        {
          "long_name": "United States",
          "short_name": "US",
          "types": [
            "country",
            "political"
          ]
        }
      ],
      "formatted_address": "Monroe, OH 45050, USA",
      "geometry": {
        "bounds": {
          "northeast": {
            "lat": 39.468379,
            "lng": -84.327344
          },
          "southwest": {
            "lat": 39.42373,
            "lng": -84.43568289999999
          }
        },
        "location": {
          "lat": 39.4486879,
          "lng": -84.3699767
        },
        "location_type": "APPROXIMATE",
        "viewport": {
          "northeast": {
            "lat": 39.468379,
            "lng": -84.327344
          },
          "southwest": {
            "lat": 39.42373,
            "lng": -84.43568289999999
          }
        }
      },
      "place_id": "ChIJ0Q_v5hBcQIgRrdiDHzOth5E",
      "postcode_localities": [
        "LIBERTY TNSP",
        "LIBERTY TWNSHIP",
        "Monroe"
      ],
      "types": [
        "postal_code"
      ]
    },
    {
      "address_components": [
        {
          "long_name": "Lemon Township",
          "short_name": "Lemon Township",
          "types": [
            "administrative_area_level_3",
            "political"
          ]
        },
        {
          "long_name": "Butler County",
          "short_name": "Butler County",
          "types": [
            "administrative_area_level_2",
            "political"
          ]
        },
        {
          "long_name": "Ohio",
          "short_name": "OH",
          "types": [
            "administrative_area_level_1",
            "political"
          ]
        },
        {
          "long_name": "United States",
          "short_name": "US",
          "types": [
            "country",
            "political"
          ]
        }
      ],
      "formatted_address": "Lemon Township, OH, USA",
      "geometry": {
        "bounds": {
          "northeast": {
            "lat": 39.501157,
            "lng": -84.336719
          },
          "southwest": {
            "lat": 39.427471,
            "lng": -84.4643439
          }
        },
        "location": {
          "lat": 39.4442873,
          "lng": -84.38574419999999
        },
        "location_type": "APPROXIMATE",
        "viewport": {
          "northeast": {
            "lat": 39.501157,
            "lng": -84.336719
          },
          "southwest": {
            "lat": 39.427471,
            "lng": -84.4643439
          }
        }
      },
      "place_id": "ChIJD_6sEPRcQIgRP8I4KPkgKVQ",
      "types": [
        "administrative_area_level_3",
        "political"
      ]
    },
    {
      "address_components": [
        {
          "long_name": "Butler County",
          "short_name": "Butler County",
          "types": [
            "administrative_area_level_2",
            "political"
          ]
        },
        {
          "long_name": "Ohio",
          "short_name": "OH",
          "types": [
            "administrative_area_level_1",
            "political"
          ]
        },
        {
          "long_name": "United States",
          "short_name": "US",
          "types": [
            "country",
            "political"
          ]
        }
      ],
      "formatted_address": "Butler County, OH, USA",
      "geometry": {
        "bounds": {
          "northeast": {
            "lat": 39.5910249,
            "lng": -84.332038
          },
          "southwest": {
            "lat": 39.29229,
            "lng": -84.8194591
          }
        },
        "location": {
          "lat": 39.440463,
          "lng": -84.5222189
        },
        "location_type": "APPROXIMATE",
        "viewport": {
          "northeast": {
            "lat": 39.5910249,
            "lng": -84.332038
          },
          "southwest": {
            "lat": 39.29229,
            "lng": -84.8194591
          }
        }
      },
      "place_id": "ChIJ0z2oQpSKQIgR-S814rYmYxA",
      "types": [
        "administrative_area_level_2",
        "political"
      ]
    },
    {
      "address_components": [
        {
          "long_name": "Ohio",
          "short_name": "OH",
          "types": [
            "administrative_area_level_1",
            "political"
          ]
        },
        {
          "long_name": "United States",
          "short_name": "US",
          "types": [
            "country",
            "political"
          ]
        }
      ],
      "formatted_address": "Ohio, USA",
      "geometry": {
        "bounds": {
          "northeast": {
            "lat": 41.9773019,
            "lng": -80.5182
          },
          "southwest": {
            "lat": 38.4034229,
            "lng": -84.8203049
          }
        },
        "location": {
          "lat": 40.4172871,
          "lng": -82.90712300000001
        },
        "location_type": "APPROXIMATE",
        "viewport": {
          "northeast": {
            "lat": 41.9773019,
            "lng": -80.5182
          },
          "southwest": {
            "lat": 38.4034229,
            "lng": -84.8203049
          }
        }
      },
      "place_id": "ChIJwY5NtXrpNogRFtmfnDlkzeU",
      "types": [
        "administrative_area_level_1",
        "political"
      ]
    },
    {
      "address_components": [
        {
          "long_name": "United States",
          "short_name": "US",
          "types": [
            "country",
            "political"
          ]
        }
      ],
      "formatted_address": "United States",
      "geometry": {
        "bounds": {
          "northeast": {
            "lat": 71.3867745,
            "lng": -66.9502861
          },
          "southwest": {
            "lat": 18.9106768,
            "lng": 172.4458955
          }
        },
        "location": {
          "lat": 37.09024,
          "lng": -95.712891
        },
        "location_type": "APPROXIMATE",
        "viewport": {
          "northeast": {
            "lat": 49.38,
            "lng": -66.94
          },
          "southwest": {
            "lat": 25.82,
            "lng": -124.39
          }
        }
      },
      "place_id": "ChIJCzYy5IS16lQRQrfeQ5K5Oxw",
      "types": [
        "country",
        "political"
      ]
    }
  ],
  "status": "OK"
}
