{
  "results": [
    {
      "address_components": [
        {
          "long_name": "146",
          "short_name": "146",
          "types": [
            "street_number"
          ]
        },
        {
          "long_name": "Missouri 32",
          "short_name": "MO-32",
          "types": [
            "route"
          ]
        },
        {
          "long_name": "Licking",
          "short_name": "Licking",
          "types": [
            "locality",
            "political"
          ]
        },
        {
          "long_name": "Sherrill Township",
          "short_name": "Sherrill Township",
          "types": [
            "administrative_area_level_3",
            "political"
          ]
        },
        {
          "long_name": "Texas County",
          "short_name": "Texas County",
          "types": [
            "administrative_area_level_2",
            "political"
          ]
        },
        {
          "long_name": "Missouri",
          "short_name": "MO",
          "types": [
            "administrative_area_level_1",
            "political"
          ]
        },
        {
          "long_name": "United States",
          "short_name": "US",
          "types": [
            "country",
            "political"
          ]
        },
        {
          "long_name": "65542",
          "short_name": "65542",
          "types": [
            "postal_code"
          ]
        }
      ],
      "formatted_address": "146 MO-32, Licking, MO 65542, USA",
      "geometry": {
        "location": {
          "lat": 37.4977373,
          "lng": -91.86217599999999
        },
        "location_type": "ROOFTOP",
        "viewport": {
          "northeast": {
            "lat": 37.49908628029149,
            "lng": -91.86082701970848
          },
          "southwest": {
            "lat": 37.4963883197085,
            "lng": -91.8635249802915
          }
        }
      },
      "place_id": "ChIJZ10Ia62J2ocRbw4k0N0vr1Y",
      "types": [
        "street_address"
      ]
    },
    {
      "address_components": [
        {
          "long_name": "Licking",
          "short_name": "Licking",
          "types": [
            "locality",
            "political"
          ]
        },
        {
          "long_name": "Sherrill Township",
          "short_name": "Sherrill Township",
          "types": [
            "administrative_area_level_3",
            "political"
          ]
        },
        {
          "long_name": "Texas County",
          "short_name": "Texas County",
          "types": [
            "administrative_area_level_2",
            "political"
          ]
        },
        {
          "long_name": "Missouri",
          "short_name": "MO",
          "types": [
            "administrative_area_level_1",
            "political"
          ]
        },
        {
          "long_name": "United States",
          "short_name": "US",
          "types": [
            "country",
            "political"
          ]
        },
        {
          "long_name": "65542",
          "short_name": "65542",
          "types": [
            "postal_code"
          ]
        }
      ],
      "formatted_address": "Licking, MO 65542, USA",
      "geometry": {
        "bounds": {
          "northeast": {
            "lat": 37.5125811,
            "lng": -91.84425999999999
          },
          "southwest": {
            "lat": 37.4865469,
            "lng": -91.87939399999999
          }
        },
        "location": {
          "lat": 37.4994884,
          "lng": -91.8570984
        },
        "location_type": "APPROXIMATE",
        "viewport": {
          "northeast": {
            "lat": 37.5125811,
            "lng": -91.84425999999999
          },
          "southwest": {
            "lat": 37.4865469,
            "lng": -91.87939399999999
          }
        }
      },
      "place_id": "ChIJ4U1V67KJ2ocRo-On3LS7gdw",
      "types": [
        "locality",
        "political"
      ]
    },
    {
      "address_components": [
        {
          "long_name": "Sherrill Township",
          "short_name": "Sherrill Township",
          "types": [
            "administrative_area_level_3",
            "political"
          ]
        },
        {
          "long_name": "Texas County",
          "short_name": "Texas County",
          "types": [
            "administrative_area_level_2",
            "political"
          ]
        },
        {
          "long_name": "Missouri",
          "short_name": "MO",
          "types": [
            "administrative_area_level_1",
            "political"
          ]
        },
        {
          "long_name": "United States",
          "short_name": "US",
          "types": [
            "country",
            "political"
          ]
        }
      ],
      "formatted_address": "Sherrill Township, MO, USA",
      "geometry": {
        "bounds": {
          "northeast": {
            "lat": 37.6005021,
            "lng": -91.75468389999999
          },
          "southwest": {
            "lat": 37.415833,
            "lng": -91.9358769
          }
        },
        "location": {
          "lat": 37.5176826,
          "lng": -91.851343
        },
        "location_type": "APPROXIMATE",
        "viewport": {
          "northeast": {
            "lat": 37.6005021,
            "lng": -91.75468389999999
          },
          "southwest": {
            "lat": 37.415833,
            "lng": -91.9358769
          }
        }
      },
      "place_id": "ChIJ8-2nlsWJ2ocRqf3L9ngidsQ",
      "types": [
        "administrative_area_level_3",
        "political"
      ]
    },
    {
      "address_components": [
        {
          "long_name": "65542",
          "short_name": "65542",
          "types": [
            "postal_code"
          ]
        },
        {
          "long_name": "Licking",
          "short_name": "Licking",
          "types": [
            "locality",
            "political"
          ]
        },
        {
          "long_name": "Missouri",
          "short_name": "MO",
          "types": [
            "administrative_area_level_1",
            "political"
          ]
        },
        {
          "long_name": "United States",
          "short_name": "US",
          "types": [
            "country",
            "political"
          ]
        }
      ],
      "formatted_address": "Licking, MO 65542, USA",
      "geometry": {
        "bounds": {
          "northeast": {
            "lat": 37.6243488,
            "lng": -91.7036111
          },
          "southwest": {
            "lat": 37.35644,
            "lng": -92.0642589
          }
        },
        "location": {
          "lat": 37.4960542,
          "lng": -91.8708613
        },
        "location_type": "APPROXIMATE",
        "viewport": {
          "northeast": {
            "lat": 37.6243488,
            "lng": -91.7036111
          },
          "southwest": {
            "lat": 37.35644,
            "lng": -92.0642589
          }
        }
      },
      "place_id": "ChIJxxipxBqJ2ocRZnJgY8XPxPM",
      "types": [
        "postal_code"
      ]
    },
    {
      "address_components": [
        {
          "long_name": "Texas County",
          "short_name": "Texas County",
          "types": [
            "administrative_area_level_2",
            "political"
          ]
        },
        {
          "long_name": "Missouri",
          "short_name": "MO",
          "types": [
            "administrative_area_level_1",
            "political"
          ]
        },
        {
          "long_name": "United States",
          "short_name": "US",
          "types": [
            "country",
            "political"
          ]
        }
      ],
      "formatted_address": "Texas County, MO, USA",
      "geometry": {
        "bounds": {
          "northeast": {
            "lat": 37.605243,
            "lng": -91.646626
          },
          "southwest": {
            "lat": 37.0488,
            "lng": -92.25331
          }
        },
        "location": {
          "lat": 37.3673645,
          "lng": -91.9099238
        },
        "location_type": "APPROXIMATE",
        "viewport": {
          "northeast": {
            "lat": 37.605243,
            "lng": -91.646626
          },
          "southwest": {
            "lat": 37.0488,
            "lng": -92.25331
          }
        }
      },
      "place_id": "ChIJ63Wwi4N_2ocRwP0YRdnmVfc",
      "types": [
        "administrative_area_level_2",
        "political"
      ]
    },
    {
      "address_components": [
        {
          "long_name": "Missouri",
          "short_name": "MO",
          "types": [
            "administrative_area_level_1",
            "political"
          ]
        },
        {
          "long_name": "United States",
          "short_name": "US",
          "types": [
            "country",
            "political"
          ]
        }
      ],
      "formatted_address": "Missouri, USA",
      "geometry": {
        "bounds": {
          "northeast": {
            "lat": 40.61364,
            "lng": -89.09949399999999
          },
          "southwest": {
            "lat": 35.9956829,
            "lng": -95.774704
          }
        },
        "location": {
          "lat": 37.9642529,
          "lng": -91.8318334
        },
        "location_type": "APPROXIMATE",
        "viewport": {
          "northeast": {
            "lat": 40.61364,
            "lng": -89.09949399999999
          },
          "southwest": {
            "lat": 35.9956829,
            "lng": -95.774704
          }
        }
      },
      "place_id": "ChIJfeMiSNXmwIcRcr1mBFnEW7U",
      "types": [
        "administrative_area_level_1",
        "political"
      ]
    },
    {
      "address_components": [
        {
          "long_name": "United States",
          "short_name": "US",
          "types": [
            "country",
            "political"
          ]
        }
      ],
      "formatted_address": "United States",
      "geometry": {
        "bounds": {
          "northeast": {
            "lat": 71.3867745,
            "lng": -66.9502861
          },
          "southwest": {
            "lat": 18.9106768,
            "lng": 172.4458955
          }
        },
        "location": {
          "lat": 37.09024,
          "lng": -95.712891
        },
        "location_type": "APPROXIMATE",
        "viewport": {
          "northeast": {
            "lat": 49.38,
            "lng": -66.94
          },
          "southwest": {
            "lat": 25.82,
            "lng": -124.39
          }
        }
      },
      "place_id": "ChIJCzYy5IS16lQRQrfeQ5K5Oxw",
      "types": [
        "country",
        "political"
      ]
    }
  ],
  "status": "OK"
}
