{
  "results": [
    {
      "address_components": [
        {
          "long_name": "3376",
          "short_name": "3376",
          "types": [
            "street_number"
          ]
        },
        {
          "long_name": "Grant Street",
          "short_name": "Grant St",
          "types": [
            "route"
          ]
        },
        {
          "long_name": "Coloma",
          "short_name": "Coloma",
          "types": [
            "locality",
            "political"
          ]
        },
        {
          "long_name": "Hagar Township",
          "short_name": "Hagar Township",
          "types": [
            "administrative_area_level_3",
            "political"
          ]
        },
        {
          "long_name": "Berrien County",
          "short_name": "Berrien County",
          "types": [
            "administrative_area_level_2",
            "political"
          ]
        },
        {
          "long_name": "Michigan",
          "short_name": "MI",
          "types": [
            "administrative_area_level_1",
            "political"
          ]
        },
        {
          "long_name": "United States",
          "short_name": "US",
          "types": [
            "country",
            "political"
          ]
        },
        {
          "long_name": "49038",
          "short_name": "49038",
          "types": [
            "postal_code"
          ]
        }
      ],
      "formatted_address": "3376 Grant St, Coloma, MI 49038, USA",
      "geometry": {
        "location": {
          "lat": 42.212856,
          "lng": -86.376457
        },
        "location_type": "ROOFTOP",
        "viewport": {
          "northeast": {
            "lat": 42.2142049802915,
            "lng": -86.3751080197085
          },
          "southwest": {
            "lat": 42.2115070197085,
            "lng": -86.37780598029151
          }
        }
      },
      "place_id": "ChIJc9NdblO2EIgR_txgt3vCZhg",
      "types": [
        "street_address"
      ]
    },
    {
      "address_components": [
        {
          "long_name": "Lake Michigan Beach",
          "short_name": "Lake Michigan Beach",
          "types": [
            "locality",
            "political"
          ]
        },
        {
          "long_name": "Hagar Township",
          "short_name": "Hagar Township",
          "types": [
            "administrative_area_level_3",
            "political"
          ]
        },
        {
          "long_name": "Berrien County",
          "short_name": "Berrien County",
          "types": [
            "administrative_area_level_2",
            "political"
          ]
        },
        {
          "long_name": "Michigan",
          "short_name": "MI",
          "types": [
            "administrative_area_level_1",
            "political"
          ]
        },
        {
          "long_name": "United States",
          "short_name": "US",
          "types": [
            "country",
            "political"
          ]
        }
      ],
      "formatted_address": "Lake Michigan Beach, MI, USA",
      "geometry": {
        "bounds": {
          "northeast": {
            "lat": 42.24322,
            "lng": -86.3498049
          },
          "southwest": {
            "lat": 42.1864889,
            "lng": -86.41350210000002
          }
        },
        "location": {
          "lat": 42.2208698,
          "lng": -86.369469
        },
        "location_type": "APPROXIMATE",
        "viewport": {
          "northeast": {
            "lat": 42.24322,
            "lng": -86.3498049
          },
          "southwest": {
            "lat": 42.1864889,
            "lng": -86.41350210000002
          }
        }
      },
      "place_id": "ChIJbWjISvi2EIgR-XXUbfv_U1k",
      "types": [
        "locality",
        "political"
      ]
    },
    {
      "address_components": [
        {
          "long_name": "Hagar Township",
          "short_name": "Hagar Township",
          "types": [
            "administrative_area_level_3",
            "political"
          ]
        },
        {
          "long_name": "Berrien County",
          "short_name": "Berrien County",
          "types": [
            "administrative_area_level_2",
            "political"
          ]
        },
        {
          "long_name": "Michigan",
          "short_name": "MI",
          "types": [
            "administrative_area_level_1",
            "political"
          ]
        },
        {
          "long_name": "United States",
          "short_name": "US",
          "types": [
            "country",
            "political"
          ]
        }
      ],
      "formatted_address": "Hagar Township, MI, USA",
      "geometry": {
        "bounds": {
          "northeast": {
            "lat": 42.24322,
            "lng": -86.339857
          },
          "southwest": {
            "lat": 42.15735189999999,
            "lng": -86.44275209999999
          }
        },
        "location": {
          "lat": 42.1887841,
          "lng": -86.3680869
        },
        "location_type": "APPROXIMATE",
        "viewport": {
          "northeast": {
            "lat": 42.24322,
            "lng": -86.339857
          },
          "southwest": {
            "lat": 42.15735189999999,
            "lng": -86.44275209999999
          }
        }
      },
      "place_id": "ChIJmdafl7q3EIgRBDGp99ukTAo",
      "types": [
        "administrative_area_level_3",
        "political"
      ]
    },
    {
      "address_components": [
        {
          "long_name": "49038",
          "short_name": "49038",
          "types": [
            "postal_code"
          ]
        },
        {
          "long_name": "Coloma",
          "short_name": "Coloma",
          "types": [
            "locality",
            "political"
          ]
        },
        {
          "long_name": "Michigan",
          "short_name": "MI",
          "types": [
            "administrative_area_level_1",
            "political"
          ]
        },
        {
          "long_name": "United States",
          "short_name": "US",
          "types": [
            "country",
            "political"
          ]
        }
      ],
      "formatted_address": "Coloma, MI 49038, USA",
      "geometry": {
        "bounds": {
          "northeast": {
            "lat": 42.270621,
            "lng": -86.24293109999999
          },
          "southwest": {
            "lat": 42.128062,
            "lng": -86.41957599999999
          }
        },
        "location": {
          "lat": 42.20721349999999,
          "lng": -86.32753509999999
        },
        "location_type": "APPROXIMATE",
        "viewport": {
          "northeast": {
            "lat": 42.270621,
            "lng": -86.24293109999999
          },
          "southwest": {
            "lat": 42.128062,
            "lng": -86.41957599999999
          }
        }
      },
      "place_id": "ChIJH46MHsW1EIgRFJsdWqeQ7mE",
      "types": [
        "postal_code"
      ]
    },
    {
      "address_components": [
        {
          "long_name": "Berrien County",
          "short_name": "Berrien County",
          "types": [
            "administrative_area_level_2",
            "political"
          ]
        },
        {
          "long_name": "Michigan",
          "short_name": "MI",
          "types": [
            "administrative_area_level_1",
            "political"
          ]
        },
        {
          "long_name": "United States",
          "short_name": "US",
          "types": [
            "country",
            "political"
          ]
        }
      ],
      "formatted_address": "Berrien County, MI, USA",
      "geometry": {
        "bounds": {
          "northeast": {
            "lat": 42.243541,
            "lng": -86.22281679999999
          },
          "southwest": {
            "lat": 41.759487,
            "lng": -86.8259442
          }
        },
        "location": {
          "lat": 42.0320742,
          "lng": -86.7416374
        },
        "location_type": "APPROXIMATE",
        "viewport": {
          "northeast": {
            "lat": 42.243541,
            "lng": -86.22281679999999
          },
          "southwest": {
            "lat": 41.759487,
            "lng": -86.8259442
          }
        }
      },
      "place_id": "ChIJ6XkNtPXFEIgRqbxusYn2818",
      "types": [
        "administrative_area_level_2",
        "political"
      ]
    },
    {
      "address_components": [
        {
          "long_name": "Michigan",
          "short_name": "MI",
          "types": [
            "administrative_area_level_1",
            "political"
          ]
        },
        {
          "long_name": "United States",
          "short_name": "US",
          "types": [
            "country",
            "political"
          ]
        }
      ],
      "formatted_address": "Michigan, USA",
      "geometry": {
        "bounds": {
          "northeast": {
            "lat": 48.1986461,
            "lng": -82.413474
          },
          "southwest": {
            "lat": 41.696118,
            "lng": -90.4181358
          }
        },
        "location": {
          "lat": 44.3148443,
          "lng": -85.60236429999999
        },
        "location_type": "APPROXIMATE",
        "viewport": {
          "northeast": {
            "lat": 48.198602,
            "lng": -82.413474
          },
          "southwest": {
            "lat": 41.696118,
            "lng": -90.4181358
          }
        }
      },
      "place_id": "ChIJEQTKxz2qTE0Rs8liellI3Zc",
      "types": [
        "administrative_area_level_1",
        "political"
      ]
    },
    {
      "address_components": [
        {
          "long_name": "United States",
          "short_name": "US",
          "types": [
            "country",
            "political"
          ]
        }
      ],
      "formatted_address": "United States",
      "geometry": {
        "bounds": {
          "northeast": {
            "lat": 71.3867745,
            "lng": -66.9502861
          },
          "southwest": {
            "lat": 18.9106768,
            "lng": 172.4458955
          }
        },
        "location": {
          "lat": 37.09024,
          "lng": -95.712891
        },
        "location_type": "APPROXIMATE",
        "viewport": {
          "northeast": {
            "lat": 49.38,
            "lng": -66.94
          },
          "southwest": {
            "lat": 25.82,
            "lng": -124.39
          }
        }
      },
      "place_id": "ChIJCzYy5IS16lQRQrfeQ5K5Oxw",
      "types": [
        "country",
        "political"
      ]
    }
  ],
  "status": "OK"
}
