{
  "results": [
    {
      "address_components": [
        {
          "long_name": "340-364",
          "short_name": "340-364",
          "types": [
            "street_number"
          ]
        },
        {
          "long_name": "1st Street",
          "short_name": "1st St",
          "types": [
            "route"
          ]
        },
        {
          "long_name": "Summersville",
          "short_name": "Summersville",
          "types": [
            "locality",
            "political"
          ]
        },
        {
          "long_name": "Carroll Township",
          "short_name": "Carroll Township",
          "types": [
            "administrative_area_level_3",
            "political"
          ]
        },
        {
          "long_name": "Texas County",
          "short_name": "Texas County",
          "types": [
            "administrative_area_level_2",
            "political"
          ]
        },
        {
          "long_name": "Missouri",
          "short_name": "MO",
          "types": [
            "administrative_area_level_1",
            "political"
          ]
        },
        {
          "long_name": "United States",
          "short_name": "US",
          "types": [
            "country",
            "political"
          ]
        },
        {
          "long_name": "65571",
          "short_name": "65571",
          "types": [
            "postal_code"
          ]
        },
        {
          "long_name": "9243",
          "short_name": "9243",
          "types": [
            "postal_code_suffix"
          ]
        }
      ],
      "formatted_address": "340-364 1st St, Summersville, MO 65571, USA",
      "geometry": {
        "bounds": {
          "northeast": {
            "lat": 37.1786542,
            "lng": -91.6574691
          },
          "southwest": {
            "lat": 37.1786167,
            "lng": -91.6596005
          }
        },
        "location": {
          "lat": 37.1786347,
          "lng": -91.6576879
        },
        "location_type": "RANGE_INTERPOLATED",
        "viewport": {
          "northeast": {
            "lat": 37.1799844302915,
            "lng": -91.65718581970849
          },
          "southwest": {
            "lat": 37.17728646970851,
            "lng": -91.65988378029151
          }
        }
      },
      "place_id": "EiszNDAtMzY0IDFzdCBTdCwgU3VtbWVyc3ZpbGxlLCBNTyA2NTU3MSwgVVNB",
      "types": [
        "street_address"
      ]
    },
    {
      "address_components": [
        {
          "long_name": "Summersville",
          "short_name": "Summersville",
          "types": [
            "locality",
            "political"
          ]
        },
        {
          "long_name": "Carroll Township",
          "short_name": "Carroll Township",
          "types": [
            "administrative_area_level_3",
            "political"
          ]
        },
        {
          "long_name": "Texas County",
          "short_name": "Texas County",
          "types": [
            "administrative_area_level_2",
            "political"
          ]
        },
        {
          "long_name": "Missouri",
          "short_name": "MO",
          "types": [
            "administrative_area_level_1",
            "political"
          ]
        },
        {
          "long_name": "United States",
          "short_name": "US",
          "types": [
            "country",
            "political"
          ]
        },
        {
          "long_name": "65571",
          "short_name": "65571",
          "types": [
            "postal_code"
          ]
        }
      ],
      "formatted_address": "Summersville, MO 65571, USA",
      "geometry": {
        "bounds": {
          "northeast": {
            "lat": 37.187182,
            "lng": -91.645139
          },
          "southwest": {
            "lat": 37.167786,
            "lng": -91.6749679
          }
        },
        "location": {
          "lat": 37.1792159,
          "lng": -91.6568107
        },
        "location_type": "APPROXIMATE",
        "viewport": {
          "northeast": {
            "lat": 37.187182,
            "lng": -91.645139
          },
          "southwest": {
            "lat": 37.167786,
            "lng": -91.6749679
          }
        }
      },
      "place_id": "ChIJT1IuX5KG0IcRoMpja22Kn5g",
      "types": [
        "locality",
        "political"
      ]
    },
    {
      "address_components": [
        {
          "long_name": "Carroll Township",
          "short_name": "Carroll Township",
          "types": [
            "administrative_area_level_3",
            "political"
          ]
        },
        {
          "long_name": "Texas County",
          "short_name": "Texas County",
          "types": [
            "administrative_area_level_2",
            "political"
          ]
        },
        {
          "long_name": "Missouri",
          "short_name": "MO",
          "types": [
            "administrative_area_level_1",
            "political"
          ]
        },
        {
          "long_name": "United States",
          "short_name": "US",
          "types": [
            "country",
            "political"
          ]
        }
      ],
      "formatted_address": "Carroll Township, MO, USA",
      "geometry": {
        "bounds": {
          "northeast": {
            "lat": 37.2498661,
            "lng": -91.65158199999999
          },
          "southwest": {
            "lat": 37.13689,
            "lng": -91.7628939
          }
        },
        "location": {
          "lat": 37.1780803,
          "lng": -91.69550919999999
        },
        "location_type": "APPROXIMATE",
        "viewport": {
          "northeast": {
            "lat": 37.2498661,
            "lng": -91.65158199999999
          },
          "southwest": {
            "lat": 37.13689,
            "lng": -91.7628939
          }
        }
      },
      "place_id": "ChIJm7Dy6IWE0IcRF-fbXjHoFII",
      "types": [
        "administrative_area_level_3",
        "political"
      ]
    },
    {
      "address_components": [
        {
          "long_name": "65571",
          "short_name": "65571",
          "types": [
            "postal_code"
          ]
        },
        {
          "long_name": "Summersville",
          "short_name": "Summersville",
          "types": [
            "locality",
            "political"
          ]
        },
        {
          "long_name": "Missouri",
          "short_name": "MO",
          "types": [
            "administrative_area_level_1",
            "political"
          ]
        },
        {
          "long_name": "United States",
          "short_name": "US",
          "types": [
            "country",
            "political"
          ]
        }
      ],
      "formatted_address": "Summersville, MO 65571, USA",
      "geometry": {
        "bounds": {
          "northeast": {
            "lat": 37.3057659,
            "lng": -91.4717019
          },
          "southwest": {
            "lat": 37.047847,
            "lng": -91.823562
          }
        },
        "location": {
          "lat": 37.1574715,
          "lng": -91.63721500000001
        },
        "location_type": "APPROXIMATE",
        "viewport": {
          "northeast": {
            "lat": 37.3057659,
            "lng": -91.4717019
          },
          "southwest": {
            "lat": 37.047847,
            "lng": -91.823562
          }
        }
      },
      "place_id": "ChIJu1Mc6pKG0IcRq0q3HmBPgAo",
      "types": [
        "postal_code"
      ]
    },
    {
      "address_components": [
        {
          "long_name": "Texas County",
          "short_name": "Texas County",
          "types": [
            "administrative_area_level_2",
            "political"
          ]
        },
        {
          "long_name": "Missouri",
          "short_name": "MO",
          "types": [
            "administrative_area_level_1",
            "political"
          ]
        },
        {
          "long_name": "United States",
          "short_name": "US",
          "types": [
            "country",
            "political"
          ]
        }
      ],
      "formatted_address": "Texas County, MO, USA",
      "geometry": {
        "bounds": {
          "northeast": {
            "lat": 37.605243,
            "lng": -91.646626
          },
          "southwest": {
            "lat": 37.0488,
            "lng": -92.25331
          }
        },
        "location": {
          "lat": 37.3673645,
          "lng": -91.9099238
        },
        "location_type": "APPROXIMATE",
        "viewport": {
          "northeast": {
            "lat": 37.605243,
            "lng": -91.646626
          },
          "southwest": {
            "lat": 37.0488,
            "lng": -92.25331
          }
        }
      },
      "place_id": "ChIJ63Wwi4N_2ocRwP0YRdnmVfc",
      "types": [
        "administrative_area_level_2",
        "political"
      ]
    },
    {
      "address_components": [
        {
          "long_name": "Missouri",
          "short_name": "MO",
          "types": [
            "administrative_area_level_1",
            "political"
          ]
        },
        {
          "long_name": "United States",
          "short_name": "US",
          "types": [
            "country",
            "political"
          ]
        }
      ],
      "formatted_address": "Missouri, USA",
      "geometry": {
        "bounds": {
          "northeast": {
            "lat": 40.61364,
            "lng": -89.09949399999999
          },
          "southwest": {
            "lat": 35.9956829,
            "lng": -95.774704
          }
        },
        "location": {
          "lat": 37.9642529,
          "lng": -91.8318334
        },
        "location_type": "APPROXIMATE",
        "viewport": {
          "northeast": {
            "lat": 40.61364,
            "lng": -89.09949399999999
          },
          "southwest": {
            "lat": 35.9956829,
            "lng": -95.774704
          }
        }
      },
      "place_id": "ChIJfeMiSNXmwIcRcr1mBFnEW7U",
      "types": [
        "administrative_area_level_1",
        "political"
      ]
    },
    {
      "address_components": [
        {
          "long_name": "United States",
          "short_name": "US",
          "types": [
            "country",
            "political"
          ]
        }
      ],
      "formatted_address": "United States",
      "geometry": {
        "bounds": {
          "northeast": {
            "lat": 71.3867745,
            "lng": -66.9502861
          },
          "southwest": {
            "lat": 18.9106768,
            "lng": 172.4458955
          }
        },
        "location": {
          "lat": 37.09024,
          "lng": -95.712891
        },
        "location_type": "APPROXIMATE",
        "viewport": {
          "northeast": {
            "lat": 49.38,
            "lng": -66.94
          },
          "southwest": {
            "lat": 25.82,
            "lng": -124.39
          }
        }
      },
      "place_id": "ChIJCzYy5IS16lQRQrfeQ5K5Oxw",
      "types": [
        "country",
        "political"
      ]
    }
  ],
  "status": "OK"
}
