{
  "results": [
    {
      "address_components": [
        {
          "long_name": "3rd Street",
          "short_name": "3rd St",
          "types": [
            "route"
          ]
        },
        {
          "long_name": "Worthington",
          "short_name": "Worthington",
          "types": [
            "locality",
            "political"
          ]
        },
        {
          "long_name": "Elm Township",
          "short_name": "Elm Township",
          "types": [
            "administrative_area_level_3",
            "political"
          ]
        },
        {
          "long_name": "Putnam County",
          "short_name": "Putnam County",
          "types": [
            "administrative_area_level_2",
            "political"
          ]
        },
        {
          "long_name": "Missouri",
          "short_name": "MO",
          "types": [
            "administrative_area_level_1",
            "political"
          ]
        },
        {
          "long_name": "United States",
          "short_name": "US",
          "types": [
            "country",
            "political"
          ]
        },
        {
          "long_name": "63567",
          "short_name": "63567",
          "types": [
            "postal_code"
          ]
        }
      ],
      "formatted_address": "3rd St, Worthington, MO 63567, USA",
      "geometry": {
        "bounds": {
          "northeast": {
            "lat": 40.40911699999999,
            "lng": -92.689662
          },
          "southwest": {
            "lat": 40.4084642,
            "lng": -92.6896647
          }
        },
        "location": {
          "lat": 40.4087906,
          "lng": -92.6896634
        },
        "location_type": "GEOMETRIC_CENTER",
        "viewport": {
          "northeast": {
            "lat": 40.41013958029149,
            "lng": -92.6883143697085
          },
          "southwest": {
            "lat": 40.40744161970849,
            "lng": -92.6910123302915
          }
        }
      },
      "place_id": "ChIJbwSOlS9v6IcRpZj-QUZWU34",
      "types": [
        "route"
      ]
    },
    {
      "address_components": [
        {
          "long_name": "Worthington",
          "short_name": "Worthington",
          "types": [
            "locality",
            "political"
          ]
        },
        {
          "long_name": "Elm Township",
          "short_name": "Elm Township",
          "types": [
            "administrative_area_level_3",
            "political"
          ]
        },
        {
          "long_name": "Putnam County",
          "short_name": "Putnam County",
          "types": [
            "administrative_area_level_2",
            "political"
          ]
        },
        {
          "long_name": "Missouri",
          "short_name": "MO",
          "types": [
            "administrative_area_level_1",
            "political"
          ]
        },
        {
          "long_name": "United States",
          "short_name": "US",
          "types": [
            "country",
            "political"
          ]
        },
        {
          "long_name": "63567",
          "short_name": "63567",
          "types": [
            "postal_code"
          ]
        }
      ],
      "formatted_address": "Worthington, MO 63567, USA",
      "geometry": {
        "bounds": {
          "northeast": {
            "lat": 40.4121449,
            "lng": -92.686663
          },
          "southwest": {
            "lat": 40.405859,
            "lng": -92.6917289
          }
        },
        "location": {
          "lat": 40.4083599,
          "lng": -92.6888065
        },
        "location_type": "APPROXIMATE",
        "viewport": {
          "northeast": {
            "lat": 40.4121449,
            "lng": -92.686663
          },
          "southwest": {
            "lat": 40.405859,
            "lng": -92.6917289
          }
        }
      },
      "place_id": "ChIJL8_-gy9v6IcR9ZbVuRwMVTM",
      "types": [
        "locality",
        "political"
      ]
    },
    {
      "address_components": [
        {
          "long_name": "63567",
          "short_name": "63567",
          "types": [
            "postal_code"
          ]
        },
        {
          "long_name": "Worthington",
          "short_name": "Worthington",
          "types": [
            "locality",
            "political"
          ]
        },
        {
          "long_name": "Missouri",
          "short_name": "MO",
          "types": [
            "administrative_area_level_1",
            "political"
          ]
        },
        {
          "long_name": "United States",
          "short_name": "US",
          "types": [
            "country",
            "political"
          ]
        }
      ],
      "formatted_address": "Worthington, MO 63567, USA",
      "geometry": {
        "bounds": {
          "northeast": {
            "lat": 40.463256,
            "lng": -92.6136859
          },
          "southwest": {
            "lat": 40.374652,
            "lng": -92.748925
          }
        },
        "location": {
          "lat": 40.4207138,
          "lng": -92.6785092
        },
        "location_type": "APPROXIMATE",
        "viewport": {
          "northeast": {
            "lat": 40.463256,
            "lng": -92.6136859
          },
          "southwest": {
            "lat": 40.374652,
            "lng": -92.748925
          }
        }
      },
      "place_id": "ChIJ4-QEkV1o6IcR3eKRme2fkSA",
      "types": [
        "postal_code"
      ]
    },
    {
      "address_components": [
        {
          "long_name": "Elm Township",
          "short_name": "Elm Township",
          "types": [
            "administrative_area_level_3",
            "political"
          ]
        },
        {
          "long_name": "Putnam County",
          "short_name": "Putnam County",
          "types": [
            "administrative_area_level_2",
            "political"
          ]
        },
        {
          "long_name": "Missouri",
          "short_name": "MO",
          "types": [
            "administrative_area_level_1",
            "political"
          ]
        },
        {
          "long_name": "United States",
          "short_name": "US",
          "types": [
            "country",
            "political"
          ]
        }
      ],
      "formatted_address": "Elm Township, MO, USA",
      "geometry": {
        "bounds": {
          "northeast": {
            "lat": 40.472873,
            "lng": -92.6645066
          },
          "southwest": {
            "lat": 40.3423339,
            "lng": -92.855644
          }
        },
        "location": {
          "lat": 40.4188492,
          "lng": -92.7580701
        },
        "location_type": "APPROXIMATE",
        "viewport": {
          "northeast": {
            "lat": 40.472873,
            "lng": -92.6645066
          },
          "southwest": {
            "lat": 40.3423339,
            "lng": -92.855644
          }
        }
      },
      "place_id": "ChIJp2yUojdo6IcR1Amikk8v14o",
      "types": [
        "administrative_area_level_3",
        "political"
      ]
    },
    {
      "address_components": [
        {
          "long_name": "Putnam County",
          "short_name": "Putnam County",
          "types": [
            "administrative_area_level_2",
            "political"
          ]
        },
        {
          "long_name": "Missouri",
          "short_name": "MO",
          "types": [
            "administrative_area_level_1",
            "political"
          ]
        },
        {
          "long_name": "United States",
          "short_name": "US",
          "types": [
            "country",
            "political"
          ]
        }
      ],
      "formatted_address": "Putnam County, MO, USA",
      "geometry": {
        "bounds": {
          "northeast": {
            "lat": 40.5894309,
            "lng": -92.6645066
          },
          "southwest": {
            "lat": 40.3423339,
            "lng": -93.37522
          }
        },
        "location": {
          "lat": 40.4744901,
          "lng": -92.97755579999999
        },
        "location_type": "APPROXIMATE",
        "viewport": {
          "northeast": {
            "lat": 40.5894309,
            "lng": -92.6645066
          },
          "southwest": {
            "lat": 40.3423339,
            "lng": -93.37522
          }
        }
      },
      "place_id": "ChIJm6OVf4JS6IcREFo3x786H_k",
      "types": [
        "administrative_area_level_2",
        "political"
      ]
    },
    {
      "address_components": [
        {
          "long_name": "Missouri",
          "short_name": "MO",
          "types": [
            "administrative_area_level_1",
            "political"
          ]
        },
        {
          "long_name": "United States",
          "short_name": "US",
          "types": [
            "country",
            "political"
          ]
        }
      ],
      "formatted_address": "Missouri, USA",
      "geometry": {
        "bounds": {
          "northeast": {
            "lat": 40.61364,
            "lng": -89.09949399999999
          },
          "southwest": {
            "lat": 35.9956829,
            "lng": -95.774704
          }
        },
        "location": {
          "lat": 37.9642529,
          "lng": -91.8318334
        },
        "location_type": "APPROXIMATE",
        "viewport": {
          "northeast": {
            "lat": 40.61364,
            "lng": -89.09949399999999
          },
          "southwest": {
            "lat": 35.9956829,
            "lng": -95.774704
          }
        }
      },
      "place_id": "ChIJfeMiSNXmwIcRcr1mBFnEW7U",
      "types": [
        "administrative_area_level_1",
        "political"
      ]
    },
    {
      "address_components": [
        {
          "long_name": "United States",
          "short_name": "US",
          "types": [
            "country",
            "political"
          ]
        }
      ],
      "formatted_address": "United States",
      "geometry": {
        "bounds": {
          "northeast": {
            "lat": 71.3867745,
            "lng": -66.9502861
          },
          "southwest": {
            "lat": 18.9106768,
            "lng": 172.4458955
          }
        },
        "location": {
          "lat": 37.09024,
          "lng": -95.712891
        },
        "location_type": "APPROXIMATE",
        "viewport": {
          "northeast": {
            "lat": 49.38,
            "lng": -66.94
          },
          "southwest": {
            "lat": 25.82,
            "lng": -124.39
          }
        }
      },
      "place_id": "ChIJCzYy5IS16lQRQrfeQ5K5Oxw",
      "types": [
        "country",
        "political"
      ]
    }
  ],
  "status": "OK"
}
