{
  "results": [
    {
      "address_components": [
        {
          "long_name": "13000-13182",
          "short_name": "13000-13182",
          "types": [
            "street_number"
          ]
        },
        {
          "long_name": "South Street",
          "short_name": "NY-34",
          "types": [
            "route"
          ]
        },
        {
          "long_name": "Cato",
          "short_name": "Cato",
          "types": [
            "locality",
            "political"
          ]
        },
        {
          "long_name": "Cato",
          "short_name": "Cato",
          "types": [
            "administrative_area_level_3",
            "political"
          ]
        },
        {
          "long_name": "Cayuga County",
          "short_name": "Cayuga County",
          "types": [
            "administrative_area_level_2",
            "political"
          ]
        },
        {
          "long_name": "New York",
          "short_name": "NY",
          "types": [
            "administrative_area_level_1",
            "political"
          ]
        },
        {
          "long_name": "United States",
          "short_name": "US",
          "types": [
            "country",
            "political"
          ]
        },
        {
          "long_name": "13033",
          "short_name": "13033",
          "types": [
            "postal_code"
          ]
        }
      ],
      "formatted_address": "13000-13182 South St, Cato, NY 13033, USA",
      "geometry": {
        "bounds": {
          "northeast": {
            "lat": 43.1680079,
            "lng": -76.5722491
          },
          "southwest": {
            "lat": 43.1652898,
            "lng": -76.57291099999999
          }
        },
        "location": {
          "lat": 43.1679365,
          "lng": -76.5728785
        },
        "location_type": "RANGE_INTERPOLATED",
        "viewport": {
          "northeast": {
            "lat": 43.1680079,
            "lng": -76.57123106970849
          },
          "southwest": {
            "lat": 43.1652898,
            "lng": -76.5739290302915
          }
        }
      },
      "place_id": "EikxMzAwMC0xMzE4MiBTb3V0aCBTdCwgQ2F0bywgTlkgMTMwMzMsIFVTQQ",
      "types": [
        "street_address"
      ]
    },
    {
      "address_components": [
        {
          "long_name": "Cato",
          "short_name": "Cato",
          "types": [
            "locality",
            "political"
          ]
        },
        {
          "long_name": "Cayuga County",
          "short_name": "Cayuga County",
          "types": [
            "administrative_area_level_2",
            "political"
          ]
        },
        {
          "long_name": "New York",
          "short_name": "NY",
          "types": [
            "administrative_area_level_1",
            "political"
          ]
        },
        {
          "long_name": "United States",
          "short_name": "US",
          "types": [
            "country",
            "political"
          ]
        },
        {
          "long_name": "13033",
          "short_name": "13033",
          "types": [
            "postal_code"
          ]
        }
      ],
      "formatted_address": "Cato, NY 13033, USA",
      "geometry": {
        "bounds": {
          "northeast": {
            "lat": 43.175661,
            "lng": -76.5625799
          },
          "southwest": {
            "lat": 43.160322,
            "lng": -76.583291
          }
        },
        "location": {
          "lat": 43.1681225,
          "lng": -76.5729987
        },
        "location_type": "APPROXIMATE",
        "viewport": {
          "northeast": {
            "lat": 43.175661,
            "lng": -76.5625799
          },
          "southwest": {
            "lat": 43.160322,
            "lng": -76.583291
          }
        }
      },
      "place_id": "ChIJCYtNeT9a14kRSxrLKxErmhk",
      "types": [
        "locality",
        "political"
      ]
    },
    {
      "address_components": [
        {
          "long_name": "Cato",
          "short_name": "Cato",
          "types": [
            "administrative_area_level_3",
            "political"
          ]
        },
        {
          "long_name": "Cayuga County",
          "short_name": "Cayuga County",
          "types": [
            "administrative_area_level_2",
            "political"
          ]
        },
        {
          "long_name": "New York",
          "short_name": "NY",
          "types": [
            "administrative_area_level_1",
            "political"
          ]
        },
        {
          "long_name": "United States",
          "short_name": "US",
          "types": [
            "country",
            "political"
          ]
        }
      ],
      "formatted_address": "Cato, NY, USA",
      "geometry": {
        "bounds": {
          "northeast": {
            "lat": 43.182953,
            "lng": -76.473066
          },
          "southwest": {
            "lat": 43.070771,
            "lng": -76.6017789
          }
        },
        "location": {
          "lat": 43.1260837,
          "lng": -76.5257007
        },
        "location_type": "APPROXIMATE",
        "viewport": {
          "northeast": {
            "lat": 43.182953,
            "lng": -76.473066
          },
          "southwest": {
            "lat": 43.070771,
            "lng": -76.6017789
          }
        }
      },
      "place_id": "ChIJG7WXIzhX14kR-H8N1O2Iq0k",
      "types": [
        "administrative_area_level_3",
        "political"
      ]
    },
    {
      "address_components": [
        {
          "long_name": "13033",
          "short_name": "13033",
          "types": [
            "postal_code"
          ]
        },
        {
          "long_name": "Cato",
          "short_name": "Cato",
          "types": [
            "locality",
            "political"
          ]
        },
        {
          "long_name": "New York",
          "short_name": "NY",
          "types": [
            "administrative_area_level_1",
            "political"
          ]
        },
        {
          "long_name": "United States",
          "short_name": "US",
          "types": [
            "country",
            "political"
          ]
        }
      ],
      "formatted_address": "Cato, NY 13033, USA",
      "geometry": {
        "bounds": {
          "northeast": {
            "lat": 43.2572489,
            "lng": -76.473066
          },
          "southwest": {
            "lat": 43.125752,
            "lng": -76.6967001
          }
        },
        "location": {
          "lat": 43.1751935,
          "lng": -76.6181655
        },
        "location_type": "APPROXIMATE",
        "viewport": {
          "northeast": {
            "lat": 43.2572489,
            "lng": -76.473066
          },
          "southwest": {
            "lat": 43.125752,
            "lng": -76.6967001
          }
        }
      },
      "place_id": "ChIJkUjyAzVa14kRGHeffUhkALg",
      "types": [
        "postal_code"
      ]
    },
    {
      "address_components": [
        {
          "long_name": "Auburn",
          "short_name": "Auburn",
          "types": [
            "political"
          ]
        },
        {
          "long_name": "New York",
          "short_name": "NY",
          "types": [
            "administrative_area_level_1",
            "political"
          ]
        },
        {
          "long_name": "United States",
          "short_name": "US",
          "types": [
            "country",
            "political"
          ]
        }
      ],
      "formatted_address": "Auburn, NY, USA",
      "geometry": {
        "bounds": {
          "northeast": {
            "lat": 43.4191627,
            "lng": -76.26558399999999
          },
          "southwest": {
            "lat": 42.61862,
            "lng": -76.74006
          }
        },
        "location": {
          "lat": 42.7655231,
          "lng": -76.5488232
        },
        "location_type": "APPROXIMATE",
        "viewport": {
          "northeast": {
            "lat": 43.4191627,
            "lng": -76.26558399999999
          },
          "southwest": {
            "lat": 42.61862,
            "lng": -76.74006
          }
        }
      },
      "place_id": "ChIJ2wVy06uu0IkRZLL6CEeHCx0",
      "types": [
        "political"
      ]
    },
    {
      "address_components": [
        {
          "long_name": "Cayuga County",
          "short_name": "Cayuga County",
          "types": [
            "administrative_area_level_2",
            "political"
          ]
        },
        {
          "long_name": "New York",
          "short_name": "NY",
          "types": [
            "administrative_area_level_1",
            "political"
          ]
        },
        {
          "long_name": "United States",
          "short_name": "US",
          "types": [
            "country",
            "political"
          ]
        }
      ],
      "formatted_address": "Cayuga County, NY, USA",
      "geometry": {
        "bounds": {
          "northeast": {
            "lat": 43.4182664,
            "lng": -76.2655839
          },
          "southwest": {
            "lat": 42.6186079,
            "lng": -76.7393609
          }
        },
        "location": {
          "lat": 42.7655231,
          "lng": -76.5488232
        },
        "location_type": "APPROXIMATE",
        "viewport": {
          "northeast": {
            "lat": 43.4182664,
            "lng": -76.2655839
          },
          "southwest": {
            "lat": 42.6186079,
            "lng": -76.7393609
          }
        }
      },
      "place_id": "ChIJa528W6Mt14kRJO2ESNdcPdM",
      "types": [
        "administrative_area_level_2",
        "political"
      ]
    },
    {
      "address_components": [
        {
          "long_name": "New York",
          "short_name": "NY",
          "types": [
            "administrative_area_level_1",
            "political"
          ]
        },
        {
          "long_name": "United States",
          "short_name": "US",
          "types": [
            "country",
            "political"
          ]
        }
      ],
      "formatted_address": "New York, USA",
      "geometry": {
        "bounds": {
          "northeast": {
            "lat": 45.015865,
            "lng": -71.85620639999999
          },
          "southwest": {
            "lat": 40.496091,
            "lng": -79.76214379999999
          }
        },
        "location": {
          "lat": 43.2994285,
          "lng": -74.21793260000001
        },
        "location_type": "APPROXIMATE",
        "viewport": {
          "northeast": {
            "lat": 45.015859,
            "lng": -71.85620639999999
          },
          "southwest": {
            "lat": 40.496091,
            "lng": -79.76214379999999
          }
        }
      },
      "place_id": "ChIJqaUj8fBLzEwRZ5UY3sHGz90",
      "types": [
        "administrative_area_level_1",
        "political"
      ]
    },
    {
      "address_components": [
        {
          "long_name": "United States",
          "short_name": "US",
          "types": [
            "country",
            "political"
          ]
        }
      ],
      "formatted_address": "United States",
      "geometry": {
        "bounds": {
          "northeast": {
            "lat": 71.3867745,
            "lng": -66.9502861
          },
          "southwest": {
            "lat": 18.9106768,
            "lng": 172.4458955
          }
        },
        "location": {
          "lat": 37.09024,
          "lng": -95.712891
        },
        "location_type": "APPROXIMATE",
        "viewport": {
          "northeast": {
            "lat": 49.38,
            "lng": -66.94
          },
          "southwest": {
            "lat": 25.82,
            "lng": -124.39
          }
        }
      },
      "place_id": "ChIJCzYy5IS16lQRQrfeQ5K5Oxw",
      "types": [
        "country",
        "political"
      ]
    }
  ],
  "status": "OK"
}
