{
  "results": [
    {
      "address_components": [
        {
          "long_name": "5216",
          "short_name": "5216",
          "types": [
            "street_number"
          ]
        },
        {
          "long_name": "Minnesota 169",
          "short_name": "MN-169",
          "types": [
            "route"
          ]
        },
        {
          "long_name": "Soudan",
          "short_name": "Soudan",
          "types": [
            "locality",
            "political"
          ]
        },
        {
          "long_name": "Breitung Township",
          "short_name": "Breitung Township",
          "types": [
            "administrative_area_level_3",
            "political"
          ]
        },
        {
          "long_name": "St. Louis County",
          "short_name": "St Louis County",
          "types": [
            "administrative_area_level_2",
            "political"
          ]
        },
        {
          "long_name": "Minnesota",
          "short_name": "MN",
          "types": [
            "administrative_area_level_1",
            "political"
          ]
        },
        {
          "long_name": "United States",
          "short_name": "US",
          "types": [
            "country",
            "political"
          ]
        },
        {
          "long_name": "55782",
          "short_name": "55782",
          "types": [
            "postal_code"
          ]
        }
      ],
      "formatted_address": "5216 MN-169, Soudan, MN 55782, USA",
      "geometry": {
        "location": {
          "lat": 47.812373,
          "lng": -92.236364
        },
        "location_type": "ROOFTOP",
        "viewport": {
          "northeast": {
            "lat": 47.8137219802915,
            "lng": -92.2350150197085
          },
          "southwest": {
            "lat": 47.8110240197085,
            "lng": -92.2377129802915
          }
        }
      },
      "place_id": "ChIJ6wvLEi0SpVIR1Oex7JJmcv8",
      "types": [
        "street_address"
      ]
    },
    {
      "address_components": [
        {
          "long_name": "Soudan",
          "short_name": "Soudan",
          "types": [
            "locality",
            "political"
          ]
        },
        {
          "long_name": "Breitung Township",
          "short_name": "Breitung Township",
          "types": [
            "administrative_area_level_3",
            "political"
          ]
        },
        {
          "long_name": "St. Louis County",
          "short_name": "St Louis County",
          "types": [
            "administrative_area_level_2",
            "political"
          ]
        },
        {
          "long_name": "Minnesota",
          "short_name": "MN",
          "types": [
            "administrative_area_level_1",
            "political"
          ]
        },
        {
          "long_name": "United States",
          "short_name": "US",
          "types": [
            "country",
            "political"
          ]
        }
      ],
      "formatted_address": "Soudan, MN, USA",
      "geometry": {
        "bounds": {
          "northeast": {
            "lat": 47.81844,
            "lng": -92.22035989999999
          },
          "southwest": {
            "lat": 47.8086141,
            "lng": -92.250179
          }
        },
        "location": {
          "lat": 47.8158812,
          "lng": -92.2383876
        },
        "location_type": "APPROXIMATE",
        "viewport": {
          "northeast": {
            "lat": 47.81844,
            "lng": -92.22035989999999
          },
          "southwest": {
            "lat": 47.8086141,
            "lng": -92.250179
          }
        }
      },
      "place_id": "ChIJiW6UrC0SpVIRYCoSTFTlNe4",
      "types": [
        "locality",
        "political"
      ]
    },
    {
      "address_components": [
        {
          "long_name": "55782",
          "short_name": "55782",
          "types": [
            "postal_code"
          ]
        },
        {
          "long_name": "Soudan",
          "short_name": "Soudan",
          "types": [
            "locality",
            "political"
          ]
        },
        {
          "long_name": "Breitung Township",
          "short_name": "Breitung Township",
          "types": [
            "administrative_area_level_3",
            "political"
          ]
        },
        {
          "long_name": "St. Louis County",
          "short_name": "St Louis County",
          "types": [
            "administrative_area_level_2",
            "political"
          ]
        },
        {
          "long_name": "Minnesota",
          "short_name": "MN",
          "types": [
            "administrative_area_level_1",
            "political"
          ]
        },
        {
          "long_name": "United States",
          "short_name": "US",
          "types": [
            "country",
            "political"
          ]
        }
      ],
      "formatted_address": "Soudan, MN 55782, USA",
      "geometry": {
        "bounds": {
          "northeast": {
            "lat": 47.82009799999999,
            "lng": -92.22035989999999
          },
          "southwest": {
            "lat": 47.8086141,
            "lng": -92.250179
          }
        },
        "location": {
          "lat": 47.8136123,
          "lng": -92.2356849
        },
        "location_type": "APPROXIMATE",
        "viewport": {
          "northeast": {
            "lat": 47.82009799999999,
            "lng": -92.22035989999999
          },
          "southwest": {
            "lat": 47.8086141,
            "lng": -92.250179
          }
        }
      },
      "place_id": "ChIJp1R3uyoSpVIROnrVdXf4GL8",
      "types": [
        "postal_code"
      ]
    },
    {
      "address_components": [
        {
          "long_name": "Breitung Township",
          "short_name": "Breitung Township",
          "types": [
            "administrative_area_level_3",
            "political"
          ]
        },
        {
          "long_name": "St. Louis County",
          "short_name": "St Louis County",
          "types": [
            "administrative_area_level_2",
            "political"
          ]
        },
        {
          "long_name": "Minnesota",
          "short_name": "MN",
          "types": [
            "administrative_area_level_1",
            "political"
          ]
        },
        {
          "long_name": "United States",
          "short_name": "US",
          "types": [
            "country",
            "political"
          ]
        }
      ],
      "formatted_address": "Breitung Township, MN, USA",
      "geometry": {
        "bounds": {
          "northeast": {
            "lat": 47.8881139,
            "lng": -92.157251
          },
          "southwest": {
            "lat": 47.80058589999999,
            "lng": -92.30932170000001
          }
        },
        "location": {
          "lat": 47.84111,
          "lng": -92.2188772
        },
        "location_type": "APPROXIMATE",
        "viewport": {
          "northeast": {
            "lat": 47.8881139,
            "lng": -92.157251
          },
          "southwest": {
            "lat": 47.80058589999999,
            "lng": -92.30932170000001
          }
        }
      },
      "place_id": "ChIJM5TlpqMRpVIRz8l4bz4hgmQ",
      "types": [
        "administrative_area_level_3",
        "political"
      ]
    },
    {
      "address_components": [
        {
          "long_name": "St. Louis County",
          "short_name": "St Louis County",
          "types": [
            "administrative_area_level_2",
            "political"
          ]
        },
        {
          "long_name": "Minnesota",
          "short_name": "MN",
          "types": [
            "administrative_area_level_1",
            "political"
          ]
        },
        {
          "long_name": "United States",
          "short_name": "US",
          "types": [
            "country",
            "political"
          ]
        }
      ],
      "formatted_address": "St Louis County, MN, USA",
      "geometry": {
        "bounds": {
          "northeast": {
            "lat": 48.6281587,
            "lng": -91.7879279
          },
          "southwest": {
            "lat": 46.6492409,
            "lng": -93.0976659
          }
        },
        "location": {
          "lat": 47.7395106,
          "lng": -92.3623921
        },
        "location_type": "APPROXIMATE",
        "viewport": {
          "northeast": {
            "lat": 48.6281469,
            "lng": -91.7879279
          },
          "southwest": {
            "lat": 46.6492409,
            "lng": -93.0976659
          }
        }
      },
      "place_id": "ChIJvyoH84qNpVIRt3pjGNnS1VQ",
      "types": [
        "administrative_area_level_2",
        "political"
      ]
    },
    {
      "address_components": [
        {
          "long_name": "Duluth",
          "short_name": "Duluth",
          "types": [
            "political"
          ]
        }
      ],
      "formatted_address": "Duluth",
      "geometry": {
        "bounds": {
          "northeast": {
            "lat": 48.6314931,
            "lng": -91.55087909999999
          },
          "southwest": {
            "lat": 46.157045,
            "lng": -93.0976659
          }
        },
        "location": {
          "lat": 47.7395106,
          "lng": -92.3623921
        },
        "location_type": "APPROXIMATE",
        "viewport": {
          "northeast": {
            "lat": 48.6314931,
            "lng": -91.55087909999999
          },
          "southwest": {
            "lat": 46.157045,
            "lng": -93.0976659
          }
        }
      },
      "place_id": "ChIJPTGVeOfzr1IRbbyFR6i9W8g",
      "types": [
        "political"
      ]
    },
    {
      "address_components": [
        {
          "long_name": "Minnesota",
          "short_name": "MN",
          "types": [
            "administrative_area_level_1",
            "political"
          ]
        },
        {
          "long_name": "United States",
          "short_name": "US",
          "types": [
            "country",
            "political"
          ]
        }
      ],
      "formatted_address": "Minnesota, USA",
      "geometry": {
        "bounds": {
          "northeast": {
            "lat": 49.3828204,
            "lng": -89.49183339999999
          },
          "southwest": {
            "lat": 43.499361,
            "lng": -97.23919579999999
          }
        },
        "location": {
          "lat": 46.729553,
          "lng": -94.6858998
        },
        "location_type": "APPROXIMATE",
        "viewport": {
          "northeast": {
            "lat": 49.3826902,
            "lng": -89.49183339999999
          },
          "southwest": {
            "lat": 43.499361,
            "lng": -97.23919579999999
          }
        }
      },
      "place_id": "ChIJmwt4YJpbWE0RD6L-EJvJogI",
      "types": [
        "administrative_area_level_1",
        "political"
      ]
    },
    {
      "address_components": [
        {
          "long_name": "United States",
          "short_name": "US",
          "types": [
            "country",
            "political"
          ]
        }
      ],
      "formatted_address": "United States",
      "geometry": {
        "bounds": {
          "northeast": {
            "lat": 71.3867745,
            "lng": -66.9502861
          },
          "southwest": {
            "lat": 18.9106768,
            "lng": 172.4458955
          }
        },
        "location": {
          "lat": 37.09024,
          "lng": -95.712891
        },
        "location_type": "APPROXIMATE",
        "viewport": {
          "northeast": {
            "lat": 49.38,
            "lng": -66.94
          },
          "southwest": {
            "lat": 25.82,
            "lng": -124.39
          }
        }
      },
      "place_id": "ChIJCzYy5IS16lQRQrfeQ5K5Oxw",
      "types": [
        "country",
        "political"
      ]
    }
  ],
  "status": "OK"
}
