{
  "results": [
    {
      "address_components": [
        {
          "long_name": "3245-3249",
          "short_name": "3245-3249",
          "types": [
            "street_number"
          ]
        },
        {
          "long_name": "Airway Avenue",
          "short_name": "Airway Ave",
          "types": [
            "route"
          ]
        },
        {
          "long_name": "Breckenridge Hills",
          "short_name": "Breckenridge Hills",
          "types": [
            "locality",
            "political"
          ]
        },
        {
          "long_name": "Midland Township",
          "short_name": "Midland Township",
          "types": [
            "administrative_area_level_3",
            "political"
          ]
        },
        {
          "long_name": "St. Louis County",
          "short_name": "St Louis County",
          "types": [
            "administrative_area_level_2",
            "political"
          ]
        },
        {
          "long_name": "Missouri",
          "short_name": "MO",
          "types": [
            "administrative_area_level_1",
            "political"
          ]
        },
        {
          "long_name": "United States",
          "short_name": "US",
          "types": [
            "country",
            "political"
          ]
        },
        {
          "long_name": "63114",
          "short_name": "63114",
          "types": [
            "postal_code"
          ]
        }
      ],
      "formatted_address": "3245-3249 Airway Ave, Breckenridge Hills, MO 63114, USA",
      "geometry": {
        "bounds": {
          "northeast": {
            "lat": 38.7174041,
            "lng": -90.36807879999999
          },
          "southwest": {
            "lat": 38.71345669999999,
            "lng": -90.3687557
          }
        },
        "location": {
          "lat": 38.71573170000001,
          "lng": -90.3683719
        },
        "location_type": "RANGE_INTERPOLATED",
        "viewport": {
          "northeast": {
            "lat": 38.7174041,
            "lng": -90.3670682697085
          },
          "southwest": {
            "lat": 38.71345669999999,
            "lng": -90.3697662302915
          }
        }
      },
      "place_id": "EjczMjQ1LTMyNDkgQWlyd2F5IEF2ZSwgQnJlY2tlbnJpZGdlIEhpbGxzLCBNTyA2MzExNCwgVVNB",
      "types": [
        "street_address"
      ]
    },
    {
      "address_components": [
        {
          "long_name": "Breckenridge Hills",
          "short_name": "Breckenridge Hills",
          "types": [
            "locality",
            "political"
          ]
        },
        {
          "long_name": "Midland Township",
          "short_name": "Midland Township",
          "types": [
            "administrative_area_level_3",
            "political"
          ]
        },
        {
          "long_name": "St. Louis County",
          "short_name": "St Louis County",
          "types": [
            "administrative_area_level_2",
            "political"
          ]
        },
        {
          "long_name": "Missouri",
          "short_name": "MO",
          "types": [
            "administrative_area_level_1",
            "political"
          ]
        },
        {
          "long_name": "United States",
          "short_name": "US",
          "types": [
            "country",
            "political"
          ]
        }
      ],
      "formatted_address": "Breckenridge Hills, MO, USA",
      "geometry": {
        "bounds": {
          "northeast": {
            "lat": 38.7253509,
            "lng": -90.3554149
          },
          "southwest": {
            "lat": 38.709851,
            "lng": -90.379621
          }
        },
        "location": {
          "lat": 38.7144958,
          "lng": -90.3673381
        },
        "location_type": "APPROXIMATE",
        "viewport": {
          "northeast": {
            "lat": 38.7253509,
            "lng": -90.3554149
          },
          "southwest": {
            "lat": 38.709851,
            "lng": -90.379621
          }
        }
      },
      "place_id": "ChIJRdxZAQ0034cRUqAA_ZGrqXo",
      "types": [
        "locality",
        "political"
      ]
    },
    {
      "address_components": [
        {
          "long_name": "63114",
          "short_name": "63114",
          "types": [
            "postal_code"
          ]
        },
        {
          "long_name": "St. Louis",
          "short_name": "St. Louis",
          "types": [
            "locality",
            "political"
          ]
        },
        {
          "long_name": "St. Louis County",
          "short_name": "St Louis County",
          "types": [
            "administrative_area_level_2",
            "political"
          ]
        },
        {
          "long_name": "Missouri",
          "short_name": "MO",
          "types": [
            "administrative_area_level_1",
            "political"
          ]
        },
        {
          "long_name": "United States",
          "short_name": "US",
          "types": [
            "country",
            "political"
          ]
        }
      ],
      "formatted_address": "St. Louis, MO 63114, USA",
      "geometry": {
        "bounds": {
          "northeast": {
            "lat": 38.724919,
            "lng": -90.3225229
          },
          "southwest": {
            "lat": 38.677256,
            "lng": -90.40903290000001
          }
        },
        "location": {
          "lat": 38.7048818,
          "lng": -90.3465971
        },
        "location_type": "APPROXIMATE",
        "viewport": {
          "northeast": {
            "lat": 38.724919,
            "lng": -90.3225229
          },
          "southwest": {
            "lat": 38.677256,
            "lng": -90.40903290000001
          }
        }
      },
      "place_id": "ChIJo5k01WQ034cR-uvOx-Zq1Pw",
      "postcode_localities": [
        "BRECKNRDG HLS",
        "Breckenridge Hills",
        "Overland",
        "St. Louis"
      ],
      "types": [
        "postal_code"
      ]
    },
    {
      "address_components": [
        {
          "long_name": "Midland Township",
          "short_name": "Midland Township",
          "types": [
            "administrative_area_level_3",
            "political"
          ]
        },
        {
          "long_name": "St. Louis County",
          "short_name": "St Louis County",
          "types": [
            "administrative_area_level_2",
            "political"
          ]
        },
        {
          "long_name": "Missouri",
          "short_name": "MO",
          "types": [
            "administrative_area_level_1",
            "political"
          ]
        },
        {
          "long_name": "United States",
          "short_name": "US",
          "types": [
            "country",
            "political"
          ]
        }
      ],
      "formatted_address": "Midland Township, MO, USA",
      "geometry": {
        "bounds": {
          "northeast": {
            "lat": 38.7236509,
            "lng": -90.3112139
          },
          "southwest": {
            "lat": 38.680251,
            "lng": -90.441818
          }
        },
        "location": {
          "lat": 38.7047646,
          "lng": -90.38425269999999
        },
        "location_type": "APPROXIMATE",
        "viewport": {
          "northeast": {
            "lat": 38.7236509,
            "lng": -90.3112139
          },
          "southwest": {
            "lat": 38.680251,
            "lng": -90.441818
          }
        }
      },
      "place_id": "ChIJhSnwa4cz34cRtLyYGtAcPHk",
      "types": [
        "administrative_area_level_3",
        "political"
      ]
    },
    {
      "address_components": [
        {
          "long_name": "St. Louis County",
          "short_name": "St Louis County",
          "types": [
            "administrative_area_level_2",
            "political"
          ]
        },
        {
          "long_name": "Missouri",
          "short_name": "MO",
          "types": [
            "administrative_area_level_1",
            "political"
          ]
        },
        {
          "long_name": "United States",
          "short_name": "US",
          "types": [
            "country",
            "political"
          ]
        }
      ],
      "formatted_address": "St Louis County, MO, USA",
      "geometry": {
        "bounds": {
          "northeast": {
            "lat": 38.8911839,
            "lng": -90.11770709999999
          },
          "southwest": {
            "lat": 38.396902,
            "lng": -90.7365301
          }
        },
        "location": {
          "lat": 38.6103023,
          "lng": -90.4125181
        },
        "location_type": "APPROXIMATE",
        "viewport": {
          "northeast": {
            "lat": 38.8911839,
            "lng": -90.11770709999999
          },
          "southwest": {
            "lat": 38.396902,
            "lng": -90.7365301
          }
        }
      },
      "place_id": "ChIJBe3muPnK2IcRO8QfrOB9Xn0",
      "types": [
        "administrative_area_level_2",
        "political"
      ]
    },
    {
      "address_components": [
        {
          "long_name": "St. Louis",
          "short_name": "St. Louis",
          "types": [
            "political"
          ]
        },
        {
          "long_name": "United States",
          "short_name": "US",
          "types": [
            "country",
            "political"
          ]
        }
      ],
      "formatted_address": "St. Louis, USA",
      "geometry": {
        "bounds": {
          "northeast": {
            "lat": 39.5233661,
            "lng": -89.138356
          },
          "southwest": {
            "lat": 37.7341961,
            "lng": -91.4186371
          }
        },
        "location": {
          "lat": 38.8196814,
          "lng": -90.4502368
        },
        "location_type": "APPROXIMATE",
        "viewport": {
          "northeast": {
            "lat": 39.5233661,
            "lng": -89.138356
          },
          "southwest": {
            "lat": 37.7341961,
            "lng": -91.4186371
          }
        }
      },
      "place_id": "ChIJneBzzj4z34cRFGg2ez6q57o",
      "types": [
        "political"
      ]
    },
    {
      "address_components": [
        {
          "long_name": "Missouri",
          "short_name": "MO",
          "types": [
            "administrative_area_level_1",
            "political"
          ]
        },
        {
          "long_name": "United States",
          "short_name": "US",
          "types": [
            "country",
            "political"
          ]
        }
      ],
      "formatted_address": "Missouri, USA",
      "geometry": {
        "bounds": {
          "northeast": {
            "lat": 40.61364,
            "lng": -89.09949399999999
          },
          "southwest": {
            "lat": 35.9956829,
            "lng": -95.774704
          }
        },
        "location": {
          "lat": 37.9642529,
          "lng": -91.8318334
        },
        "location_type": "APPROXIMATE",
        "viewport": {
          "northeast": {
            "lat": 40.61364,
            "lng": -89.09949399999999
          },
          "southwest": {
            "lat": 35.9956829,
            "lng": -95.774704
          }
        }
      },
      "place_id": "ChIJfeMiSNXmwIcRcr1mBFnEW7U",
      "types": [
        "administrative_area_level_1",
        "political"
      ]
    },
    {
      "address_components": [
        {
          "long_name": "United States",
          "short_name": "US",
          "types": [
            "country",
            "political"
          ]
        }
      ],
      "formatted_address": "United States",
      "geometry": {
        "bounds": {
          "northeast": {
            "lat": 71.3867745,
            "lng": -66.9502861
          },
          "southwest": {
            "lat": 18.9106768,
            "lng": 172.4458955
          }
        },
        "location": {
          "lat": 37.09024,
          "lng": -95.712891
        },
        "location_type": "APPROXIMATE",
        "viewport": {
          "northeast": {
            "lat": 49.38,
            "lng": -66.94
          },
          "southwest": {
            "lat": 25.82,
            "lng": -124.39
          }
        }
      },
      "place_id": "ChIJCzYy5IS16lQRQrfeQ5K5Oxw",
      "types": [
        "country",
        "political"
      ]
    }
  ],
  "status": "OK"
}
