{
  "results": [
    {
      "address_components": [
        {
          "long_name": "23",
          "short_name": "23",
          "types": [
            "street_number"
          ]
        },
        {
          "long_name": "Main Street",
          "short_name": "Main St",
          "types": [
            "route"
          ]
        },
        {
          "long_name": "Onward",
          "short_name": "Onward",
          "types": [
            "locality",
            "political"
          ]
        },
        {
          "long_name": "Tipton Township",
          "short_name": "Tipton Township",
          "types": [
            "administrative_area_level_3",
            "political"
          ]
        },
        {
          "long_name": "Cass County",
          "short_name": "Cass County",
          "types": [
            "administrative_area_level_2",
            "political"
          ]
        },
        {
          "long_name": "Indiana",
          "short_name": "IN",
          "types": [
            "administrative_area_level_1",
            "political"
          ]
        },
        {
          "long_name": "United States",
          "short_name": "US",
          "types": [
            "country",
            "political"
          ]
        },
        {
          "long_name": "46967",
          "short_name": "46967",
          "types": [
            "postal_code"
          ]
        }
      ],
      "formatted_address": "23 Main St, Onward, IN 46967, USA",
      "geometry": {
        "location": {
          "lat": 40.694573,
          "lng": -86.195064
        },
        "location_type": "ROOFTOP",
        "viewport": {
          "northeast": {
            "lat": 40.69592198029149,
            "lng": -86.1937150197085
          },
          "southwest": {
            "lat": 40.6932240197085,
            "lng": -86.19641298029151
          }
        }
      },
      "place_id": "ChIJ28CO8J95FIgRWzv1TJb-cHM",
      "types": [
        "street_address"
      ]
    },
    {
      "address_components": [
        {
          "long_name": "Onward",
          "short_name": "Onward",
          "types": [
            "locality",
            "political"
          ]
        },
        {
          "long_name": "Tipton Township",
          "short_name": "Tipton Township",
          "types": [
            "administrative_area_level_3",
            "political"
          ]
        },
        {
          "long_name": "Cass County",
          "short_name": "Cass County",
          "types": [
            "administrative_area_level_2",
            "political"
          ]
        },
        {
          "long_name": "Indiana",
          "short_name": "IN",
          "types": [
            "administrative_area_level_1",
            "political"
          ]
        },
        {
          "long_name": "United States",
          "short_name": "US",
          "types": [
            "country",
            "political"
          ]
        }
      ],
      "formatted_address": "Onward, IN, USA",
      "geometry": {
        "bounds": {
          "northeast": {
            "lat": 40.6965859,
            "lng": -86.1918259
          },
          "southwest": {
            "lat": 40.692415,
            "lng": -86.1985629
          }
        },
        "location": {
          "lat": 40.6947621,
          "lng": -86.19499460000002
        },
        "location_type": "APPROXIMATE",
        "viewport": {
          "northeast": {
            "lat": 40.6965859,
            "lng": -86.1918259
          },
          "southwest": {
            "lat": 40.692415,
            "lng": -86.1985629
          }
        }
      },
      "place_id": "ChIJl23K8J95FIgRTNjVSPDYFvo",
      "types": [
        "locality",
        "political"
      ]
    },
    {
      "address_components": [
        {
          "long_name": "Tipton Township",
          "short_name": "Tipton Township",
          "types": [
            "administrative_area_level_3",
            "political"
          ]
        },
        {
          "long_name": "Cass County",
          "short_name": "Cass County",
          "types": [
            "administrative_area_level_2",
            "political"
          ]
        },
        {
          "long_name": "Indiana",
          "short_name": "IN",
          "types": [
            "administrative_area_level_1",
            "political"
          ]
        },
        {
          "long_name": "United States",
          "short_name": "US",
          "types": [
            "country",
            "political"
          ]
        }
      ],
      "formatted_address": "Tipton Township, IN, USA",
      "geometry": {
        "bounds": {
          "northeast": {
            "lat": 40.763106,
            "lng": -86.165634
          },
          "southwest": {
            "lat": 40.649259,
            "lng": -86.27893809999999
          }
        },
        "location": {
          "lat": 40.6945676,
          "lng": -86.21584969999999
        },
        "location_type": "APPROXIMATE",
        "viewport": {
          "northeast": {
            "lat": 40.763106,
            "lng": -86.165634
          },
          "southwest": {
            "lat": 40.649259,
            "lng": -86.27893809999999
          }
        }
      },
      "place_id": "ChIJkSiAQE54FIgRPnodf2uRMgU",
      "types": [
        "administrative_area_level_3",
        "political"
      ]
    },
    {
      "address_components": [
        {
          "long_name": "46994",
          "short_name": "46994",
          "types": [
            "postal_code"
          ]
        },
        {
          "long_name": "Walton",
          "short_name": "Walton",
          "types": [
            "locality",
            "political"
          ]
        },
        {
          "long_name": "Cass County",
          "short_name": "Cass County",
          "types": [
            "administrative_area_level_2",
            "political"
          ]
        },
        {
          "long_name": "Indiana",
          "short_name": "IN",
          "types": [
            "administrative_area_level_1",
            "political"
          ]
        },
        {
          "long_name": "United States",
          "short_name": "US",
          "types": [
            "country",
            "political"
          ]
        }
      ],
      "formatted_address": "Walton, IN 46994, USA",
      "geometry": {
        "bounds": {
          "northeast": {
            "lat": 40.7635479,
            "lng": -86.16616590000001
          },
          "southwest": {
            "lat": 40.596705,
            "lng": -86.3553791
          }
        },
        "location": {
          "lat": 40.6651653,
          "lng": -86.2463337
        },
        "location_type": "APPROXIMATE",
        "viewport": {
          "northeast": {
            "lat": 40.7635479,
            "lng": -86.16616590000001
          },
          "southwest": {
            "lat": 40.596705,
            "lng": -86.3553791
          }
        }
      },
      "place_id": "ChIJm2KUj06HE4gRjwgMyo2e_ms",
      "types": [
        "postal_code"
      ]
    },
    {
      "address_components": [
        {
          "long_name": "Logansport",
          "short_name": "Logansport",
          "types": [
            "political"
          ]
        },
        {
          "long_name": "Indiana",
          "short_name": "IN",
          "types": [
            "administrative_area_level_1",
            "political"
          ]
        },
        {
          "long_name": "United States",
          "short_name": "US",
          "types": [
            "country",
            "political"
          ]
        }
      ],
      "formatted_address": "Logansport, IN, USA",
      "geometry": {
        "bounds": {
          "northeast": {
            "lat": 40.910942,
            "lng": -86.165082
          },
          "southwest": {
            "lat": 40.5612809,
            "lng": -86.581739
          }
        },
        "location": {
          "lat": 40.8199089,
          "lng": -86.3376761
        },
        "location_type": "APPROXIMATE",
        "viewport": {
          "northeast": {
            "lat": 40.910942,
            "lng": -86.165082
          },
          "southwest": {
            "lat": 40.5612809,
            "lng": -86.581739
          }
        }
      },
      "place_id": "ChIJhQb1rzePE4gRBeHHFHIT_VY",
      "types": [
        "political"
      ]
    },
    {
      "address_components": [
        {
          "long_name": "Cass County",
          "short_name": "Cass County",
          "types": [
            "administrative_area_level_2",
            "political"
          ]
        },
        {
          "long_name": "Indiana",
          "short_name": "IN",
          "types": [
            "administrative_area_level_1",
            "political"
          ]
        },
        {
          "long_name": "United States",
          "short_name": "US",
          "types": [
            "country",
            "political"
          ]
        }
      ],
      "formatted_address": "Cass County, IN, USA",
      "geometry": {
        "bounds": {
          "northeast": {
            "lat": 40.910925,
            "lng": -86.1650241
          },
          "southwest": {
            "lat": 40.5613309,
            "lng": -86.581739
          }
        },
        "location": {
          "lat": 40.8199089,
          "lng": -86.3376761
        },
        "location_type": "APPROXIMATE",
        "viewport": {
          "northeast": {
            "lat": 40.910925,
            "lng": -86.1650241
          },
          "southwest": {
            "lat": 40.5613309,
            "lng": -86.581739
          }
        }
      },
      "place_id": "ChIJlRJKfvuHE4gRyFRCLkaZmh0",
      "types": [
        "administrative_area_level_2",
        "political"
      ]
    },
    {
      "address_components": [
        {
          "long_name": "Indiana",
          "short_name": "IN",
          "types": [
            "administrative_area_level_1",
            "political"
          ]
        },
        {
          "long_name": "United States",
          "short_name": "US",
          "types": [
            "country",
            "political"
          ]
        }
      ],
      "formatted_address": "Indiana, USA",
      "geometry": {
        "bounds": {
          "northeast": {
            "lat": 41.7606971,
            "lng": -84.784662
          },
          "southwest": {
            "lat": 37.7717419,
            "lng": -88.097892
          }
        },
        "location": {
          "lat": 40.2671941,
          "lng": -86.1349019
        },
        "location_type": "APPROXIMATE",
        "viewport": {
          "northeast": {
            "lat": 41.7606971,
            "lng": -84.784662
          },
          "southwest": {
            "lat": 37.7717419,
            "lng": -88.097892
          }
        }
      },
      "place_id": "ChIJHRv42bxQa4gRcuwyy84vEH4",
      "types": [
        "administrative_area_level_1",
        "political"
      ]
    },
    {
      "address_components": [
        {
          "long_name": "United States",
          "short_name": "US",
          "types": [
            "country",
            "political"
          ]
        }
      ],
      "formatted_address": "United States",
      "geometry": {
        "bounds": {
          "northeast": {
            "lat": 71.3867745,
            "lng": -66.9502861
          },
          "southwest": {
            "lat": 18.9106768,
            "lng": 172.4458955
          }
        },
        "location": {
          "lat": 37.09024,
          "lng": -95.712891
        },
        "location_type": "APPROXIMATE",
        "viewport": {
          "northeast": {
            "lat": 49.38,
            "lng": -66.94
          },
          "southwest": {
            "lat": 25.82,
            "lng": -124.39
          }
        }
      },
      "place_id": "ChIJCzYy5IS16lQRQrfeQ5K5Oxw",
      "types": [
        "country",
        "political"
      ]
    }
  ],
  "status": "OK"
}
