{
  "results": [
    {
      "address_components": [
        {
          "long_name": "Southern Tier Expressway",
          "short_name": "NY-17",
          "types": [
            "route"
          ]
        },
        {
          "long_name": "Savona",
          "short_name": "Savona",
          "types": [
            "locality",
            "political"
          ]
        },
        {
          "long_name": "Bath",
          "short_name": "Bath",
          "types": [
            "administrative_area_level_3",
            "political"
          ]
        },
        {
          "long_name": "Steuben County",
          "short_name": "Steuben County",
          "types": [
            "administrative_area_level_2",
            "political"
          ]
        },
        {
          "long_name": "New York",
          "short_name": "NY",
          "types": [
            "administrative_area_level_1",
            "political"
          ]
        },
        {
          "long_name": "United States",
          "short_name": "US",
          "types": [
            "country",
            "political"
          ]
        },
        {
          "long_name": "14879",
          "short_name": "14879",
          "types": [
            "postal_code"
          ]
        }
      ],
      "formatted_address": "Southern Tier Expy, Savona, NY 14879, USA",
      "geometry": {
        "bounds": {
          "northeast": {
            "lat": 42.285964,
            "lng": -77.223671
          },
          "southwest": {
            "lat": 42.282651,
            "lng": -77.224001
          }
        },
        "location": {
          "lat": 42.2843085,
          "lng": -77.2238544
        },
        "location_type": "GEOMETRIC_CENTER",
        "viewport": {
          "northeast": {
            "lat": 42.285964,
            "lng": -77.2224870197085
          },
          "southwest": {
            "lat": 42.282651,
            "lng": -77.2251849802915
          }
        }
      },
      "place_id": "ChIJ25PTUpOy0YkRaHP6bJf7nps",
      "types": [
        "route"
      ]
    },
    {
      "address_components": [
        {
          "long_name": "Savona",
          "short_name": "Savona",
          "types": [
            "locality",
            "political"
          ]
        },
        {
          "long_name": "Bath",
          "short_name": "Bath",
          "types": [
            "administrative_area_level_3",
            "political"
          ]
        },
        {
          "long_name": "Steuben County",
          "short_name": "Steuben County",
          "types": [
            "administrative_area_level_2",
            "political"
          ]
        },
        {
          "long_name": "New York",
          "short_name": "NY",
          "types": [
            "administrative_area_level_1",
            "political"
          ]
        },
        {
          "long_name": "United States",
          "short_name": "US",
          "types": [
            "country",
            "political"
          ]
        },
        {
          "long_name": "14879",
          "short_name": "14879",
          "types": [
            "postal_code"
          ]
        }
      ],
      "formatted_address": "Savona, NY 14879, USA",
      "geometry": {
        "bounds": {
          "northeast": {
            "lat": 42.292159,
            "lng": -77.2078389
          },
          "southwest": {
            "lat": 42.27241000000001,
            "lng": -77.238517
          }
        },
        "location": {
          "lat": 42.2886844,
          "lng": -77.2183091
        },
        "location_type": "APPROXIMATE",
        "viewport": {
          "northeast": {
            "lat": 42.292159,
            "lng": -77.2078389
          },
          "southwest": {
            "lat": 42.27241000000001,
            "lng": -77.238517
          }
        }
      },
      "place_id": "ChIJBSV3Veuy0YkRT05r0nX-_UU",
      "types": [
        "locality",
        "political"
      ]
    },
    {
      "address_components": [
        {
          "long_name": "14879",
          "short_name": "14879",
          "types": [
            "postal_code"
          ]
        },
        {
          "long_name": "Savona",
          "short_name": "Savona",
          "types": [
            "locality",
            "political"
          ]
        },
        {
          "long_name": "New York",
          "short_name": "NY",
          "types": [
            "administrative_area_level_1",
            "political"
          ]
        },
        {
          "long_name": "United States",
          "short_name": "US",
          "types": [
            "country",
            "political"
          ]
        }
      ],
      "formatted_address": "Savona, NY 14879, USA",
      "geometry": {
        "bounds": {
          "northeast": {
            "lat": 42.3881048,
            "lng": -77.10016399999999
          },
          "southwest": {
            "lat": 42.24945899999999,
            "lng": -77.2951228
          }
        },
        "location": {
          "lat": 42.311375,
          "lng": -77.2060241
        },
        "location_type": "APPROXIMATE",
        "viewport": {
          "northeast": {
            "lat": 42.3881048,
            "lng": -77.10016399999999
          },
          "southwest": {
            "lat": 42.24945899999999,
            "lng": -77.2951228
          }
        }
      },
      "place_id": "ChIJy2j6yLRS0IkRRytI8XGUMVI",
      "types": [
        "postal_code"
      ]
    },
    {
      "address_components": [
        {
          "long_name": "Bath",
          "short_name": "Bath",
          "types": [
            "administrative_area_level_3",
            "political"
          ]
        },
        {
          "long_name": "Steuben County",
          "short_name": "Steuben County",
          "types": [
            "administrative_area_level_2",
            "political"
          ]
        },
        {
          "long_name": "New York",
          "short_name": "NY",
          "types": [
            "administrative_area_level_1",
            "political"
          ]
        },
        {
          "long_name": "United States",
          "short_name": "US",
          "types": [
            "country",
            "political"
          ]
        }
      ],
      "formatted_address": "Bath, NY, USA",
      "geometry": {
        "bounds": {
          "northeast": {
            "lat": 42.386733,
            "lng": -77.16166190000001
          },
          "southwest": {
            "lat": 42.2723339,
            "lng": -77.445559
          }
        },
        "location": {
          "lat": 42.3327142,
          "lng": -77.3094674
        },
        "location_type": "APPROXIMATE",
        "viewport": {
          "northeast": {
            "lat": 42.386733,
            "lng": -77.16166190000001
          },
          "southwest": {
            "lat": 42.2723339,
            "lng": -77.445559
          }
        }
      },
      "place_id": "ChIJ7y6GCROu0YkRsXVi6Q_mLA8",
      "types": [
        "administrative_area_level_3",
        "political"
      ]
    },
    {
      "address_components": [
        {
          "long_name": "Steuben County",
          "short_name": "Steuben County",
          "types": [
            "administrative_area_level_2",
            "political"
          ]
        },
        {
          "long_name": "New York",
          "short_name": "NY",
          "types": [
            "administrative_area_level_1",
            "political"
          ]
        },
        {
          "long_name": "United States",
          "short_name": "US",
          "types": [
            "country",
            "political"
          ]
        }
      ],
      "formatted_address": "Steuben County, NY, USA",
      "geometry": {
        "bounds": {
          "northeast": {
            "lat": 42.580413,
            "lng": -76.9650278
          },
          "southwest": {
            "lat": 41.998636,
            "lng": -77.7499309
          }
        },
        "location": {
          "lat": 42.321027,
          "lng": -77.3783789
        },
        "location_type": "APPROXIMATE",
        "viewport": {
          "northeast": {
            "lat": 42.580413,
            "lng": -76.9650278
          },
          "southwest": {
            "lat": 41.998636,
            "lng": -77.7499309
          }
        }
      },
      "place_id": "ChIJAS8L6mha0IkR5lxwoqXwEXo",
      "types": [
        "administrative_area_level_2",
        "political"
      ]
    },
    {
      "address_components": [
        {
          "long_name": "Corning",
          "short_name": "Corning",
          "types": [
            "political"
          ]
        },
        {
          "long_name": "United States",
          "short_name": "US",
          "types": [
            "country",
            "political"
          ]
        }
      ],
      "formatted_address": "Corning, USA",
      "geometry": {
        "bounds": {
          "northeast": {
            "lat": 42.58034199999999,
            "lng": -76.96502799999999
          },
          "southwest": {
            "lat": 41.9987819,
            "lng": -77.74993099999999
          }
        },
        "location": {
          "lat": 42.321027,
          "lng": -77.3783789
        },
        "location_type": "APPROXIMATE",
        "viewport": {
          "northeast": {
            "lat": 42.58034199999999,
            "lng": -76.96502799999999
          },
          "southwest": {
            "lat": 41.9987819,
            "lng": -77.74993099999999
          }
        }
      },
      "place_id": "ChIJFRQTD3S60YkRSBqobXKIP2k",
      "types": [
        "political"
      ]
    },
    {
      "address_components": [
        {
          "long_name": "New York",
          "short_name": "NY",
          "types": [
            "administrative_area_level_1",
            "political"
          ]
        },
        {
          "long_name": "United States",
          "short_name": "US",
          "types": [
            "country",
            "political"
          ]
        }
      ],
      "formatted_address": "New York, USA",
      "geometry": {
        "bounds": {
          "northeast": {
            "lat": 45.015865,
            "lng": -71.85620639999999
          },
          "southwest": {
            "lat": 40.496091,
            "lng": -79.76214379999999
          }
        },
        "location": {
          "lat": 43.2994285,
          "lng": -74.21793260000001
        },
        "location_type": "APPROXIMATE",
        "viewport": {
          "northeast": {
            "lat": 45.015859,
            "lng": -71.85620639999999
          },
          "southwest": {
            "lat": 40.496091,
            "lng": -79.76214379999999
          }
        }
      },
      "place_id": "ChIJqaUj8fBLzEwRZ5UY3sHGz90",
      "types": [
        "administrative_area_level_1",
        "political"
      ]
    },
    {
      "address_components": [
        {
          "long_name": "United States",
          "short_name": "US",
          "types": [
            "country",
            "political"
          ]
        }
      ],
      "formatted_address": "United States",
      "geometry": {
        "bounds": {
          "northeast": {
            "lat": 71.3867745,
            "lng": -66.9502861
          },
          "southwest": {
            "lat": 18.9106768,
            "lng": 172.4458955
          }
        },
        "location": {
          "lat": 37.09024,
          "lng": -95.712891
        },
        "location_type": "APPROXIMATE",
        "viewport": {
          "northeast": {
            "lat": 49.38,
            "lng": -66.94
          },
          "southwest": {
            "lat": 25.82,
            "lng": -124.39
          }
        }
      },
      "place_id": "ChIJCzYy5IS16lQRQrfeQ5K5Oxw",
      "types": [
        "country",
        "political"
      ]
    }
  ],
  "status": "OK"
}
