{
  "results": [
    {
      "address_components": [
        {
          "long_name": "85",
          "short_name": "85",
          "types": [
            "street_number"
          ]
        },
        {
          "long_name": "Market Street",
          "short_name": "Market St",
          "types": [
            "route"
          ]
        },
        {
          "long_name": "Bowerston",
          "short_name": "Bowerston",
          "types": [
            "locality",
            "political"
          ]
        },
        {
          "long_name": "Orange Township",
          "short_name": "Orange Township",
          "types": [
            "administrative_area_level_3",
            "political"
          ]
        },
        {
          "long_name": "Carroll County",
          "short_name": "Carroll County",
          "types": [
            "administrative_area_level_2",
            "political"
          ]
        },
        {
          "long_name": "Ohio",
          "short_name": "OH",
          "types": [
            "administrative_area_level_1",
            "political"
          ]
        },
        {
          "long_name": "United States",
          "short_name": "US",
          "types": [
            "country",
            "political"
          ]
        },
        {
          "long_name": "44695",
          "short_name": "44695",
          "types": [
            "postal_code"
          ]
        }
      ],
      "formatted_address": "85 Market St, Bowerston, OH 44695, USA",
      "geometry": {
        "location": {
          "lat": 40.452136,
          "lng": -81.20968599999999
        },
        "location_type": "ROOFTOP",
        "viewport": {
          "northeast": {
            "lat": 40.45348498029149,
            "lng": -81.20833701970848
          },
          "southwest": {
            "lat": 40.45078701970849,
            "lng": -81.2110349802915
          }
        }
      },
      "place_id": "ChIJ90_7zGLyNogReOvLmLKO3nU",
      "types": [
        "street_address"
      ]
    },
    {
      "address_components": [
        {
          "long_name": "Leesville",
          "short_name": "Leesville",
          "types": [
            "locality",
            "political"
          ]
        },
        {
          "long_name": "Orange Township",
          "short_name": "Orange Township",
          "types": [
            "administrative_area_level_3",
            "political"
          ]
        },
        {
          "long_name": "Carroll County",
          "short_name": "Carroll County",
          "types": [
            "administrative_area_level_2",
            "political"
          ]
        },
        {
          "long_name": "Ohio",
          "short_name": "OH",
          "types": [
            "administrative_area_level_1",
            "political"
          ]
        },
        {
          "long_name": "United States",
          "short_name": "US",
          "types": [
            "country",
            "political"
          ]
        }
      ],
      "formatted_address": "Leesville, OH, USA",
      "geometry": {
        "bounds": {
          "northeast": {
            "lat": 40.4588741,
            "lng": -81.20322709999999
          },
          "southwest": {
            "lat": 40.4478299,
            "lng": -81.217097
          }
        },
        "location": {
          "lat": 40.4517317,
          "lng": -81.2120494
        },
        "location_type": "APPROXIMATE",
        "viewport": {
          "northeast": {
            "lat": 40.4588741,
            "lng": -81.20322709999999
          },
          "southwest": {
            "lat": 40.4478299,
            "lng": -81.217097
          }
        }
      },
      "place_id": "ChIJ0RD66WLyNogR_m0P74vfj5I",
      "types": [
        "locality",
        "political"
      ]
    },
    {
      "address_components": [
        {
          "long_name": "44639",
          "short_name": "44639",
          "types": [
            "postal_code"
          ]
        },
        {
          "long_name": "Leesville",
          "short_name": "Leesville",
          "types": [
            "locality",
            "political"
          ]
        },
        {
          "long_name": "Orange Township",
          "short_name": "Orange Township",
          "types": [
            "administrative_area_level_3",
            "political"
          ]
        },
        {
          "long_name": "Carroll County",
          "short_name": "Carroll County",
          "types": [
            "administrative_area_level_2",
            "political"
          ]
        },
        {
          "long_name": "Ohio",
          "short_name": "OH",
          "types": [
            "administrative_area_level_1",
            "political"
          ]
        },
        {
          "long_name": "United States",
          "short_name": "US",
          "types": [
            "country",
            "political"
          ]
        }
      ],
      "formatted_address": "Leesville, OH 44639, USA",
      "geometry": {
        "bounds": {
          "northeast": {
            "lat": 40.45231700000001,
            "lng": -81.2089239
          },
          "southwest": {
            "lat": 40.4517218,
            "lng": -81.209762
          }
        },
        "location": {
          "lat": 40.45207449999999,
          "lng": -81.2093661
        },
        "location_type": "APPROXIMATE",
        "viewport": {
          "northeast": {
            "lat": 40.45336838029151,
            "lng": -81.20799396970851
          },
          "southwest": {
            "lat": 40.45067041970851,
            "lng": -81.21069193029152
          }
        }
      },
      "place_id": "ChIJncu2RWPyNogR9SlzCH7FGI8",
      "types": [
        "postal_code"
      ]
    },
    {
      "address_components": [
        {
          "long_name": "Orange Township",
          "short_name": "Orange Township",
          "types": [
            "administrative_area_level_3",
            "political"
          ]
        },
        {
          "long_name": "Carroll County",
          "short_name": "Carroll County",
          "types": [
            "administrative_area_level_2",
            "political"
          ]
        },
        {
          "long_name": "Ohio",
          "short_name": "OH",
          "types": [
            "administrative_area_level_1",
            "political"
          ]
        },
        {
          "long_name": "United States",
          "short_name": "US",
          "types": [
            "country",
            "political"
          ]
        }
      ],
      "formatted_address": "Orange Township, OH, USA",
      "geometry": {
        "bounds": {
          "northeast": {
            "lat": 40.5061121,
            "lng": -81.15465499999999
          },
          "southwest": {
            "lat": 40.431577,
            "lng": -81.2699509
          }
        },
        "location": {
          "lat": 40.473169,
          "lng": -81.2188355
        },
        "location_type": "APPROXIMATE",
        "viewport": {
          "northeast": {
            "lat": 40.5061121,
            "lng": -81.15465499999999
          },
          "southwest": {
            "lat": 40.431577,
            "lng": -81.2699509
          }
        }
      },
      "place_id": "ChIJd_mlgnDtNogRLvnhW43WMAQ",
      "types": [
        "administrative_area_level_3",
        "political"
      ]
    },
    {
      "address_components": [
        {
          "long_name": "Carroll County",
          "short_name": "Carroll County",
          "types": [
            "administrative_area_level_2",
            "political"
          ]
        },
        {
          "long_name": "Ohio",
          "short_name": "OH",
          "types": [
            "administrative_area_level_1",
            "political"
          ]
        },
        {
          "long_name": "United States",
          "short_name": "US",
          "types": [
            "country",
            "political"
          ]
        }
      ],
      "formatted_address": "Carroll County, OH, USA",
      "geometry": {
        "bounds": {
          "northeast": {
            "lat": 40.729172,
            "lng": -80.8608221
          },
          "southwest": {
            "lat": 40.4246999,
            "lng": -81.3216591
          }
        },
        "location": {
          "lat": 40.5328331,
          "lng": -81.0754657
        },
        "location_type": "APPROXIMATE",
        "viewport": {
          "northeast": {
            "lat": 40.729172,
            "lng": -80.8608221
          },
          "southwest": {
            "lat": 40.4246999,
            "lng": -81.3216591
          }
        }
      },
      "place_id": "ChIJXbk1oTTqNogRmAqr9LXGxFs",
      "types": [
        "administrative_area_level_2",
        "political"
      ]
    },
    {
      "address_components": [
        {
          "long_name": "Ohio",
          "short_name": "OH",
          "types": [
            "administrative_area_level_1",
            "political"
          ]
        },
        {
          "long_name": "United States",
          "short_name": "US",
          "types": [
            "country",
            "political"
          ]
        }
      ],
      "formatted_address": "Ohio, USA",
      "geometry": {
        "bounds": {
          "northeast": {
            "lat": 41.9773019,
            "lng": -80.5182
          },
          "southwest": {
            "lat": 38.4034229,
            "lng": -84.8203049
          }
        },
        "location": {
          "lat": 40.4172871,
          "lng": -82.90712300000001
        },
        "location_type": "APPROXIMATE",
        "viewport": {
          "northeast": {
            "lat": 41.9773019,
            "lng": -80.5182
          },
          "southwest": {
            "lat": 38.4034229,
            "lng": -84.8203049
          }
        }
      },
      "place_id": "ChIJwY5NtXrpNogRFtmfnDlkzeU",
      "types": [
        "administrative_area_level_1",
        "political"
      ]
    },
    {
      "address_components": [
        {
          "long_name": "United States",
          "short_name": "US",
          "types": [
            "country",
            "political"
          ]
        }
      ],
      "formatted_address": "United States",
      "geometry": {
        "bounds": {
          "northeast": {
            "lat": 71.3867745,
            "lng": -66.9502861
          },
          "southwest": {
            "lat": 18.9106768,
            "lng": 172.4458955
          }
        },
        "location": {
          "lat": 37.09024,
          "lng": -95.712891
        },
        "location_type": "APPROXIMATE",
        "viewport": {
          "northeast": {
            "lat": 49.38,
            "lng": -66.94
          },
          "southwest": {
            "lat": 25.82,
            "lng": -124.39
          }
        }
      },
      "place_id": "ChIJCzYy5IS16lQRQrfeQ5K5Oxw",
      "types": [
        "country",
        "political"
      ]
    }
  ],
  "status": "OK"
}
