{
  "results": [
    {
      "address_components": [
        {
          "long_name": "26",
          "short_name": "26",
          "types": [
            "street_number"
          ]
        },
        {
          "long_name": "South Park Street",
          "short_name": "S Park St",
          "types": [
            "route"
          ]
        },
        {
          "long_name": "Clyde",
          "short_name": "Clyde",
          "types": [
            "locality",
            "political"
          ]
        },
        {
          "long_name": "Galen",
          "short_name": "Galen",
          "types": [
            "administrative_area_level_3",
            "political"
          ]
        },
        {
          "long_name": "Wayne County",
          "short_name": "Wayne County",
          "types": [
            "administrative_area_level_2",
            "political"
          ]
        },
        {
          "long_name": "New York",
          "short_name": "NY",
          "types": [
            "administrative_area_level_1",
            "political"
          ]
        },
        {
          "long_name": "United States",
          "short_name": "US",
          "types": [
            "country",
            "political"
          ]
        },
        {
          "long_name": "14433",
          "short_name": "14433",
          "types": [
            "postal_code"
          ]
        },
        {
          "long_name": "1346",
          "short_name": "1346",
          "types": [
            "postal_code_suffix"
          ]
        }
      ],
      "formatted_address": "26 S Park St, Clyde, NY 14433, USA",
      "geometry": {
        "location": {
          "lat": 43.0838882,
          "lng": -76.87096799999999
        },
        "location_type": "ROOFTOP",
        "viewport": {
          "northeast": {
            "lat": 43.0852371802915,
            "lng": -76.86961901970848
          },
          "southwest": {
            "lat": 43.0825392197085,
            "lng": -76.87231698029149
          }
        }
      },
      "place_id": "ChIJR-vAIbM114kRN4gHkbZ52lo",
      "types": [
        "street_address"
      ]
    },
    {
      "address_components": [
        {
          "long_name": "Clyde",
          "short_name": "Clyde",
          "types": [
            "locality",
            "political"
          ]
        },
        {
          "long_name": "Galen",
          "short_name": "Galen",
          "types": [
            "administrative_area_level_3",
            "political"
          ]
        },
        {
          "long_name": "Wayne County",
          "short_name": "Wayne County",
          "types": [
            "administrative_area_level_2",
            "political"
          ]
        },
        {
          "long_name": "New York",
          "short_name": "NY",
          "types": [
            "administrative_area_level_1",
            "political"
          ]
        },
        {
          "long_name": "United States",
          "short_name": "US",
          "types": [
            "country",
            "political"
          ]
        },
        {
          "long_name": "14433",
          "short_name": "14433",
          "types": [
            "postal_code"
          ]
        }
      ],
      "formatted_address": "Clyde, NY 14433, USA",
      "geometry": {
        "bounds": {
          "northeast": {
            "lat": 43.0952399,
            "lng": -76.855203
          },
          "southwest": {
            "lat": 43.07261,
            "lng": -76.8862111
          }
        },
        "location": {
          "lat": 43.0842314,
          "lng": -76.86940489999999
        },
        "location_type": "APPROXIMATE",
        "viewport": {
          "northeast": {
            "lat": 43.0952399,
            "lng": -76.855203
          },
          "southwest": {
            "lat": 43.07261,
            "lng": -76.8862111
          }
        }
      },
      "place_id": "ChIJFcexIrM114kRVrzZvwT0pmI",
      "types": [
        "locality",
        "political"
      ]
    },
    {
      "address_components": [
        {
          "long_name": "Galen",
          "short_name": "Galen",
          "types": [
            "administrative_area_level_3",
            "political"
          ]
        },
        {
          "long_name": "Wayne County",
          "short_name": "Wayne County",
          "types": [
            "administrative_area_level_2",
            "political"
          ]
        },
        {
          "long_name": "New York",
          "short_name": "NY",
          "types": [
            "administrative_area_level_1",
            "political"
          ]
        },
        {
          "long_name": "United States",
          "short_name": "US",
          "types": [
            "country",
            "political"
          ]
        }
      ],
      "formatted_address": "Galen, NY, USA",
      "geometry": {
        "bounds": {
          "northeast": {
            "lat": 43.128839,
            "lng": -76.7967718
          },
          "southwest": {
            "lat": 43.013154,
            "lng": -76.963926
          }
        },
        "location": {
          "lat": 43.0715742,
          "lng": -76.8720961
        },
        "location_type": "APPROXIMATE",
        "viewport": {
          "northeast": {
            "lat": 43.128839,
            "lng": -76.7967718
          },
          "southwest": {
            "lat": 43.013154,
            "lng": -76.963926
          }
        }
      },
      "place_id": "ChIJ142tLvc014kRUeE_bCsOCbU",
      "types": [
        "administrative_area_level_3",
        "political"
      ]
    },
    {
      "address_components": [
        {
          "long_name": "14433",
          "short_name": "14433",
          "types": [
            "postal_code"
          ]
        },
        {
          "long_name": "Clyde",
          "short_name": "Clyde",
          "types": [
            "locality",
            "political"
          ]
        },
        {
          "long_name": "New York",
          "short_name": "NY",
          "types": [
            "administrative_area_level_1",
            "political"
          ]
        },
        {
          "long_name": "United States",
          "short_name": "US",
          "types": [
            "country",
            "political"
          ]
        }
      ],
      "formatted_address": "Clyde, NY 14433, USA",
      "geometry": {
        "bounds": {
          "northeast": {
            "lat": 43.17619680000001,
            "lng": -76.79205309999999
          },
          "southwest": {
            "lat": 42.958352,
            "lng": -76.963461
          }
        },
        "location": {
          "lat": 43.093343,
          "lng": -76.8951551
        },
        "location_type": "APPROXIMATE",
        "viewport": {
          "northeast": {
            "lat": 43.17619680000001,
            "lng": -76.79205309999999
          },
          "southwest": {
            "lat": 42.958352,
            "lng": -76.963461
          }
        }
      },
      "place_id": "ChIJ2X6urVY014kROCE75GCRkis",
      "types": [
        "postal_code"
      ]
    },
    {
      "address_components": [
        {
          "long_name": "Wayne County",
          "short_name": "Wayne County",
          "types": [
            "administrative_area_level_2",
            "political"
          ]
        },
        {
          "long_name": "New York",
          "short_name": "NY",
          "types": [
            "administrative_area_level_1",
            "political"
          ]
        },
        {
          "long_name": "United States",
          "short_name": "US",
          "types": [
            "country",
            "political"
          ]
        }
      ],
      "formatted_address": "Wayne County, NY, USA",
      "geometry": {
        "bounds": {
          "northeast": {
            "lat": 43.3438856,
            "lng": -76.70231
          },
          "southwest": {
            "lat": 43.0124628,
            "lng": -77.3760539
          }
        },
        "location": {
          "lat": 43.2020024,
          "lng": -77.010385
        },
        "location_type": "APPROXIMATE",
        "viewport": {
          "northeast": {
            "lat": 43.3438856,
            "lng": -76.70231
          },
          "southwest": {
            "lat": 43.0124628,
            "lng": -77.3760539
          }
        }
      },
      "place_id": "ChIJo32hGvsi14kR5YEQkt8dvoA",
      "types": [
        "administrative_area_level_2",
        "political"
      ]
    },
    {
      "address_components": [
        {
          "long_name": "Rochester",
          "short_name": "Rochester",
          "types": [
            "political"
          ]
        },
        {
          "long_name": "New York",
          "short_name": "NY",
          "types": [
            "administrative_area_level_1",
            "political"
          ]
        },
        {
          "long_name": "United States",
          "short_name": "US",
          "types": [
            "country",
            "political"
          ]
        }
      ],
      "formatted_address": "Rochester, NY, USA",
      "geometry": {
        "bounds": {
          "northeast": {
            "lat": 43.37650499999999,
            "lng": -76.702356
          },
          "southwest": {
            "lat": 42.471216,
            "lng": -78.46648309999999
          }
        },
        "location": {
          "lat": 42.938004,
          "lng": -77.3783789
        },
        "location_type": "APPROXIMATE",
        "viewport": {
          "northeast": {
            "lat": 43.37650499999999,
            "lng": -76.702356
          },
          "southwest": {
            "lat": 42.471216,
            "lng": -78.46648309999999
          }
        }
      },
      "place_id": "ChIJgc_bWiY20YkRqU2QPLS42jQ",
      "types": [
        "political"
      ]
    },
    {
      "address_components": [
        {
          "long_name": "New York",
          "short_name": "NY",
          "types": [
            "administrative_area_level_1",
            "political"
          ]
        },
        {
          "long_name": "United States",
          "short_name": "US",
          "types": [
            "country",
            "political"
          ]
        }
      ],
      "formatted_address": "New York, USA",
      "geometry": {
        "bounds": {
          "northeast": {
            "lat": 45.015865,
            "lng": -71.85620639999999
          },
          "southwest": {
            "lat": 40.496091,
            "lng": -79.76214379999999
          }
        },
        "location": {
          "lat": 43.2994285,
          "lng": -74.21793260000001
        },
        "location_type": "APPROXIMATE",
        "viewport": {
          "northeast": {
            "lat": 45.015859,
            "lng": -71.85620639999999
          },
          "southwest": {
            "lat": 40.496091,
            "lng": -79.76214379999999
          }
        }
      },
      "place_id": "ChIJqaUj8fBLzEwRZ5UY3sHGz90",
      "types": [
        "administrative_area_level_1",
        "political"
      ]
    },
    {
      "address_components": [
        {
          "long_name": "United States",
          "short_name": "US",
          "types": [
            "country",
            "political"
          ]
        }
      ],
      "formatted_address": "United States",
      "geometry": {
        "bounds": {
          "northeast": {
            "lat": 71.3867745,
            "lng": -66.9502861
          },
          "southwest": {
            "lat": 18.9106768,
            "lng": 172.4458955
          }
        },
        "location": {
          "lat": 37.09024,
          "lng": -95.712891
        },
        "location_type": "APPROXIMATE",
        "viewport": {
          "northeast": {
            "lat": 49.38,
            "lng": -66.94
          },
          "southwest": {
            "lat": 25.82,
            "lng": -124.39
          }
        }
      },
      "place_id": "ChIJCzYy5IS16lQRQrfeQ5K5Oxw",
      "types": [
        "country",
        "political"
      ]
    }
  ],
  "status": "OK"
}
