{
  "results": [
    {
      "address_components": [
        {
          "long_name": "2-138",
          "short_name": "2-138",
          "types": [
            "street_number"
          ]
        },
        {
          "long_name": "Gull Lake Island",
          "short_name": "Gull Lake Island",
          "types": [
            "route"
          ]
        },
        {
          "long_name": "Richland",
          "short_name": "Richland",
          "types": [
            "locality",
            "political"
          ]
        },
        {
          "long_name": "Ross Township",
          "short_name": "Ross Township",
          "types": [
            "administrative_area_level_3",
            "political"
          ]
        },
        {
          "long_name": "Kalamazoo County",
          "short_name": "Kalamazoo County",
          "types": [
            "administrative_area_level_2",
            "political"
          ]
        },
        {
          "long_name": "Michigan",
          "short_name": "MI",
          "types": [
            "administrative_area_level_1",
            "political"
          ]
        },
        {
          "long_name": "United States",
          "short_name": "US",
          "types": [
            "country",
            "political"
          ]
        },
        {
          "long_name": "49083",
          "short_name": "49083",
          "types": [
            "postal_code"
          ]
        }
      ],
      "formatted_address": "2-138 Gull Lake Island, Richland, MI 49083, USA",
      "geometry": {
        "bounds": {
          "northeast": {
            "lat": 42.3866089,
            "lng": -85.3999316
          },
          "southwest": {
            "lat": 42.3842536,
            "lng": -85.4015414
          }
        },
        "location": {
          "lat": 42.3866225,
          "lng": -85.4003964
        },
        "location_type": "RANGE_INTERPOLATED",
        "viewport": {
          "northeast": {
            "lat": 42.3867802302915,
            "lng": -85.3993875197085
          },
          "southwest": {
            "lat": 42.38408226970851,
            "lng": -85.4020854802915
          }
        }
      },
      "place_id": "Ei8yLTEzOCBHdWxsIExha2UgSXNsYW5kLCBSaWNobGFuZCwgTUkgNDkwODMsIFVTQQ",
      "types": [
        "street_address"
      ]
    },
    {
      "address_components": [
        {
          "long_name": "South Gull Lake",
          "short_name": "South Gull Lake",
          "types": [
            "locality",
            "political"
          ]
        },
        {
          "long_name": "Ross Township",
          "short_name": "Ross Township",
          "types": [
            "administrative_area_level_3",
            "political"
          ]
        },
        {
          "long_name": "Kalamazoo County",
          "short_name": "Kalamazoo County",
          "types": [
            "administrative_area_level_2",
            "political"
          ]
        },
        {
          "long_name": "Michigan",
          "short_name": "MI",
          "types": [
            "administrative_area_level_1",
            "political"
          ]
        },
        {
          "long_name": "United States",
          "short_name": "US",
          "types": [
            "country",
            "political"
          ]
        }
      ],
      "formatted_address": "South Gull Lake, MI, USA",
      "geometry": {
        "bounds": {
          "northeast": {
            "lat": 42.416201,
            "lng": -85.38034789999999
          },
          "southwest": {
            "lat": 42.369552,
            "lng": -85.4161599
          }
        },
        "location": {
          "lat": 42.3875389,
          "lng": -85.3966703
        },
        "location_type": "APPROXIMATE",
        "viewport": {
          "northeast": {
            "lat": 42.416201,
            "lng": -85.38034789999999
          },
          "southwest": {
            "lat": 42.369552,
            "lng": -85.4161599
          }
        }
      },
      "place_id": "ChIJp7pbdy-JF4gR6weiAj7CG2w",
      "types": [
        "locality",
        "political"
      ]
    },
    {
      "address_components": [
        {
          "long_name": "49083",
          "short_name": "49083",
          "types": [
            "postal_code"
          ]
        },
        {
          "long_name": "Richland",
          "short_name": "Richland",
          "types": [
            "locality",
            "political"
          ]
        },
        {
          "long_name": "Michigan",
          "short_name": "MI",
          "types": [
            "administrative_area_level_1",
            "political"
          ]
        },
        {
          "long_name": "United States",
          "short_name": "US",
          "types": [
            "country",
            "political"
          ]
        }
      ],
      "formatted_address": "Richland, MI 49083, USA",
      "geometry": {
        "bounds": {
          "northeast": {
            "lat": 42.42150789999999,
            "lng": -85.3868931
          },
          "southwest": {
            "lat": 42.332688,
            "lng": -85.5580069
          }
        },
        "location": {
          "lat": 42.3733085,
          "lng": -85.4684971
        },
        "location_type": "APPROXIMATE",
        "viewport": {
          "northeast": {
            "lat": 42.42150789999999,
            "lng": -85.3868931
          },
          "southwest": {
            "lat": 42.332688,
            "lng": -85.5580069
          }
        }
      },
      "place_id": "ChIJ937zsduFF4gRPphhcBMIUJw",
      "types": [
        "postal_code"
      ]
    },
    {
      "address_components": [
        {
          "long_name": "Ross Township",
          "short_name": "Ross Township",
          "types": [
            "administrative_area_level_3",
            "political"
          ]
        },
        {
          "long_name": "Kalamazoo County",
          "short_name": "Kalamazoo County",
          "types": [
            "administrative_area_level_2",
            "political"
          ]
        },
        {
          "long_name": "Michigan",
          "short_name": "MI",
          "types": [
            "administrative_area_level_1",
            "political"
          ]
        },
        {
          "long_name": "United States",
          "short_name": "US",
          "types": [
            "country",
            "political"
          ]
        }
      ],
      "formatted_address": "Ross Township, MI, USA",
      "geometry": {
        "bounds": {
          "northeast": {
            "lat": 42.4201939,
            "lng": -85.297686
          },
          "southwest": {
            "lat": 42.332498,
            "lng": -85.418099
          }
        },
        "location": {
          "lat": 42.359786,
          "lng": -85.37562489999999
        },
        "location_type": "APPROXIMATE",
        "viewport": {
          "northeast": {
            "lat": 42.4201939,
            "lng": -85.297686
          },
          "southwest": {
            "lat": 42.332498,
            "lng": -85.418099
          }
        }
      },
      "place_id": "ChIJ30rdAKuOF4gR49IY_hRVFKs",
      "types": [
        "administrative_area_level_3",
        "political"
      ]
    },
    {
      "address_components": [
        {
          "long_name": "Kalamazoo County",
          "short_name": "Kalamazoo County",
          "types": [
            "administrative_area_level_2",
            "political"
          ]
        },
        {
          "long_name": "Michigan",
          "short_name": "MI",
          "types": [
            "administrative_area_level_1",
            "political"
          ]
        },
        {
          "long_name": "United States",
          "short_name": "US",
          "types": [
            "country",
            "political"
          ]
        }
      ],
      "formatted_address": "Kalamazoo County, MI, USA",
      "geometry": {
        "bounds": {
          "northeast": {
            "lat": 42.4215229,
            "lng": -85.293623
          },
          "southwest": {
            "lat": 42.069327,
            "lng": -85.76606609999999
          }
        },
        "location": {
          "lat": 42.2278346,
          "lng": -85.52002399999999
        },
        "location_type": "APPROXIMATE",
        "viewport": {
          "northeast": {
            "lat": 42.4215229,
            "lng": -85.293623
          },
          "southwest": {
            "lat": 42.069327,
            "lng": -85.76606609999999
          }
        }
      },
      "place_id": "ChIJuf0n9q6eF4gR_Y1LA3Eg7go",
      "types": [
        "administrative_area_level_2",
        "political"
      ]
    },
    {
      "address_components": [
        {
          "long_name": "Michigan",
          "short_name": "MI",
          "types": [
            "administrative_area_level_1",
            "political"
          ]
        },
        {
          "long_name": "United States",
          "short_name": "US",
          "types": [
            "country",
            "political"
          ]
        }
      ],
      "formatted_address": "Michigan, USA",
      "geometry": {
        "bounds": {
          "northeast": {
            "lat": 48.1986461,
            "lng": -82.413474
          },
          "southwest": {
            "lat": 41.696118,
            "lng": -90.4181358
          }
        },
        "location": {
          "lat": 44.3148443,
          "lng": -85.60236429999999
        },
        "location_type": "APPROXIMATE",
        "viewport": {
          "northeast": {
            "lat": 48.198602,
            "lng": -82.413474
          },
          "southwest": {
            "lat": 41.696118,
            "lng": -90.4181358
          }
        }
      },
      "place_id": "ChIJEQTKxz2qTE0Rs8liellI3Zc",
      "types": [
        "administrative_area_level_1",
        "political"
      ]
    },
    {
      "address_components": [
        {
          "long_name": "United States",
          "short_name": "US",
          "types": [
            "country",
            "political"
          ]
        }
      ],
      "formatted_address": "United States",
      "geometry": {
        "bounds": {
          "northeast": {
            "lat": 71.3867745,
            "lng": -66.9502861
          },
          "southwest": {
            "lat": 18.9106768,
            "lng": 172.4458955
          }
        },
        "location": {
          "lat": 37.09024,
          "lng": -95.712891
        },
        "location_type": "APPROXIMATE",
        "viewport": {
          "northeast": {
            "lat": 49.38,
            "lng": -66.94
          },
          "southwest": {
            "lat": 25.82,
            "lng": -124.39
          }
        }
      },
      "place_id": "ChIJCzYy5IS16lQRQrfeQ5K5Oxw",
      "types": [
        "country",
        "political"
      ]
    }
  ],
  "status": "OK"
}
