{
  "results": [
    {
      "address_components": [
        {
          "long_name": "Congress Street",
          "short_name": "Congress St",
          "types": [
            "route"
          ]
        },
        {
          "long_name": "Lancaster",
          "short_name": "Lancaster",
          "types": [
            "locality",
            "political"
          ]
        },
        {
          "long_name": "Lancaster",
          "short_name": "Lancaster",
          "types": [
            "administrative_area_level_3",
            "political"
          ]
        },
        {
          "long_name": "Atchison County",
          "short_name": "Atchison County",
          "types": [
            "administrative_area_level_2",
            "political"
          ]
        },
        {
          "long_name": "Kansas",
          "short_name": "KS",
          "types": [
            "administrative_area_level_1",
            "political"
          ]
        },
        {
          "long_name": "United States",
          "short_name": "US",
          "types": [
            "country",
            "political"
          ]
        },
        {
          "long_name": "66041",
          "short_name": "66041",
          "types": [
            "postal_code"
          ]
        }
      ],
      "formatted_address": "Congress St, Lancaster, KS 66041, USA",
      "geometry": {
        "bounds": {
          "northeast": {
            "lat": 39.5728032,
            "lng": -95.30347239999999
          },
          "southwest": {
            "lat": 39.5707099,
            "lng": -95.3034928
          }
        },
        "location": {
          "lat": 39.5717564,
          "lng": -95.30349249999999
        },
        "location_type": "GEOMETRIC_CENTER",
        "viewport": {
          "northeast": {
            "lat": 39.5731055302915,
            "lng": -95.30213361970848
          },
          "southwest": {
            "lat": 39.5704075697085,
            "lng": -95.30483158029149
          }
        }
      },
      "place_id": "ChIJm6s-Zofsv4cRBy0i0KZzYXc",
      "types": [
        "route"
      ]
    },
    {
      "address_components": [
        {
          "long_name": "Lancaster",
          "short_name": "Lancaster",
          "types": [
            "locality",
            "political"
          ]
        },
        {
          "long_name": "Lancaster",
          "short_name": "Lancaster",
          "types": [
            "administrative_area_level_3",
            "political"
          ]
        },
        {
          "long_name": "Atchison County",
          "short_name": "Atchison County",
          "types": [
            "administrative_area_level_2",
            "political"
          ]
        },
        {
          "long_name": "Kansas",
          "short_name": "KS",
          "types": [
            "administrative_area_level_1",
            "political"
          ]
        },
        {
          "long_name": "United States",
          "short_name": "US",
          "types": [
            "country",
            "political"
          ]
        },
        {
          "long_name": "66041",
          "short_name": "66041",
          "types": [
            "postal_code"
          ]
        }
      ],
      "formatted_address": "Lancaster, KS 66041, USA",
      "geometry": {
        "bounds": {
          "northeast": {
            "lat": 39.5773679,
            "lng": -95.2993159
          },
          "southwest": {
            "lat": 39.56553410000001,
            "lng": -95.3072529
          }
        },
        "location": {
          "lat": 39.5727762,
          "lng": -95.3027512
        },
        "location_type": "APPROXIMATE",
        "viewport": {
          "northeast": {
            "lat": 39.5773679,
            "lng": -95.2993159
          },
          "southwest": {
            "lat": 39.56553410000001,
            "lng": -95.3072529
          }
        }
      },
      "place_id": "ChIJnRBi9n_rv4cRRiHDqcxQtw0",
      "types": [
        "locality",
        "political"
      ]
    },
    {
      "address_components": [
        {
          "long_name": "66041",
          "short_name": "66041",
          "types": [
            "postal_code"
          ]
        },
        {
          "long_name": "Lancaster",
          "short_name": "Lancaster",
          "types": [
            "locality",
            "political"
          ]
        },
        {
          "long_name": "Kansas",
          "short_name": "KS",
          "types": [
            "administrative_area_level_1",
            "political"
          ]
        },
        {
          "long_name": "United States",
          "short_name": "US",
          "types": [
            "country",
            "political"
          ]
        }
      ],
      "formatted_address": "Lancaster, KS 66041, USA",
      "geometry": {
        "bounds": {
          "northeast": {
            "lat": 39.653054,
            "lng": -95.235219
          },
          "southwest": {
            "lat": 39.493566,
            "lng": -95.40564599999999
          }
        },
        "location": {
          "lat": 39.5727386,
          "lng": -95.3027415
        },
        "location_type": "APPROXIMATE",
        "viewport": {
          "northeast": {
            "lat": 39.653054,
            "lng": -95.235219
          },
          "southwest": {
            "lat": 39.493566,
            "lng": -95.40564599999999
          }
        }
      },
      "place_id": "ChIJre6lMPjrv4cRoEKV50Fq3KU",
      "postcode_localities": [
        "Huron",
        "Lancaster"
      ],
      "types": [
        "postal_code"
      ]
    },
    {
      "address_components": [
        {
          "long_name": "Lancaster",
          "short_name": "Lancaster",
          "types": [
            "administrative_area_level_3",
            "political"
          ]
        },
        {
          "long_name": "Atchison County",
          "short_name": "Atchison County",
          "types": [
            "administrative_area_level_2",
            "political"
          ]
        },
        {
          "long_name": "Kansas",
          "short_name": "KS",
          "types": [
            "administrative_area_level_1",
            "political"
          ]
        },
        {
          "long_name": "United States",
          "short_name": "US",
          "types": [
            "country",
            "political"
          ]
        }
      ],
      "formatted_address": "Lancaster, KS, USA",
      "geometry": {
        "bounds": {
          "northeast": {
            "lat": 39.6530639,
            "lng": -95.227288
          },
          "southwest": {
            "lat": 39.5492409,
            "lng": -95.3963189
          }
        },
        "location": {
          "lat": 39.5935937,
          "lng": -95.2893433
        },
        "location_type": "APPROXIMATE",
        "viewport": {
          "northeast": {
            "lat": 39.6530639,
            "lng": -95.227288
          },
          "southwest": {
            "lat": 39.5492409,
            "lng": -95.3963189
          }
        }
      },
      "place_id": "ChIJd7dvpPfrv4cRXdsfvJfAt4M",
      "types": [
        "administrative_area_level_3",
        "political"
      ]
    },
    {
      "address_components": [
        {
          "long_name": "Atchison County",
          "short_name": "Atchison County",
          "types": [
            "administrative_area_level_2",
            "political"
          ]
        },
        {
          "long_name": "Kansas",
          "short_name": "KS",
          "types": [
            "administrative_area_level_1",
            "political"
          ]
        },
        {
          "long_name": "United States",
          "short_name": "US",
          "types": [
            "country",
            "political"
          ]
        }
      ],
      "formatted_address": "Atchison County, KS, USA",
      "geometry": {
        "bounds": {
          "northeast": {
            "lat": 39.6530639,
            "lng": -94.9689729
          },
          "southwest": {
            "lat": 39.4188118,
            "lng": -95.57037
          }
        },
        "location": {
          "lat": 39.5701137,
          "lng": -95.35208759999999
        },
        "location_type": "APPROXIMATE",
        "viewport": {
          "northeast": {
            "lat": 39.6530639,
            "lng": -94.9689729
          },
          "southwest": {
            "lat": 39.4188118,
            "lng": -95.57037
          }
        }
      },
      "place_id": "ChIJXY83dd_sv4cR6dSLveLTH30",
      "types": [
        "administrative_area_level_2",
        "political"
      ]
    },
    {
      "address_components": [
        {
          "long_name": "Atchison",
          "short_name": "Atchison",
          "types": [
            "political"
          ]
        },
        {
          "long_name": "United States",
          "short_name": "US",
          "types": [
            "country",
            "political"
          ]
        }
      ],
      "formatted_address": "Atchison, USA",
      "geometry": {
        "bounds": {
          "northeast": {
            "lat": 39.652992,
            "lng": -94.96854760000001
          },
          "southwest": {
            "lat": 39.4187599,
            "lng": -95.57050989999999
          }
        },
        "location": {
          "lat": 39.5701137,
          "lng": -95.35208759999999
        },
        "location_type": "APPROXIMATE",
        "viewport": {
          "northeast": {
            "lat": 39.652992,
            "lng": -94.96854760000001
          },
          "southwest": {
            "lat": 39.4187599,
            "lng": -95.57050989999999
          }
        }
      },
      "place_id": "ChIJOVP_H1Xrv4cRl53BuAySgc4",
      "types": [
        "political"
      ]
    },
    {
      "address_components": [
        {
          "long_name": "Kansas",
          "short_name": "KS",
          "types": [
            "administrative_area_level_1",
            "political"
          ]
        },
        {
          "long_name": "United States",
          "short_name": "US",
          "types": [
            "country",
            "political"
          ]
        }
      ],
      "formatted_address": "Kansas, USA",
      "geometry": {
        "bounds": {
          "northeast": {
            "lat": 40.0045419,
            "lng": -94.588387
          },
          "southwest": {
            "lat": 36.9930159,
            "lng": -102.0517688
          }
        },
        "location": {
          "lat": 39.011902,
          "lng": -98.4842465
        },
        "location_type": "APPROXIMATE",
        "viewport": {
          "northeast": {
            "lat": 40.0045419,
            "lng": -94.588387
          },
          "southwest": {
            "lat": 36.9930159,
            "lng": -102.0517688
          }
        }
      },
      "place_id": "ChIJawF8cXEXo4cRXwk-S6m0wmg",
      "types": [
        "administrative_area_level_1",
        "political"
      ]
    },
    {
      "address_components": [
        {
          "long_name": "United States",
          "short_name": "US",
          "types": [
            "country",
            "political"
          ]
        }
      ],
      "formatted_address": "United States",
      "geometry": {
        "bounds": {
          "northeast": {
            "lat": 71.3867745,
            "lng": -66.9502861
          },
          "southwest": {
            "lat": 18.9106768,
            "lng": 172.4458955
          }
        },
        "location": {
          "lat": 37.09024,
          "lng": -95.712891
        },
        "location_type": "APPROXIMATE",
        "viewport": {
          "northeast": {
            "lat": 49.38,
            "lng": -66.94
          },
          "southwest": {
            "lat": 25.82,
            "lng": -124.39
          }
        }
      },
      "place_id": "ChIJCzYy5IS16lQRQrfeQ5K5Oxw",
      "types": [
        "country",
        "political"
      ]
    }
  ],
  "status": "OK"
}
