{
  "results": [
    {
      "address_components": [
        {
          "long_name": "500-598",
          "short_name": "500-598",
          "types": [
            "street_number"
          ]
        },
        {
          "long_name": "Main Street",
          "short_name": "Main St",
          "types": [
            "route"
          ]
        },
        {
          "long_name": "Denton",
          "short_name": "Denton",
          "types": [
            "locality",
            "political"
          ]
        },
        {
          "long_name": "Union",
          "short_name": "Union",
          "types": [
            "administrative_area_level_3",
            "political"
          ]
        },
        {
          "long_name": "Doniphan County",
          "short_name": "Doniphan County",
          "types": [
            "administrative_area_level_2",
            "political"
          ]
        },
        {
          "long_name": "Kansas",
          "short_name": "KS",
          "types": [
            "administrative_area_level_1",
            "political"
          ]
        },
        {
          "long_name": "United States",
          "short_name": "US",
          "types": [
            "country",
            "political"
          ]
        },
        {
          "long_name": "66017",
          "short_name": "66017",
          "types": [
            "postal_code"
          ]
        }
      ],
      "formatted_address": "500-598 Main St, Denton, KS 66017, USA",
      "geometry": {
        "bounds": {
          "northeast": {
            "lat": 39.7321666,
            "lng": -95.2693608
          },
          "southwest": {
            "lat": 39.7314091,
            "lng": -95.26936599999999
          }
        },
        "location": {
          "lat": 39.7318861,
          "lng": -95.26938059999999
        },
        "location_type": "RANGE_INTERPOLATED",
        "viewport": {
          "northeast": {
            "lat": 39.73313683029149,
            "lng": -95.26801441970849
          },
          "southwest": {
            "lat": 39.7304388697085,
            "lng": -95.2707123802915
          }
        }
      },
      "place_id": "EiY1MDAtNTk4IE1haW4gU3QsIERlbnRvbiwgS1MgNjYwMTcsIFVTQQ",
      "types": [
        "street_address"
      ]
    },
    {
      "address_components": [
        {
          "long_name": "Denton",
          "short_name": "Denton",
          "types": [
            "locality",
            "political"
          ]
        },
        {
          "long_name": "Union",
          "short_name": "Union",
          "types": [
            "administrative_area_level_3",
            "political"
          ]
        },
        {
          "long_name": "Doniphan County",
          "short_name": "Doniphan County",
          "types": [
            "administrative_area_level_2",
            "political"
          ]
        },
        {
          "long_name": "Kansas",
          "short_name": "KS",
          "types": [
            "administrative_area_level_1",
            "political"
          ]
        },
        {
          "long_name": "United States",
          "short_name": "US",
          "types": [
            "country",
            "political"
          ]
        }
      ],
      "formatted_address": "Denton, KS, USA",
      "geometry": {
        "bounds": {
          "northeast": {
            "lat": 39.73610410000001,
            "lng": -95.264849
          },
          "southwest": {
            "lat": 39.729095,
            "lng": -95.27429
          }
        },
        "location": {
          "lat": 39.7315269,
          "lng": -95.26909669999999
        },
        "location_type": "APPROXIMATE",
        "viewport": {
          "northeast": {
            "lat": 39.73610410000001,
            "lng": -95.264849
          },
          "southwest": {
            "lat": 39.729095,
            "lng": -95.27429
          }
        }
      },
      "place_id": "ChIJ4Y8MuKnlv4cR3spxF9lirec",
      "types": [
        "locality",
        "political"
      ]
    },
    {
      "address_components": [
        {
          "long_name": "Union",
          "short_name": "Union",
          "types": [
            "administrative_area_level_3",
            "political"
          ]
        },
        {
          "long_name": "Doniphan County",
          "short_name": "Doniphan County",
          "types": [
            "administrative_area_level_2",
            "political"
          ]
        },
        {
          "long_name": "Kansas",
          "short_name": "KS",
          "types": [
            "administrative_area_level_1",
            "political"
          ]
        },
        {
          "long_name": "United States",
          "short_name": "US",
          "types": [
            "country",
            "political"
          ]
        }
      ],
      "formatted_address": "Union, KS, USA",
      "geometry": {
        "bounds": {
          "northeast": {
            "lat": 39.740375,
            "lng": -95.22716779999999
          },
          "southwest": {
            "lat": 39.652916,
            "lng": -95.339862
          }
        },
        "location": {
          "lat": 39.7171125,
          "lng": -95.2893433
        },
        "location_type": "APPROXIMATE",
        "viewport": {
          "northeast": {
            "lat": 39.740375,
            "lng": -95.22716779999999
          },
          "southwest": {
            "lat": 39.652916,
            "lng": -95.339862
          }
        }
      },
      "place_id": "ChIJzaHBP2Lvv4cRtrI1iHXVUqU",
      "types": [
        "administrative_area_level_3",
        "political"
      ]
    },
    {
      "address_components": [
        {
          "long_name": "66017",
          "short_name": "66017",
          "types": [
            "postal_code"
          ]
        },
        {
          "long_name": "Denton",
          "short_name": "Denton",
          "types": [
            "locality",
            "political"
          ]
        },
        {
          "long_name": "Kansas",
          "short_name": "KS",
          "types": [
            "administrative_area_level_1",
            "political"
          ]
        },
        {
          "long_name": "United States",
          "short_name": "US",
          "types": [
            "country",
            "political"
          ]
        }
      ],
      "formatted_address": "Denton, KS 66017, USA",
      "geometry": {
        "bounds": {
          "northeast": {
            "lat": 39.754919,
            "lng": -95.202208
          },
          "southwest": {
            "lat": 39.6529589,
            "lng": -95.349054
          }
        },
        "location": {
          "lat": 39.67596710000001,
          "lng": -95.2893433
        },
        "location_type": "APPROXIMATE",
        "viewport": {
          "northeast": {
            "lat": 39.754919,
            "lng": -95.202208
          },
          "southwest": {
            "lat": 39.6529589,
            "lng": -95.349054
          }
        }
      },
      "place_id": "ChIJaRWxH47lv4cRmT3L4ZsYUHU",
      "types": [
        "postal_code"
      ]
    },
    {
      "address_components": [
        {
          "long_name": "Doniphan County",
          "short_name": "Doniphan County",
          "types": [
            "administrative_area_level_2",
            "political"
          ]
        },
        {
          "long_name": "Kansas",
          "short_name": "KS",
          "types": [
            "administrative_area_level_1",
            "political"
          ]
        },
        {
          "long_name": "United States",
          "short_name": "US",
          "types": [
            "country",
            "political"
          ]
        }
      ],
      "formatted_address": "Doniphan County, KS, USA",
      "geometry": {
        "bounds": {
          "northeast": {
            "lat": 40.0000001,
            "lng": -94.8590349
          },
          "southwest": {
            "lat": 39.6235268,
            "lng": -95.339958
          }
        },
        "location": {
          "lat": 39.8245628,
          "lng": -95.18492189999999
        },
        "location_type": "APPROXIMATE",
        "viewport": {
          "northeast": {
            "lat": 40.0000001,
            "lng": -94.8590349
          },
          "southwest": {
            "lat": 39.6235268,
            "lng": -95.339958
          }
        }
      },
      "place_id": "ChIJOduz0ET8v4cRnpWFQznHNiM",
      "types": [
        "administrative_area_level_2",
        "political"
      ]
    },
    {
      "address_components": [
        {
          "long_name": "St. Joseph",
          "short_name": "St. Joseph",
          "types": [
            "political"
          ]
        },
        {
          "long_name": "United States",
          "short_name": "US",
          "types": [
            "country",
            "political"
          ]
        }
      ],
      "formatted_address": "St. Joseph, USA",
      "geometry": {
        "bounds": {
          "northeast": {
            "lat": 40.130305,
            "lng": -94.203454
          },
          "southwest": {
            "lat": 39.531296,
            "lng": -95.33994299999999
          }
        },
        "location": {
          "lat": 39.7995828,
          "lng": -94.81059549999999
        },
        "location_type": "APPROXIMATE",
        "viewport": {
          "northeast": {
            "lat": 40.130305,
            "lng": -94.203454
          },
          "southwest": {
            "lat": 39.531296,
            "lng": -95.33994299999999
          }
        }
      },
      "place_id": "ChIJzx5Jd_EewIcRMPOa-xvQ4d4",
      "types": [
        "political"
      ]
    },
    {
      "address_components": [
        {
          "long_name": "Kansas",
          "short_name": "KS",
          "types": [
            "administrative_area_level_1",
            "political"
          ]
        },
        {
          "long_name": "United States",
          "short_name": "US",
          "types": [
            "country",
            "political"
          ]
        }
      ],
      "formatted_address": "Kansas, USA",
      "geometry": {
        "bounds": {
          "northeast": {
            "lat": 40.0045419,
            "lng": -94.588387
          },
          "southwest": {
            "lat": 36.9930159,
            "lng": -102.0517688
          }
        },
        "location": {
          "lat": 39.011902,
          "lng": -98.4842465
        },
        "location_type": "APPROXIMATE",
        "viewport": {
          "northeast": {
            "lat": 40.0045419,
            "lng": -94.588387
          },
          "southwest": {
            "lat": 36.9930159,
            "lng": -102.0517688
          }
        }
      },
      "place_id": "ChIJawF8cXEXo4cRXwk-S6m0wmg",
      "types": [
        "administrative_area_level_1",
        "political"
      ]
    },
    {
      "address_components": [
        {
          "long_name": "United States",
          "short_name": "US",
          "types": [
            "country",
            "political"
          ]
        }
      ],
      "formatted_address": "United States",
      "geometry": {
        "bounds": {
          "northeast": {
            "lat": 71.3867745,
            "lng": -66.9502861
          },
          "southwest": {
            "lat": 18.9106768,
            "lng": 172.4458955
          }
        },
        "location": {
          "lat": 37.09024,
          "lng": -95.712891
        },
        "location_type": "APPROXIMATE",
        "viewport": {
          "northeast": {
            "lat": 49.38,
            "lng": -66.94
          },
          "southwest": {
            "lat": 25.82,
            "lng": -124.39
          }
        }
      },
      "place_id": "ChIJCzYy5IS16lQRQrfeQ5K5Oxw",
      "types": [
        "country",
        "political"
      ]
    }
  ],
  "status": "OK"
}
