{
  "results": [
    {
      "address_components": [
        {
          "long_name": "1013-1045",
          "short_name": "1013-1045",
          "types": [
            "street_number"
          ]
        },
        {
          "long_name": "New York 213",
          "short_name": "NY-213",
          "types": [
            "route"
          ]
        },
        {
          "long_name": "High Falls",
          "short_name": "High Falls",
          "types": [
            "locality",
            "political"
          ]
        },
        {
          "long_name": "Rosendale",
          "short_name": "Rosendale",
          "types": [
            "administrative_area_level_3",
            "political"
          ]
        },
        {
          "long_name": "Ulster County",
          "short_name": "Ulster County",
          "types": [
            "administrative_area_level_2",
            "political"
          ]
        },
        {
          "long_name": "New York",
          "short_name": "NY",
          "types": [
            "administrative_area_level_1",
            "political"
          ]
        },
        {
          "long_name": "United States",
          "short_name": "US",
          "types": [
            "country",
            "political"
          ]
        },
        {
          "long_name": "12440",
          "short_name": "12440",
          "types": [
            "postal_code"
          ]
        }
      ],
      "formatted_address": "1013-1045 NY-213, High Falls, NY 12440, USA",
      "geometry": {
        "bounds": {
          "northeast": {
            "lat": 41.8278626,
            "lng": -74.116534
          },
          "southwest": {
            "lat": 41.827059,
            "lng": -74.11900390000001
          }
        },
        "location": {
          "lat": 41.82725600000001,
          "lng": -74.1183198
        },
        "location_type": "RANGE_INTERPOLATED",
        "viewport": {
          "northeast": {
            "lat": 41.8288097802915,
            "lng": -74.1164199697085
          },
          "southwest": {
            "lat": 41.8261118197085,
            "lng": -74.11911793029151
          }
        }
      },
      "place_id": "EisxMDEzLTEwNDUgTlktMjEzLCBIaWdoIEZhbGxzLCBOWSAxMjQ0MCwgVVNB",
      "types": [
        "street_address"
      ]
    },
    {
      "address_components": [
        {
          "long_name": "High Falls",
          "short_name": "High Falls",
          "types": [
            "locality",
            "political"
          ]
        },
        {
          "long_name": "Rosendale",
          "short_name": "Rosendale",
          "types": [
            "administrative_area_level_3",
            "political"
          ]
        },
        {
          "long_name": "Ulster County",
          "short_name": "Ulster County",
          "types": [
            "administrative_area_level_2",
            "political"
          ]
        },
        {
          "long_name": "New York",
          "short_name": "NY",
          "types": [
            "administrative_area_level_1",
            "political"
          ]
        },
        {
          "long_name": "United States",
          "short_name": "US",
          "types": [
            "country",
            "political"
          ]
        }
      ],
      "formatted_address": "High Falls, NY, USA",
      "geometry": {
        "bounds": {
          "northeast": {
            "lat": 41.8404,
            "lng": -74.106639
          },
          "southwest": {
            "lat": 41.8136709,
            "lng": -74.137064
          }
        },
        "location": {
          "lat": 41.8267596,
          "lng": -74.12625489999999
        },
        "location_type": "APPROXIMATE",
        "viewport": {
          "northeast": {
            "lat": 41.8404,
            "lng": -74.106639
          },
          "southwest": {
            "lat": 41.8136709,
            "lng": -74.137064
          }
        }
      },
      "place_id": "ChIJWdfZHS_g3IkRNErgSyn0r6Y",
      "types": [
        "locality",
        "political"
      ]
    },
    {
      "address_components": [
        {
          "long_name": "Rosendale",
          "short_name": "Rosendale",
          "types": [
            "administrative_area_level_3",
            "political"
          ]
        },
        {
          "long_name": "Ulster County",
          "short_name": "Ulster County",
          "types": [
            "administrative_area_level_2",
            "political"
          ]
        },
        {
          "long_name": "New York",
          "short_name": "NY",
          "types": [
            "administrative_area_level_1",
            "political"
          ]
        },
        {
          "long_name": "United States",
          "short_name": "US",
          "types": [
            "country",
            "political"
          ]
        }
      ],
      "formatted_address": "Rosendale, NY, USA",
      "geometry": {
        "bounds": {
          "northeast": {
            "lat": 41.902224,
            "lng": -74.034333
          },
          "southwest": {
            "lat": 41.79809789999999,
            "lng": -74.12525
          }
        },
        "location": {
          "lat": 41.85303220000001,
          "lng": -74.0652616
        },
        "location_type": "APPROXIMATE",
        "viewport": {
          "northeast": {
            "lat": 41.902224,
            "lng": -74.034333
          },
          "southwest": {
            "lat": 41.79809789999999,
            "lng": -74.12525
          }
        }
      },
      "place_id": "ChIJ83RJgLQb3YkRuhzaYGvWB7A",
      "types": [
        "administrative_area_level_3",
        "political"
      ]
    },
    {
      "address_components": [
        {
          "long_name": "12440",
          "short_name": "12440",
          "types": [
            "postal_code"
          ]
        },
        {
          "long_name": "High Falls",
          "short_name": "High Falls",
          "types": [
            "locality",
            "political"
          ]
        },
        {
          "long_name": "Ulster County",
          "short_name": "Ulster County",
          "types": [
            "administrative_area_level_2",
            "political"
          ]
        },
        {
          "long_name": "New York",
          "short_name": "NY",
          "types": [
            "administrative_area_level_1",
            "political"
          ]
        },
        {
          "long_name": "United States",
          "short_name": "US",
          "types": [
            "country",
            "political"
          ]
        }
      ],
      "formatted_address": "High Falls, NY 12440, USA",
      "geometry": {
        "bounds": {
          "northeast": {
            "lat": 41.854889,
            "lng": -74.0964148
          },
          "southwest": {
            "lat": 41.745888,
            "lng": -74.21605509999999
          }
        },
        "location": {
          "lat": 41.7887335,
          "lng": -74.1592278
        },
        "location_type": "APPROXIMATE",
        "viewport": {
          "northeast": {
            "lat": 41.854889,
            "lng": -74.0964148
          },
          "southwest": {
            "lat": 41.745888,
            "lng": -74.21605509999999
          }
        }
      },
      "place_id": "ChIJB7ohA6Ee3YkR-AzGcC546Oc",
      "types": [
        "postal_code"
      ]
    },
    {
      "address_components": [
        {
          "long_name": "Kingston",
          "short_name": "Kingston",
          "types": [
            "political"
          ]
        },
        {
          "long_name": "New York",
          "short_name": "NY",
          "types": [
            "administrative_area_level_1",
            "political"
          ]
        },
        {
          "long_name": "United States",
          "short_name": "US",
          "types": [
            "country",
            "political"
          ]
        }
      ],
      "formatted_address": "Kingston, NY, USA",
      "geometry": {
        "bounds": {
          "northeast": {
            "lat": 42.1769919,
            "lng": -73.910675
          },
          "southwest": {
            "lat": 41.5806101,
            "lng": -74.780693
          }
        },
        "location": {
          "lat": 41.8586493,
          "lng": -74.3118212
        },
        "location_type": "APPROXIMATE",
        "viewport": {
          "northeast": {
            "lat": 42.1769919,
            "lng": -73.910675
          },
          "southwest": {
            "lat": 41.5806101,
            "lng": -74.780693
          }
        }
      },
      "place_id": "ChIJNZcje1bi3IkRJvm1-FceLq0",
      "types": [
        "political"
      ]
    },
    {
      "address_components": [
        {
          "long_name": "Ulster County",
          "short_name": "Ulster County",
          "types": [
            "administrative_area_level_2",
            "political"
          ]
        },
        {
          "long_name": "New York",
          "short_name": "NY",
          "types": [
            "administrative_area_level_1",
            "political"
          ]
        },
        {
          "long_name": "United States",
          "short_name": "US",
          "types": [
            "country",
            "political"
          ]
        }
      ],
      "formatted_address": "Ulster County, NY, USA",
      "geometry": {
        "bounds": {
          "northeast": {
            "lat": 42.1769919,
            "lng": -73.9168121
          },
          "southwest": {
            "lat": 41.58061000000001,
            "lng": -74.780693
          }
        },
        "location": {
          "lat": 41.8586493,
          "lng": -74.3118212
        },
        "location_type": "APPROXIMATE",
        "viewport": {
          "northeast": {
            "lat": 42.1769919,
            "lng": -73.9168121
          },
          "southwest": {
            "lat": 41.58061000000001,
            "lng": -74.780693
          }
        }
      },
      "place_id": "ChIJcYmy32Tn3IkRE4hwyqUfabM",
      "types": [
        "administrative_area_level_2",
        "political"
      ]
    },
    {
      "address_components": [
        {
          "long_name": "New York",
          "short_name": "NY",
          "types": [
            "administrative_area_level_1",
            "political"
          ]
        },
        {
          "long_name": "United States",
          "short_name": "US",
          "types": [
            "country",
            "political"
          ]
        }
      ],
      "formatted_address": "New York, USA",
      "geometry": {
        "bounds": {
          "northeast": {
            "lat": 45.015865,
            "lng": -71.85620639999999
          },
          "southwest": {
            "lat": 40.496091,
            "lng": -79.76214379999999
          }
        },
        "location": {
          "lat": 43.2994285,
          "lng": -74.21793260000001
        },
        "location_type": "APPROXIMATE",
        "viewport": {
          "northeast": {
            "lat": 45.015859,
            "lng": -71.85620639999999
          },
          "southwest": {
            "lat": 40.496091,
            "lng": -79.76214379999999
          }
        }
      },
      "place_id": "ChIJqaUj8fBLzEwRZ5UY3sHGz90",
      "types": [
        "administrative_area_level_1",
        "political"
      ]
    },
    {
      "address_components": [
        {
          "long_name": "United States",
          "short_name": "US",
          "types": [
            "country",
            "political"
          ]
        }
      ],
      "formatted_address": "United States",
      "geometry": {
        "bounds": {
          "northeast": {
            "lat": 71.3867745,
            "lng": -66.9502861
          },
          "southwest": {
            "lat": 18.9106768,
            "lng": 172.4458955
          }
        },
        "location": {
          "lat": 37.09024,
          "lng": -95.712891
        },
        "location_type": "APPROXIMATE",
        "viewport": {
          "northeast": {
            "lat": 49.38,
            "lng": -66.94
          },
          "southwest": {
            "lat": 25.82,
            "lng": -124.39
          }
        }
      },
      "place_id": "ChIJCzYy5IS16lQRQrfeQ5K5Oxw",
      "types": [
        "country",
        "political"
      ]
    }
  ],
  "status": "OK"
}
