{
  "results": [
    {
      "address_components": [
        {
          "long_name": "581",
          "short_name": "581",
          "types": [
            "street_number"
          ]
        },
        {
          "long_name": "Route 17M",
          "short_name": "NY-17M",
          "types": [
            "route"
          ]
        },
        {
          "long_name": "Monroe",
          "short_name": "Monroe",
          "types": [
            "locality",
            "political"
          ]
        },
        {
          "long_name": "Monroe",
          "short_name": "Monroe",
          "types": [
            "administrative_area_level_3",
            "political"
          ]
        },
        {
          "long_name": "Orange County",
          "short_name": "Orange County",
          "types": [
            "administrative_area_level_2",
            "political"
          ]
        },
        {
          "long_name": "New York",
          "short_name": "NY",
          "types": [
            "administrative_area_level_1",
            "political"
          ]
        },
        {
          "long_name": "United States",
          "short_name": "US",
          "types": [
            "country",
            "political"
          ]
        },
        {
          "long_name": "10950",
          "short_name": "10950",
          "types": [
            "postal_code"
          ]
        }
      ],
      "formatted_address": "581 NY-17M, Monroe, NY 10950, USA",
      "geometry": {
        "location": {
          "lat": 41.3208742,
          "lng": -74.1847324
        },
        "location_type": "ROOFTOP",
        "viewport": {
          "northeast": {
            "lat": 41.32222318029149,
            "lng": -74.1833834197085
          },
          "southwest": {
            "lat": 41.3195252197085,
            "lng": -74.18608138029151
          }
        }
      },
      "place_id": "ChIJQRrgErvXwokRD0XuvgjRaN0",
      "types": [
        "street_address"
      ]
    },
    {
      "address_components": [
        {
          "long_name": "Monroe",
          "short_name": "Monroe",
          "types": [
            "locality",
            "political"
          ]
        },
        {
          "long_name": "Monroe",
          "short_name": "Monroe",
          "types": [
            "administrative_area_level_3",
            "political"
          ]
        },
        {
          "long_name": "Orange County",
          "short_name": "Orange County",
          "types": [
            "administrative_area_level_2",
            "political"
          ]
        },
        {
          "long_name": "New York",
          "short_name": "NY",
          "types": [
            "administrative_area_level_1",
            "political"
          ]
        },
        {
          "long_name": "United States",
          "short_name": "US",
          "types": [
            "country",
            "political"
          ]
        },
        {
          "long_name": "10950",
          "short_name": "10950",
          "types": [
            "postal_code"
          ]
        }
      ],
      "formatted_address": "Monroe, NY 10950, USA",
      "geometry": {
        "bounds": {
          "northeast": {
            "lat": 41.3411649,
            "lng": -74.160106
          },
          "southwest": {
            "lat": 41.297927,
            "lng": -74.2070201
          }
        },
        "location": {
          "lat": 41.3306493,
          "lng": -74.1868135
        },
        "location_type": "APPROXIMATE",
        "viewport": {
          "northeast": {
            "lat": 41.3411649,
            "lng": -74.160106
          },
          "southwest": {
            "lat": 41.297927,
            "lng": -74.2070201
          }
        }
      },
      "place_id": "ChIJ1R-oMLbXwokRPUYIRFYNmVc",
      "types": [
        "locality",
        "political"
      ]
    },
    {
      "address_components": [
        {
          "long_name": "Monroe",
          "short_name": "Monroe",
          "types": [
            "administrative_area_level_3",
            "political"
          ]
        },
        {
          "long_name": "Orange County",
          "short_name": "Orange County",
          "types": [
            "administrative_area_level_2",
            "political"
          ]
        },
        {
          "long_name": "New York",
          "short_name": "NY",
          "types": [
            "administrative_area_level_1",
            "political"
          ]
        },
        {
          "long_name": "United States",
          "short_name": "US",
          "types": [
            "country",
            "political"
          ]
        }
      ],
      "formatted_address": "Monroe, NY, USA",
      "geometry": {
        "bounds": {
          "northeast": {
            "lat": 41.361119,
            "lng": -74.1451819
          },
          "southwest": {
            "lat": 41.26099689999999,
            "lng": -74.247916
          }
        },
        "location": {
          "lat": 41.3046016,
          "lng": -74.1827119
        },
        "location_type": "APPROXIMATE",
        "viewport": {
          "northeast": {
            "lat": 41.361119,
            "lng": -74.1451819
          },
          "southwest": {
            "lat": 41.26099689999999,
            "lng": -74.247916
          }
        }
      },
      "place_id": "ChIJG2pT228nw4kRqvXNFCylTQU",
      "types": [
        "administrative_area_level_3",
        "political"
      ]
    },
    {
      "address_components": [
        {
          "long_name": "10950",
          "short_name": "10950",
          "types": [
            "postal_code"
          ]
        },
        {
          "long_name": "Monroe",
          "short_name": "Monroe",
          "types": [
            "locality",
            "political"
          ]
        },
        {
          "long_name": "Orange County",
          "short_name": "Orange County",
          "types": [
            "administrative_area_level_2",
            "political"
          ]
        },
        {
          "long_name": "New York",
          "short_name": "NY",
          "types": [
            "administrative_area_level_1",
            "political"
          ]
        },
        {
          "long_name": "United States",
          "short_name": "US",
          "types": [
            "country",
            "political"
          ]
        }
      ],
      "formatted_address": "Monroe, NY 10950, USA",
      "geometry": {
        "bounds": {
          "northeast": {
            "lat": 41.4096951,
            "lng": -74.1224659
          },
          "southwest": {
            "lat": 41.2277599,
            "lng": -74.290184
          }
        },
        "location": {
          "lat": 41.3078975,
          "lng": -74.2061931
        },
        "location_type": "APPROXIMATE",
        "viewport": {
          "northeast": {
            "lat": 41.4096951,
            "lng": -74.1224659
          },
          "southwest": {
            "lat": 41.2277599,
            "lng": -74.290184
          }
        }
      },
      "place_id": "ChIJ74KmAejXwokRDKMlASLSi38",
      "postcode_localities": [
        "Kiryas Joel",
        "Monroe"
      ],
      "types": [
        "postal_code"
      ]
    },
    {
      "address_components": [
        {
          "long_name": "Orange County",
          "short_name": "Orange County",
          "types": [
            "administrative_area_level_2",
            "political"
          ]
        },
        {
          "long_name": "New York",
          "short_name": "NY",
          "types": [
            "administrative_area_level_1",
            "political"
          ]
        },
        {
          "long_name": "United States",
          "short_name": "US",
          "types": [
            "country",
            "political"
          ]
        }
      ],
      "formatted_address": "Orange County, NY, USA",
      "geometry": {
        "bounds": {
          "northeast": {
            "lat": 41.6327378,
            "lng": -73.9507237
          },
          "southwest": {
            "lat": 41.142883,
            "lng": -74.76262299999999
          }
        },
        "location": {
          "lat": 41.3911653,
          "lng": -74.3118212
        },
        "location_type": "APPROXIMATE",
        "viewport": {
          "northeast": {
            "lat": 41.6327378,
            "lng": -73.9507237
          },
          "southwest": {
            "lat": 41.142883,
            "lng": -74.76262299999999
          }
        }
      },
      "place_id": "ChIJC1B7Fc3S3IkRu6ik0rYBvT4",
      "types": [
        "administrative_area_level_2",
        "political"
      ]
    },
    {
      "address_components": [
        {
          "long_name": "New York",
          "short_name": "NY",
          "types": [
            "administrative_area_level_1",
            "political"
          ]
        },
        {
          "long_name": "United States",
          "short_name": "US",
          "types": [
            "country",
            "political"
          ]
        }
      ],
      "formatted_address": "New York, USA",
      "geometry": {
        "bounds": {
          "northeast": {
            "lat": 45.015865,
            "lng": -71.85620639999999
          },
          "southwest": {
            "lat": 40.496091,
            "lng": -79.76214379999999
          }
        },
        "location": {
          "lat": 43.2994285,
          "lng": -74.21793260000001
        },
        "location_type": "APPROXIMATE",
        "viewport": {
          "northeast": {
            "lat": 45.015859,
            "lng": -71.85620639999999
          },
          "southwest": {
            "lat": 40.496091,
            "lng": -79.76214379999999
          }
        }
      },
      "place_id": "ChIJqaUj8fBLzEwRZ5UY3sHGz90",
      "types": [
        "administrative_area_level_1",
        "political"
      ]
    },
    {
      "address_components": [
        {
          "long_name": "United States",
          "short_name": "US",
          "types": [
            "country",
            "political"
          ]
        }
      ],
      "formatted_address": "United States",
      "geometry": {
        "bounds": {
          "northeast": {
            "lat": 71.3867745,
            "lng": -66.9502861
          },
          "southwest": {
            "lat": 18.9106768,
            "lng": 172.4458955
          }
        },
        "location": {
          "lat": 37.09024,
          "lng": -95.712891
        },
        "location_type": "APPROXIMATE",
        "viewport": {
          "northeast": {
            "lat": 49.38,
            "lng": -66.94
          },
          "southwest": {
            "lat": 25.82,
            "lng": -124.39
          }
        }
      },
      "place_id": "ChIJCzYy5IS16lQRQrfeQ5K5Oxw",
      "types": [
        "country",
        "political"
      ]
    }
  ],
  "status": "OK"
}
