{
  "results": [
    {
      "address_components": [
        {
          "long_name": "Garfield Street",
          "short_name": "Garfield St",
          "types": [
            "route"
          ]
        },
        {
          "long_name": "Virgil",
          "short_name": "Virgil",
          "types": [
            "locality",
            "political"
          ]
        },
        {
          "long_name": "Lane",
          "short_name": "Lane",
          "types": [
            "administrative_area_level_3",
            "political"
          ]
        },
        {
          "long_name": "Greenwood County",
          "short_name": "Greenwood County",
          "types": [
            "administrative_area_level_2",
            "political"
          ]
        },
        {
          "long_name": "Kansas",
          "short_name": "KS",
          "types": [
            "administrative_area_level_1",
            "political"
          ]
        },
        {
          "long_name": "United States",
          "short_name": "US",
          "types": [
            "country",
            "political"
          ]
        },
        {
          "long_name": "66870",
          "short_name": "66870",
          "types": [
            "postal_code"
          ]
        }
      ],
      "formatted_address": "Garfield St, Virgil, KS 66870, USA",
      "geometry": {
        "bounds": {
          "northeast": {
            "lat": 37.9810063,
            "lng": -96.0118574
          },
          "southwest": {
            "lat": 37.9799938,
            "lng": -96.01187619999999
          }
        },
        "location": {
          "lat": 37.9805001,
          "lng": -96.01186679999999
        },
        "location_type": "GEOMETRIC_CENTER",
        "viewport": {
          "northeast": {
            "lat": 37.98184903029149,
            "lng": -96.01051781970848
          },
          "southwest": {
            "lat": 37.97915106970849,
            "lng": -96.01321578029149
          }
        }
      },
      "place_id": "ChIJbxbUBJENuYcR2w5fdH7cuqI",
      "types": [
        "route"
      ]
    },
    {
      "address_components": [
        {
          "long_name": "Virgil",
          "short_name": "Virgil",
          "types": [
            "locality",
            "political"
          ]
        },
        {
          "long_name": "Lane",
          "short_name": "Lane",
          "types": [
            "administrative_area_level_3",
            "political"
          ]
        },
        {
          "long_name": "Greenwood County",
          "short_name": "Greenwood County",
          "types": [
            "administrative_area_level_2",
            "political"
          ]
        },
        {
          "long_name": "Kansas",
          "short_name": "KS",
          "types": [
            "administrative_area_level_1",
            "political"
          ]
        },
        {
          "long_name": "United States",
          "short_name": "US",
          "types": [
            "country",
            "political"
          ]
        },
        {
          "long_name": "66870",
          "short_name": "66870",
          "types": [
            "postal_code"
          ]
        }
      ],
      "formatted_address": "Virgil, KS 66870, USA",
      "geometry": {
        "bounds": {
          "northeast": {
            "lat": 37.986309,
            "lng": -96.00470709999999
          },
          "southwest": {
            "lat": 37.9754099,
            "lng": -96.0185511
          }
        },
        "location": {
          "lat": 37.9808617,
          "lng": -96.01026999999999
        },
        "location_type": "APPROXIMATE",
        "viewport": {
          "northeast": {
            "lat": 37.986309,
            "lng": -96.00470709999999
          },
          "southwest": {
            "lat": 37.9754099,
            "lng": -96.0185511
          }
        }
      },
      "place_id": "ChIJ4cnaCJENuYcRF9T4EbU1DrQ",
      "types": [
        "locality",
        "political"
      ]
    },
    {
      "address_components": [
        {
          "long_name": "Lane",
          "short_name": "Lane",
          "types": [
            "administrative_area_level_3",
            "political"
          ]
        },
        {
          "long_name": "Greenwood County",
          "short_name": "Greenwood County",
          "types": [
            "administrative_area_level_2",
            "political"
          ]
        },
        {
          "long_name": "Kansas",
          "short_name": "KS",
          "types": [
            "administrative_area_level_1",
            "political"
          ]
        },
        {
          "long_name": "United States",
          "short_name": "US",
          "types": [
            "country",
            "political"
          ]
        }
      ],
      "formatted_address": "Lane, KS, USA",
      "geometry": {
        "bounds": {
          "northeast": {
            "lat": 38.041337,
            "lng": -95.958496
          },
          "southwest": {
            "lat": 37.909245,
            "lng": -96.06782609999999
          }
        },
        "location": {
          "lat": 37.9736072,
          "lng": -96.0044121
        },
        "location_type": "APPROXIMATE",
        "viewport": {
          "northeast": {
            "lat": 38.041337,
            "lng": -95.958496
          },
          "southwest": {
            "lat": 37.909245,
            "lng": -96.06782609999999
          }
        }
      },
      "place_id": "ChIJsfP_QuoNuYcR13k_qeGCdWk",
      "types": [
        "administrative_area_level_3",
        "political"
      ]
    },
    {
      "address_components": [
        {
          "long_name": "66870",
          "short_name": "66870",
          "types": [
            "postal_code"
          ]
        },
        {
          "long_name": "Virgil",
          "short_name": "Virgil",
          "types": [
            "locality",
            "political"
          ]
        },
        {
          "long_name": "Kansas",
          "short_name": "KS",
          "types": [
            "administrative_area_level_1",
            "political"
          ]
        },
        {
          "long_name": "United States",
          "short_name": "US",
          "types": [
            "country",
            "political"
          ]
        }
      ],
      "formatted_address": "Virgil, KS 66870, USA",
      "geometry": {
        "bounds": {
          "northeast": {
            "lat": 38.076842,
            "lng": -95.94924379999999
          },
          "southwest": {
            "lat": 37.836211,
            "lng": -96.08619
          }
        },
        "location": {
          "lat": 37.9313724,
          "lng": -96.0044121
        },
        "location_type": "APPROXIMATE",
        "viewport": {
          "northeast": {
            "lat": 38.076842,
            "lng": -95.94924379999999
          },
          "southwest": {
            "lat": 37.836211,
            "lng": -96.08619
          }
        }
      },
      "place_id": "ChIJ_fT0NDwLuYcR4lEzFGHqhmQ",
      "types": [
        "postal_code"
      ]
    },
    {
      "address_components": [
        {
          "long_name": "Greenwood County",
          "short_name": "Greenwood County",
          "types": [
            "administrative_area_level_2",
            "political"
          ]
        },
        {
          "long_name": "Kansas",
          "short_name": "KS",
          "types": [
            "administrative_area_level_1",
            "political"
          ]
        },
        {
          "long_name": "United States",
          "short_name": "US",
          "types": [
            "country",
            "political"
          ]
        }
      ],
      "formatted_address": "Greenwood County, KS, USA",
      "geometry": {
        "bounds": {
          "northeast": {
            "lat": 38.1736634,
            "lng": -95.9581341
          },
          "southwest": {
            "lat": 37.603761,
            "lng": -96.52598490000001
          }
        },
        "location": {
          "lat": 37.9025905,
          "lng": -96.15269850000001
        },
        "location_type": "APPROXIMATE",
        "viewport": {
          "northeast": {
            "lat": 38.1736634,
            "lng": -95.9581341
          },
          "southwest": {
            "lat": 37.603761,
            "lng": -96.52598490000001
          }
        }
      },
      "place_id": "ChIJYVmpJARjuYcRk8aNE18Bko4",
      "types": [
        "administrative_area_level_2",
        "political"
      ]
    },
    {
      "address_components": [
        {
          "long_name": "Kansas",
          "short_name": "KS",
          "types": [
            "administrative_area_level_1",
            "political"
          ]
        },
        {
          "long_name": "United States",
          "short_name": "US",
          "types": [
            "country",
            "political"
          ]
        }
      ],
      "formatted_address": "Kansas, USA",
      "geometry": {
        "bounds": {
          "northeast": {
            "lat": 40.0045419,
            "lng": -94.588387
          },
          "southwest": {
            "lat": 36.9930159,
            "lng": -102.0517688
          }
        },
        "location": {
          "lat": 39.011902,
          "lng": -98.4842465
        },
        "location_type": "APPROXIMATE",
        "viewport": {
          "northeast": {
            "lat": 40.0045419,
            "lng": -94.588387
          },
          "southwest": {
            "lat": 36.9930159,
            "lng": -102.0517688
          }
        }
      },
      "place_id": "ChIJawF8cXEXo4cRXwk-S6m0wmg",
      "types": [
        "administrative_area_level_1",
        "political"
      ]
    },
    {
      "address_components": [
        {
          "long_name": "United States",
          "short_name": "US",
          "types": [
            "country",
            "political"
          ]
        }
      ],
      "formatted_address": "United States",
      "geometry": {
        "bounds": {
          "northeast": {
            "lat": 71.3867745,
            "lng": -66.9502861
          },
          "southwest": {
            "lat": 18.9106768,
            "lng": 172.4458955
          }
        },
        "location": {
          "lat": 37.09024,
          "lng": -95.712891
        },
        "location_type": "APPROXIMATE",
        "viewport": {
          "northeast": {
            "lat": 49.38,
            "lng": -66.94
          },
          "southwest": {
            "lat": 25.82,
            "lng": -124.39
          }
        }
      },
      "place_id": "ChIJCzYy5IS16lQRQrfeQ5K5Oxw",
      "types": [
        "country",
        "political"
      ]
    }
  ],
  "status": "OK"
}
