{
  "results": [
    {
      "address_components": [
        {
          "long_name": "6360",
          "short_name": "6360",
          "types": [
            "street_number"
          ]
        },
        {
          "long_name": "Durkee Road",
          "short_name": "Durkee Rd",
          "types": [
            "route"
          ]
        },
        {
          "long_name": "Conesus",
          "short_name": "Conesus",
          "types": [
            "locality",
            "political"
          ]
        },
        {
          "long_name": "Conesus",
          "short_name": "Conesus",
          "types": [
            "administrative_area_level_3",
            "political"
          ]
        },
        {
          "long_name": "Livingston County",
          "short_name": "Livingston County",
          "types": [
            "administrative_area_level_2",
            "political"
          ]
        },
        {
          "long_name": "New York",
          "short_name": "NY",
          "types": [
            "administrative_area_level_1",
            "political"
          ]
        },
        {
          "long_name": "United States",
          "short_name": "US",
          "types": [
            "country",
            "political"
          ]
        },
        {
          "long_name": "14435",
          "short_name": "14435",
          "types": [
            "postal_code"
          ]
        },
        {
          "long_name": "9570",
          "short_name": "9570",
          "types": [
            "postal_code_suffix"
          ]
        }
      ],
      "formatted_address": "6360 Durkee Rd, Conesus, NY 14435, USA",
      "geometry": {
        "location": {
          "lat": 42.72683,
          "lng": -77.67071790000001
        },
        "location_type": "ROOFTOP",
        "viewport": {
          "northeast": {
            "lat": 42.7281789802915,
            "lng": -77.66936891970852
          },
          "southwest": {
            "lat": 42.7254810197085,
            "lng": -77.67206688029152
          }
        }
      },
      "place_id": "ChIJc2S32Ltu0YkR7P7uPaUUE7E",
      "types": [
        "street_address"
      ]
    },
    {
      "address_components": [
        {
          "long_name": "Conesus",
          "short_name": "Conesus",
          "types": [
            "administrative_area_level_3",
            "political"
          ]
        },
        {
          "long_name": "Livingston County",
          "short_name": "Livingston County",
          "types": [
            "administrative_area_level_2",
            "political"
          ]
        },
        {
          "long_name": "New York",
          "short_name": "NY",
          "types": [
            "administrative_area_level_1",
            "political"
          ]
        },
        {
          "long_name": "United States",
          "short_name": "US",
          "types": [
            "country",
            "political"
          ]
        }
      ],
      "formatted_address": "Conesus, NY, USA",
      "geometry": {
        "bounds": {
          "northeast": {
            "lat": 42.763613,
            "lng": -77.6005737
          },
          "southwest": {
            "lat": 42.6719708,
            "lng": -77.718062
          }
        },
        "location": {
          "lat": 42.7211058,
          "lng": -77.67651839999999
        },
        "location_type": "APPROXIMATE",
        "viewport": {
          "northeast": {
            "lat": 42.763613,
            "lng": -77.6005737
          },
          "southwest": {
            "lat": 42.6719708,
            "lng": -77.718062
          }
        }
      },
      "place_id": "ChIJTzb_OJ9u0YkRu82z90aSeQU",
      "types": [
        "administrative_area_level_3",
        "political"
      ]
    },
    {
      "address_components": [
        {
          "long_name": "14435",
          "short_name": "14435",
          "types": [
            "postal_code"
          ]
        },
        {
          "long_name": "Conesus",
          "short_name": "Conesus",
          "types": [
            "locality",
            "political"
          ]
        },
        {
          "long_name": "New York",
          "short_name": "NY",
          "types": [
            "administrative_area_level_1",
            "political"
          ]
        },
        {
          "long_name": "United States",
          "short_name": "US",
          "types": [
            "country",
            "political"
          ]
        }
      ],
      "formatted_address": "Conesus, NY 14435, USA",
      "geometry": {
        "bounds": {
          "northeast": {
            "lat": 42.77441899999999,
            "lng": -77.59240299999999
          },
          "southwest": {
            "lat": 42.664643,
            "lng": -77.731535
          }
        },
        "location": {
          "lat": 42.7211058,
          "lng": -77.67651839999999
        },
        "location_type": "APPROXIMATE",
        "viewport": {
          "northeast": {
            "lat": 42.77441899999999,
            "lng": -77.59240299999999
          },
          "southwest": {
            "lat": 42.664643,
            "lng": -77.731535
          }
        }
      },
      "place_id": "ChIJc6q1Lo9u0YkRRH6TTPYkazc",
      "types": [
        "postal_code"
      ]
    },
    {
      "address_components": [
        {
          "long_name": "Livingston County",
          "short_name": "Livingston County",
          "types": [
            "administrative_area_level_2",
            "political"
          ]
        },
        {
          "long_name": "New York",
          "short_name": "NY",
          "types": [
            "administrative_area_level_1",
            "political"
          ]
        },
        {
          "long_name": "United States",
          "short_name": "US",
          "types": [
            "country",
            "political"
          ]
        }
      ],
      "formatted_address": "Livingston County, NY, USA",
      "geometry": {
        "bounds": {
          "northeast": {
            "lat": 42.9884628,
            "lng": -77.486875
          },
          "southwest": {
            "lat": 42.471216,
            "lng": -78.06096300000002
          }
        },
        "location": {
          "lat": 42.7576923,
          "lng": -77.8367282
        },
        "location_type": "APPROXIMATE",
        "viewport": {
          "northeast": {
            "lat": 42.9884628,
            "lng": -77.486875
          },
          "southwest": {
            "lat": 42.471216,
            "lng": -78.06096300000002
          }
        }
      },
      "place_id": "ChIJ6yynZsJk0YkR63qYbR_jxtU",
      "types": [
        "administrative_area_level_2",
        "political"
      ]
    },
    {
      "address_components": [
        {
          "long_name": "Rochester",
          "short_name": "Rochester",
          "types": [
            "political"
          ]
        },
        {
          "long_name": "New York",
          "short_name": "NY",
          "types": [
            "administrative_area_level_1",
            "political"
          ]
        },
        {
          "long_name": "United States",
          "short_name": "US",
          "types": [
            "country",
            "political"
          ]
        }
      ],
      "formatted_address": "Rochester, NY, USA",
      "geometry": {
        "bounds": {
          "northeast": {
            "lat": 43.37650499999999,
            "lng": -76.702356
          },
          "southwest": {
            "lat": 42.471216,
            "lng": -78.46648309999999
          }
        },
        "location": {
          "lat": 42.938004,
          "lng": -77.3783789
        },
        "location_type": "APPROXIMATE",
        "viewport": {
          "northeast": {
            "lat": 43.37650499999999,
            "lng": -76.702356
          },
          "southwest": {
            "lat": 42.471216,
            "lng": -78.46648309999999
          }
        }
      },
      "place_id": "ChIJgc_bWiY20YkRqU2QPLS42jQ",
      "types": [
        "political"
      ]
    },
    {
      "address_components": [
        {
          "long_name": "New York",
          "short_name": "NY",
          "types": [
            "administrative_area_level_1",
            "political"
          ]
        },
        {
          "long_name": "United States",
          "short_name": "US",
          "types": [
            "country",
            "political"
          ]
        }
      ],
      "formatted_address": "New York, USA",
      "geometry": {
        "bounds": {
          "northeast": {
            "lat": 45.015865,
            "lng": -71.85620639999999
          },
          "southwest": {
            "lat": 40.496091,
            "lng": -79.76214379999999
          }
        },
        "location": {
          "lat": 43.2994285,
          "lng": -74.21793260000001
        },
        "location_type": "APPROXIMATE",
        "viewport": {
          "northeast": {
            "lat": 45.015859,
            "lng": -71.85620639999999
          },
          "southwest": {
            "lat": 40.496091,
            "lng": -79.76214379999999
          }
        }
      },
      "place_id": "ChIJqaUj8fBLzEwRZ5UY3sHGz90",
      "types": [
        "administrative_area_level_1",
        "political"
      ]
    },
    {
      "address_components": [
        {
          "long_name": "United States",
          "short_name": "US",
          "types": [
            "country",
            "political"
          ]
        }
      ],
      "formatted_address": "United States",
      "geometry": {
        "bounds": {
          "northeast": {
            "lat": 71.3867745,
            "lng": -66.9502861
          },
          "southwest": {
            "lat": 18.9106768,
            "lng": 172.4458955
          }
        },
        "location": {
          "lat": 37.09024,
          "lng": -95.712891
        },
        "location_type": "APPROXIMATE",
        "viewport": {
          "northeast": {
            "lat": 49.38,
            "lng": -66.94
          },
          "southwest": {
            "lat": 25.82,
            "lng": -124.39
          }
        }
      },
      "place_id": "ChIJCzYy5IS16lQRQrfeQ5K5Oxw",
      "types": [
        "country",
        "political"
      ]
    }
  ],
  "status": "OK"
}
